"area","name","lat","long","status","note","address"
"青葉区","仙台市立上杉山通小学校東側",38.2713026,140.873753,1,"","仙台市青葉区上杉一丁目１０番１号"
"青葉区","仙台市外記丁通公園北側",38.2720492,140.8719284,1,"","仙台市青葉区上杉一丁目１４番内"
"青葉区","仙台市勝山公園東側",38.27343,140.87371,1,"","仙台市青葉区上杉二丁目１番内"
"青葉区","仙台市勝山公園南側",38.27312,140.87331,1,"","仙台市青葉区上杉二丁目１番内"
"青葉区","仙台市上杉公園南側",38.2713245,140.8798149,1,"","仙台市青葉区上杉四丁目１番内"
"青葉区","仙台市錦町公園東側",38.2661115,140.8751418,1,"","仙台市青葉区本町二丁目２１番内"
"青葉区","仙台市勾当台公園北側",38.26746,140.8709,1,"","仙台市青葉区本町三丁目９番内"
"青葉区","仙台市勾当台公園南側",38.26633,140.87167,1,"","仙台市青葉区本町三丁目９番内"
"青葉区","青葉区役所西側",38.269075,140.8704473,1,"","仙台市青葉区上杉一丁目５番1号"
"青葉区","仙台市立木町通小学校北側",38.2710134,140.8645156,1,"","仙台市青葉区木町通一丁目７番３６号"
"青葉区","仙台市北三番丁公園東側",38.2704896,140.8645032,1,"","仙台市青葉区木町通一丁目７番内"
"青葉区","仙台市立第二中学校南側",38.2736003,140.8644094,1,"","仙台市青葉区木町通二丁目４番１号"
"青葉区","東北大学加齢医学研究所南側",38.2742253,140.8603138,0,"","仙台市青葉区星陵町４番１号"
"青葉区","東北大学病院南側",38.2719482,140.8608739,1,"","仙台市青葉区星陵町１番１号"
"青葉区","（公財）仙台市建設公社駐車場",38.2690793,140.8635712,1,"","仙台市青葉区木町通一丁目3番内"
"青葉区","仙台市春日町公園西側",38.2670998,140.8656261,1,"","仙台市青葉区春日町７番内"
"青葉区","仙台市勾当台公園市民広場",38.2669711,140.8699785,1,"","仙台市青葉区国分町三丁目７番内"
"青葉区","仙台市立木町通小学校西側",38.2710134,140.8645156,1,"","仙台市青葉区木町通一丁目７番３６号"
"青葉区","仙台市立通町小学校南側",38.2765746,140.8631272,0,"","仙台市青葉区通町一丁目１番１号"
"青葉区","柏木保育園北側",38.275081,140.8623262,1,"","仙台市青葉区柏木一丁目５番３５号"
"青葉区","仙台北山郵便局南側",38.2784069,140.8610808,0,"","仙台市青葉区木町１４番内"
"青葉区","輪王寺前バス停東側",38.2834164,140.8592582,0,"","仙台市青葉区北山一丁目７番内"
"青葉区","仙台市通町公園南側",38.2810474,140.8636134,0,"","仙台市青葉区青葉町６番内"
"青葉区","仙台市通町市営住宅北側",38.2778817,140.8670844,1,"","仙台市青葉区通町一丁目6番10号"
"青葉区","仙台市立通町小学校西側",38.2765746,140.8631272,1,"","仙台市青葉区通町一丁目１番１号"
"青葉区","月極駐車場エルタスパーク南側",38.2799687,140.8650274,0,"","仙台市青葉区通町二丁目３番内"
"青葉区","仙台市立上杉山中学校西側",38.2781874,140.8737637,1,"","仙台市青葉区上杉六丁目７番１号"
"青葉区","宮城教育大学附属中学校西側",38.27792,140.8756334,1,"","仙台市青葉区上杉六丁目４番１号"
"青葉区","仙台厚生病院西側",38.2763576,140.8701572,1,"","仙台市青葉区堤通雨宮町１番２０号"
"青葉区","仙台市立上杉山中学校北側",38.2781874,140.8737637,1,"","仙台市青葉区上杉六丁目７番１号"
"青葉区","宮城県仙台合同庁舎西側",38.2779919,140.8677748,1,"","仙台市青葉区堤通雨宮町４番１７号"
"青葉区","宮城教育大学附属小学校北側",38.27792,140.8756334,1,"","仙台市青葉区上杉六丁目４番１号"
"青葉区","ファミリーマート堤町一丁目店北側",38.2832612,140.8704521,0,"","仙台市青葉区堤町一丁目３番内"
"青葉区","日浄寺入口東側",38.2832612,140.8704521,0,"","仙台市青葉区堤町一丁目１０番内"
"青葉区","仙台市立北六番丁小学校北側",38.2762062,140.882464,1,"","仙台市青葉区宮町四丁目４番１７号"
"青葉区","東北電力宮町アパート",38.274513,140.8824633,1,"","仙台市青葉区宮町四丁目５番５７号"
"青葉区","宮町四丁目３番内（個人宅地）",38.2755124,140.8805063,1,"","仙台市青葉区宮町四丁目３番４３号"
"青葉区","仙台市立北六番丁小学校西側",38.2762062,140.882464,1,"","仙台市青葉区宮町四丁目４番１７号"
"青葉区","仙台市立五城中学校北側",38.279265,140.8833694,1,"","仙台市青葉区東照宮一丁目３番１号"
"青葉区","仙台市児童相談所西側",38.2810727,140.8829683,1,"","仙台市青葉区東照宮一丁目１８番１号"
"青葉区","東急ドエルアルス東照宮明水館東側",38.2771181,140.8843467,1,"","仙台市青葉区宮町五丁目３番５号"
"青葉区","仙台市上杉杜の公園",38.2747942,140.8788155,1,"","仙台市青葉区上杉五丁目５番内"
"青葉区","仙台市立東六番丁小学校西側",38.2660626,140.8841655,1,"","仙台市青葉区宮町一丁目２番１号"
"青葉区","仙台市小田原四丁目公園北側",38.2692849,140.8920119,1,"","仙台市青葉区小田原四丁目3番内"
"青葉区","花京院緑地南側",38.2638393,140.8806623,1,"","仙台市青葉区花京院一丁目１番内"
"青葉区","仙台駅自転車保管所北側（宮城野橋下）",38.2631798,140.881998,1,"","仙台市青葉区中央一丁目3番10号"
"青葉区","宮城野橋南西側",38.2628806,140.8809099,1,"","仙台市青葉区中央一丁目３番内"
"青葉区","宮町県職員宿舎",38.270705,140.8831138,1,"","仙台市青葉区宮町二丁目１番２３号"
"青葉区","常盤木学園西側",38.2693784,140.8896248,1,"","仙台市青葉区小田原四丁目３番２０号"
"青葉区","仙台市小田原青葉のまち公園",38.2680718,140.8916187,1,"","仙台市青葉区小田原四丁目１４番内"
"青葉区","仙台市立東二番丁小学校東側",38.2589858,140.8750167,1,"","仙台市青葉区一番町二丁目１番４号"
"青葉区","仙台市五橋公園東側",38.2546982,140.880603,1,"","仙台市青葉区五橋一丁目１番内"
"青葉区","イムス明理会仙台総合病院",38.2575657999999,140.8773822,1,"","仙台市青葉区中央四丁目５番１号"
"青葉区","仙台市五橋公園南側",38.2546982,140.880603,1,"","仙台市青葉区五橋一丁目１番内"
"青葉区","仙台駅西口ペデストリアンデッキ北側",38.2599491,140.8810315,1,"","仙台市青葉区中央一丁目１番内"
"青葉区","電力ビル本館西側",38.2616873,140.8734806,1,"","仙台市青葉区一番町三丁目７番１号"
"青葉区","仙台駅西口ペデストリアンデッキ南側",38.2599491,140.8810315,1,"","仙台市青葉区中央一丁目１番内"
"青葉区","仙台市立五橋中学校東側",38.2521422,140.8792063,1,"","仙台市青葉区五橋二丁目２番１号"
"青葉区","仙台市立五橋中学校北側",38.2521422,140.8792063,1,"","仙台市青葉区五橋二丁目２番１号"
"青葉区","東北学院大学職員用駐車場(テニスコート跡地）北側",38.2492359,140.8771047,1,"","仙台市青葉区土樋一丁目１０番内"
"青葉区","東北大学電気通信研究所南側",38.2515119,140.8753007,1,"","仙台市青葉区片平二丁目１番１号"
"青葉区","東北大学ナノスピン総合研究棟西側",38.2515119,140.8753007,1,"","仙台市青葉区片平二丁目１番１号"
"青葉区","東北大学多元物質科学研究所南側",38.2515119,140.8753007,1,"","仙台市青葉区片平二丁目１番１号"
"青葉区","東北大学金属材料研究所北側",38.2515119,140.8753007,1,"","仙台市青葉区片平二丁目１番１号"
"青葉区","仙台市立片平丁小学校西側",38.2560791999999,140.8686337,1,"","仙台市青葉区片平一丁目７番１号"
"青葉区","仙台市片平さんかく公園",38.2572279,140.8694059,1,"","仙台市青葉区一番町一丁目１７番内"
"青葉区","仙台市大手町公園",38.2569191,140.8616934,1,"","仙台市青葉区大手町１０番内"
"青葉区","仙台市評定河原野球場",38.2565148,140.8671451,1,"","仙台市青葉区花壇１番内"
"青葉区","瑞鳳殿第２駐車場",38.25181,140.8662432,1,"","仙台市青葉区霊屋下１２番内"
"青葉区","仙臺大神宮南西先",38.2577529,140.8643114,1,"","仙台市青葉区大手町６番内"
"青葉区","仙台市片平市民センタ－東側",38.2538803,140.8705711,1,"","仙台市青葉区米ケ袋一丁目１番３５号"
"青葉区","仙台市立片平丁小学校東側",38.2560791999999,140.8686337,1,"","仙台市青葉区片平一丁目７番１号"
"青葉区","仙台市立立町小学校南側",38.3032537,140.8510983,0,"","仙台市青葉区立町８番１号"
"青葉区","仙台市立立町小学校西側",38.3032537,140.8510983,0,"","仙台市青葉区立町８番１号"
"青葉区","仙台市元鍛冶町公園北西側",38.2642095,140.8686478,1,"","仙台市青葉区国分町二丁目９番内"
"青葉区","仙台市西公園（トークネットホール仙台南側)",38.265326,140.862909,1,"","仙台市青葉区桜ケ岡公園３番内"
"青葉区","仙台市西公園(大町交番北側）",38.2593981,140.8634639,1,"","仙台市青葉区桜ケ岡公園１番内"
"青葉区","西松建設㈱南側駐車場",38.2593685999999,140.8654329,0,"","仙台市青葉区大町二丁目４番内"
"青葉区","仙台市肴町公園北側",38.2608092,140.8695813,1,"","仙台市青葉区国分町一丁目２番内"
"青葉区","仙台市西公園（大町西公園駅前）南側",38.2609851,140.8623589,1,"","仙台市青葉区桜ケ岡公園１番内"
"青葉区","川内大工町地内（仙台第二高等学校東南先）",38.2627218,140.858362,1,"","仙台市青葉区川内大工町無番地"
"青葉区","仙台第二高等学校西側",38.2636548,140.8571033,1,"","仙台市青葉区川内澱橋通１番地"
"青葉区","仙台市地下鉄川内駅前",38.2605557,140.8499455,1,"","仙台市青葉区川内４２番地内"
"青葉区","仙台市川内亀岡公園西側",38.2624278,140.8469521,1,"","仙台市青葉区川内亀岡北裏丁地内"
"青葉区","仙台市広瀬川牛越緑地南側（公衆トイレ付近）",38.2682608,140.8397943,1,"","仙台市青葉区荒巻字三居沢地内"
"青葉区","博物館・国際センター・緑彩館前バス停",38.2540456,140.8603161,1,"","仙台市青葉区川内追廻無番地"
"青葉区","東北大学川内北キャンパス前",38.2592159,140.8508118,1,"","仙台市青葉区川内４１番地"
"青葉区","仙台市青葉山町内会集会所南側",38.2488144,140.824552,0,"","仙台市青葉区荒巻字青葉３４１番地の２"
"青葉区","仙台市立折立小学校西側",38.2602146,140.8085736,1,"","仙台市青葉区折立四丁目２番１号"
"青葉区","住宅供給公社アパート２号棟南側",38.2617407,140.8047623,1,"","仙台市青葉区折立四丁目１４番２号"
"青葉区","西花苑一丁目・二丁目集会所北側",38.2637265,140.800111,0,"","仙台市青葉区西花苑二丁目１０番２０号"
"青葉区","仙台市西花苑公園野球場南側",38.2673922,140.8011391,1,"","仙台市青葉区西花苑一丁目４番内"
"青葉区","仙台市折立公園西側",38.2657463,140.8050287,1,"","仙台市青葉区折立三丁目４番地先"
"青葉区","仙台市広瀬川浄化センター南側",38.2633383999999,140.8085862,1,"","仙台市青葉区折立三丁目２０番２号"
"青葉区","折立一丁目２番内（地下道東側）",38.2646627,140.8119124,1,"","仙台市青葉区折立一丁目２番内"
"青葉区","茂庭字湯ノ沢６３番地の１（個人宅地前畑）",38.2529407,140.8061959,1,"","仙台市青葉区茂庭字湯ノ沢６３番地の１"
"青葉区","宮城第一高等学校西側",38.2687722999999,140.851595,1,"","仙台市青葉区八幡一丁目６番２号"
"青葉区","尚絅学院高等学校グラウンド北側",38.2672889,140.8546688,1,"","仙台市青葉区八幡一丁目９番２７号"
"青葉区","角五郎一丁目１番内東側",38.2668551999999,140.8543032,0,"","仙台市青葉区角五郎一丁目１番内"
"青葉区","澱ポンプ場北側",38.2656046,140.8518965,1,"","仙台市青葉区角五郎一丁目９番内"
"青葉区","八幡六丁目バス停西側",38.2686810999999,140.8336219,1,"","仙台市青葉区八幡六丁目７番先"
"青葉区","角五郎国家公務員宿舎北側",38.2659415,140.8469591,1,"","仙台市青葉区角五郎二丁目１５番内"
"青葉区","牛越橋北側",38.2705963,140.8413511,1,"","仙台市青葉区八幡五丁目１番内"
"青葉区","聖橋南側",38.2686810999999,140.8336219,1,"","仙台市青葉区八幡六丁目１１番先"
"青葉区","仙台市北五番丁公園南側",38.2717062,140.8556184,1,"","仙台市青葉区柏木二丁目３番内"
"青葉区","八幡二丁目1番12号東側",38.2723424,140.8515499,0,"","仙台市青葉区八幡二丁目1番先"
"青葉区","八幡一丁目2番12号東側",38.2689965,140.8549148,0,"","仙台市青葉区八幡一丁目2番先"
"青葉区","仙台市立八幡小学校西側",38.2715553,140.853015,1,"","仙台市青葉区八幡二丁目９番１号"
"青葉区","晃福ハイツ南側",38.2713839,140.8483538,0,"","仙台市青葉区八幡四丁目１０番１号"
"青葉区","仙台市立第一中学校東側",38.2720393,140.8460624,0,"","仙台市青葉区八幡四丁目１６番１号"
"青葉区","仙台市北六番丁市営住宅北側",38.2722203,140.8555238,1,"","仙台市青葉区柏木二丁目3番48号"
"青葉区","東北電力八幡アパート１号棟北側",38.2730038,140.8516701,1,"","仙台市青葉区八幡二丁目１２番４号"
"青葉区","東北大学昭和舎跡地西側",38.2762401,140.8585784,1,"","仙台市青葉区柏木三丁目１番１７号"
"青葉区","東北大学加齢医学研究所北側",38.2742253,140.8603138,0,"","仙台市青葉区星陵町４番１号"
"青葉区","仙台市柏木市民センター南側",38.2767156,140.8599714,1,"","仙台市青葉区柏木三丁目３番１号"
"青葉区","県営新坂住宅東側",38.276451,140.8538057,1,"","仙台市青葉区柏木三丁目６番３号"
"青葉区","仙台市北山市民センター東側",38.2782237,140.8548266,1,"","仙台市青葉区新坂町８番内"
"青葉区","八雲神社南側",38.2753162,140.8545163,1,"","仙台市青葉区柏木三丁目５番１６号"
"青葉区","東北大学昭和舎跡地南側",38.2762401,140.8585784,1,"","仙台市青葉区柏木三丁目１番１７号"
"青葉区","仙台市立三条中学校東側",38.2806096,140.8536388,1,"","仙台市青葉区三条町３番１号"
"青葉区","仙台市立三条中学校西側",38.2806096,140.8536388,1,"","仙台市青葉区三条町３番１号"
"青葉区","三条町バス停南側",38.2808126,140.8526802,1,"","仙台市青葉区三条町１７番内"
"青葉区","東北大学国際交流会館西側",38.2787595,140.8507024,0,"","仙台市青葉区三条町１９番１号"
"青葉区","仙台市北山霊園西側入口付近",38.2837539,140.8543189,0,"","仙台市青葉区北山二丁目１０番内"
"青葉区","仙台市亀ケ岡公園南西側",38.268195,140.869418,0,"","仙台市青葉区北山三丁目３番内"
"青葉区","仙台市菊田山公園西側",38.2845419,140.8472614,0,"","仙台市青葉区菊田町７番内"
"青葉区","仙台市立国見小学校北側",38.2770519,140.8444456,1,"","仙台市青葉区国見二丁目１６番１号"
"青葉区","仙台市立国見小学校南側",38.2770519,140.8444456,1,"","仙台市青葉区国見二丁目１６番１号"
"青葉区","国見四丁目バス停東側",38.2735368,140.8429886,0,"","仙台市青葉区国見三丁目１１番内"
"青葉区","仙台市水道局荒巻配水所南側",38.2735368,140.8429886,0,"","仙台市青葉区国見三丁目６番内"
"青葉区","仙台市国見コミュニティ広場南側",38.2738733,140.8380501,0,"","仙台市青葉区国見五丁目９番内"
"青葉区","仙台市水道局国見浄水場南側",38.2786127,140.8312053,0,"","仙台市青葉区国見六丁目１２番内"
"青葉区","国見第二駐車場南側",38.2786127,140.8312053,0,"","仙台市青葉区国見六丁目４０番内"
"青葉区","国見六丁目７８番内北側",38.2786127,140.8312053,0,"","仙台市青葉区国見六丁目７８番内"
"青葉区","仙台市立貝森小学校跡施設南側",38.2866483,140.8392603,1,"","仙台市青葉区貝ケ森五丁目６番１号"
"青葉区","仙台市貝ケ森１号公園南側",38.2863498,140.8410017,1,"","仙台市青葉区貝ケ森五丁目４番内"
"青葉区","貝ケ森三丁目調整池北側",38.2845964,140.8419701,1,"","仙台市青葉区貝ケ森三丁目３番内"
"青葉区","仙台市貝ケ森中央公園東側",38.282536,140.8430105,1,"","仙台市青葉区貝ケ森一丁目３２番内"
"青葉区","仙台市貝ケ森市民センター東側",38.2815132,140.8424171,1,"","仙台市青葉区貝ケ森一丁目４番６号"
"青葉区","仙台市貝ケ森３号公園南側",38.2814191,140.8392397,1,"","仙台市青葉区貝ケ森三丁目２８番内"
"青葉区","仙台市貝ケ森メープル公園北側",38.2815277,140.8443576,0,"","仙台市青葉区貝ケ森六丁目２９番内"
"青葉区","仙台市立中山小学校西側",38.2920393,140.85,0,"","仙台市青葉区中山一丁目６番１号"
"青葉区","仙台市立中山小学校南側",38.2920393,140.85,0,"","仙台市青葉区中山一丁目６番１号"
"青葉区","仙台市たきみち公園西側",38.2919377,140.8527837,0,"","仙台市青葉区滝道８番内"
"青葉区","ふれあいパーク北側",38.293254,140.8493554,0,"","仙台市青葉区滝道３３番内"
"青葉区","仙台市川平一丁目公園東側",38.3049101,140.8396899,0,"","仙台市青葉区川平一丁目１５番内"
"青葉区","中山二丁目４１番内北側",38.2887487,140.8437695,0,"","仙台市青葉区中山二丁目４１番内"
"青葉区","認定こども園TOBINOKO南側",38.2881835,140.8464041,0,"","仙台市青葉区中山二丁目１７番１号"
"青葉区","仙台市中山山の神公園南側",38.2882472,140.8413893,0,"","仙台市青葉区中山二丁目３２番内"
"青葉区","仙台市立中山中学校西側",38.2969071,140.8397345,0,"","仙台市青葉区中山六丁目１６番１号"
"青葉区","仙台市中山市民センター入口付近",38.2918866,140.8371348,0,"","仙台市青葉区中山三丁目１３番１号"
"青葉区","仙台市水道局中山第一配水所東側",38.2943058,140.8357606,0,"","仙台市青葉区中山七丁目１番内"
"青葉区","仙台市うどう沼公園北側",38.2940737,140.8335121,0,"","仙台市青葉区中山三丁目２０番内"
"青葉区","仙台市中山公園東側",38.2965685,140.8340014,0,"","仙台市青葉区中山七丁目２１番内"
"青葉区","仙台市中山北公園東側",38.2969792,140.8294568,0,"","仙台市青葉区中山八丁目３４番内"
"青葉区","仙台市すぎとや西公園南側",38.2997269,140.8311827,0,"","仙台市青葉区中山九丁目４番内"
"青葉区","仙台市西勝山公園北側",38.2984524,140.8380682,0,"","仙台市青葉区西勝山５番内"
"青葉区","仙台市立川平小学校北側",38.30581,140.8383824,0,"","仙台市青葉区川平三丁目３６番１号"
"青葉区","仙台市川平三丁目西公園西側",38.3055157,140.8397705,0,"","仙台市青葉区川平三丁目３５番内"
"青葉区","仙台市川平市営住宅公園南側",38.3049101,140.8396899,0,"","仙台市青葉区川平五丁目１３番内"
"青葉区","仙台市川平三丁目東公園南側",38.3235569,140.8883316,0,"","仙台市青葉区川平三丁目14番内"
"青葉区","仙台市川平緑地西側",38.3027404,140.835661,0,"","仙台市青葉区川平四丁目１番内"
"青葉区","仙台市川平北公園北側",38.3049101,140.8396899,0,"","仙台市青葉区川平四丁目９番内"
"青葉区","仙台市川平四丁目公園東側",38.3027404,140.835661,0,"","仙台市青葉区川平四丁目３１番内"
"青葉区","仙台市立桜丘小学校西側",38.3032429,140.8495324,0,"","仙台市青葉区桜ケ丘八丁目１番１号"
"青葉区","仙台市桜ケ丘六丁目公園北側",38.3026941,140.8469905,0,"","仙台市青葉区桜ケ丘六丁目２３番内"
"青葉区","仙台市桜ケ丘七丁目公園西側",38.3052362,140.8466935,0,"","仙台市青葉区桜ケ丘七丁目４番内"
"青葉区","仙台市桜ケ丘公園野球場南側",38.3055612,140.8517938,0,"","仙台市青葉区桜ケ丘八丁目２番内"
"青葉区","仙台市桜ケ丘四丁目公園西側",38.3029689,140.8521239,0,"","仙台市青葉区桜ケ丘四丁目１１番内"
"青葉区","仙台市桜ケ丘三丁目公園西側",38.3024551,140.8557162,0,"","仙台市青葉区桜ケ丘三丁目３９番内"
"青葉区","桜ケ丘団地入口バス停北側",38.2979284,140.8524719,0,"","仙台市青葉区桜ケ丘二丁目１７番内"
"青葉区","県営桜ケ丘住宅１２号棟西側",38.2963811,140.8460412,0,"","仙台市青葉区桜ケ丘一丁目２７番１２号"
"青葉区","仙台市立荒巻小学校(プール)西側",38.2870474,140.8597433,0,"","仙台市青葉区荒巻神明町１３番内"
"青葉区","仙台市荒巻公園北側",38.2866706999999,140.8588584,0,"","仙台市青葉区荒巻神明町１２番内"
"青葉区","山手町１番内東側（山手町バス停南側）",38.2869484,140.852253,0,"","仙台市青葉区山手町１番内"
"青葉区","ヨークベニマル荒巻店東側",38.2899746,140.8526568,0,"","仙台市青葉区荒巻本沢二丁目１２番先"
"青葉区","仙台市荒巻中央西公園東側",38.2907229,140.8578517,0,"","仙台市青葉区荒巻中央１５番内"
"青葉区","仙台市山手町２号公園西側",38.2882689,140.8532255,0,"","仙台市青葉区山手町２３番内"
"青葉区","仙台市荒巻学校給食センター対向",38.2899746,140.8526568,0,"","仙台市青葉区荒巻本沢二丁目６番先"
"青葉区","ビバホーム荒巻店西側",38.2899746,140.8526568,0,"","仙台市青葉区荒巻本沢二丁目１番先"
"青葉区","仙台市立北仙台中学校北側",38.2932945,140.8637775,0,"","仙台市青葉区東勝山二丁目３１番１号"
"青葉区","仙台市東勝山二丁目公園西側",38.3292179,140.8785148,1,"住所相違あり","仙台市青葉区東勝山二丁目３３番内"
"青葉区","仙台市勝山南公園北側",38.2935924,140.8646885,0,"","仙台市青葉区東勝山二丁目２８番内"
"青葉区","東勝山一丁目２５番内南側",38.2984351,140.8718604,0,"","仙台市青葉区東勝山一丁目２５番内"
"青葉区","東勝山団地入口バス停（勝山橋)南側",38.2967947,140.8735104,0,"","仙台市青葉区藤松５番内"
"青葉区","仙台市藤松保存緑地北側",38.2931138,140.8692784,0,"","仙台市青葉区鷺ケ森一丁目４番内"
"青葉区","仙台市水の森一丁目公園東側",38.2897389,140.866399,0,"","仙台市青葉区鷺ケ森一丁目３７番内"
"青葉区","クローバーズ・ピアワッセ西側",38.3045871,140.8801641,0,"","仙台市青葉区北根黒松２番先"
"青葉区","森林公園大橋南側脇",38.3045871,140.8801641,0,"","仙台市青葉区北根黒松１８番内"
"青葉区","北根三丁目バス停南側",38.2998704,140.8776619,0,"","仙台市青葉区北根三丁目１３番内"
"青葉区","県道仙台泉線北根橋東側",38.2998704,140.8776619,0,"","仙台市青葉区北根三丁目２０番内"
"青葉区","黒松団地入口バス停東側",38.2998704,140.8776619,0,"","仙台市青葉区北根三丁目２２番内"
"青葉区","双葉ケ丘橋北側",38.3036726,140.8756782,0,"","仙台市青葉区双葉ケ丘一丁目３番先"
"青葉区","仙台市北根黒松北公園東側",38.306019,140.8810354,1,"","仙台市青葉区北根黒松４番内"
"青葉区","仙台市立台原小学校西側",38.2867625,140.8800747,3,"にゃんこ","仙台市青葉区台原五丁目１６番１号"
"青葉区","瞑想の松バス停東側",38.2896766,140.8837733,0,"","仙台市青葉区旭ケ丘一丁目２４番内"
"青葉区","みやぎ生活協同組合台原店西側",38.2822343,140.8772376,1,"","仙台市青葉区台原五丁目１番２号"
"青葉区","仙台市台原児童館北側",38.2841829,140.8789112,1,"にゃんこ","仙台市青葉区台原五丁目２番５号"
"青葉区","仙台市台原四丁目北公園南側",38.2871939,140.8780799,3,"にゃんこ","仙台市青葉区台原森林公園１番内"
"青葉区","仙台市台原コミュニティ・センター西側",38.2892824,140.8788352,1,"","仙台市青葉区台原森林公園１番３号"
"青葉区","仙台市台原自転車保管所東側",38.2887711,140.8785789,1,"","仙台市青葉区台原森林公園１番内"
"青葉区","青葉消防団小松島分団機械器具置場南側",38.2665983,140.8300461,1,"","仙台市青葉区旭ケ丘一丁目３１番内"
"青葉区","台原二丁目８番内（一本杉橋）南西側",38.2855126,140.8732457,0,"","仙台市青葉区台原二丁目８番内"
"青葉区","仙台市立旭丘小学校東側",38.2964818,140.8864197,1,"","仙台市青葉区旭ケ丘三丁目２７番１号"
"青葉区","仙台市旭ケ丘市民センタ－南側",38.2955291,140.884169,0,"","仙台市青葉区旭ケ丘三丁目２５番１５号"
"青葉区","日立システムズホール仙台北側",38.2965211,140.8844119,1,"","仙台市青葉区旭ケ丘三丁目２７番５号"
"青葉区","仙台市旭ケ丘市民センタ－西側",38.2955291,140.884169,1,"","仙台市青葉区旭ケ丘三丁目２５番１５号"
"青葉区","旭ケ丘三丁目３１番内西側",38.2665983,140.8300461,1,"","仙台市青葉区旭ケ丘三丁目３１番内"
"青葉区","旭ケ丘一丁目２１番内（台原南小泉線北側）",38.2896766,140.8837733,0,"","仙台市青葉区旭ケ丘一丁目２１番内"
"青葉区","仙台市科学館前バス停東側",38.2998824,140.8863892,0,"","仙台市青葉区旭ケ丘四丁目３４番内"
"青葉区","旭ケ丘四丁目１０番内北側",38.2998824,140.8863892,0,"","仙台市青葉区旭ケ丘四丁目１０番内"
"青葉区","仙台市立小松島小学校東側",38.2808208999999,140.8891296,0,"","仙台市青葉区小松島二丁目１番１号"
"青葉区","仙台市立小松島小学校南側",38.2808208999999,140.8891296,1,"","仙台市青葉区小松島二丁目１番１号"
"青葉区","仙台市小松島四丁目公園南側",38.2880153,140.8878867,0,"","仙台市青葉区小松島四丁目１４番内"
"青葉区","仙台市小松島公園（小松島南光センター前）",38.2859532,140.8882963,1,"","仙台市青葉区小松島四丁目５番内"
"青葉区","仙台市東照宮二丁目公園入口",38.27777,140.8855649,1,"","仙台市青葉区東照宮二丁目１番内"
"青葉区","特別養護老人ホーム シオンの園南側",38.2852811,140.8922824,0,"","仙台市青葉区小松島新堤７番１号"
"青葉区","宮城県立小松島支援学校北東先",38.2858871,140.8944799,0,"","仙台市青葉区小松島新堤４番内"
"青葉区","仙台市小松島市営住宅南側",38.2807245,140.8961062,0,"","仙台市青葉区高松三丁目１７番３０号"
"青葉区","広瀬文化センター北側",38.2686354,140.7641587,1,"","仙台市青葉区下愛子字観音堂５番地の1"
"青葉区","仙台市立愛子小学校前",38.2684178,140.7585769,1,"","仙台市青葉区上愛子字新宮前1番地の２地内"
"青葉区","宮城総合支所・愛子小学校バス停西側",38.2676401,140.7587414,0,"","仙台市青葉区上愛子字新宮前１７番地の２地内"
"青葉区","HOTEL MUSEE愛子店南側457号線沿",38.2722603,140.7581023,0,"","仙台市青葉区愛子中央六丁目１４９番地の２地先"
"青葉区","ＪＲ仙山線愛子駅南口自転車駐車場フェンス",38.2728359,140.7631614,1,"","仙台市青葉区愛子中央一丁目２０１番地の１"
"青葉区","仙台市立広瀬中学校東側",38.261827,140.880183,1,"","仙台市青葉区愛子中央一丁目１０７"
"青葉区","仙台市上原公園東側",38.274375,140.7573937,1,"","仙台市青葉区愛子中央三丁目２７番内（２３番地の３７）"
"青葉区","仙台市立広瀬中学校西側",38.273006,140.7619065,1,"","仙台市青葉区愛子中央一丁目９番１号"
"青葉区","仙台市宮城広瀬体育館西側",38.2738455,140.7361036,6,"","仙台市青葉区上愛子字松原４４番地の１"
"青葉区","仙台市宮城広瀬グラウンド南側",38.2741007,140.7387336,1,"","仙台市青葉区上愛子字松原３９番地の１"
"青葉区","仙台高等専門学校（入口）",38.2739963,140.745871,1,"","仙台市青葉区上愛子字街道99番地の2地先"
"青葉区","二岩町内会集会所",38.2722195,140.7442859,1,"","仙台市青葉区上愛子字車４６番地の１"
"青葉区","仙台市北内南公園",38.2707884,140.7506649,0,"","仙台市青葉区上愛子字北内３番地の１４地内"
"青葉区","愛子観光バス（株）向",38.2693786,140.7346249,0,"","仙台市青葉区上愛子字大岩１番地の２"
"青葉区","仙台市松原公園西側",38.2714724,140.7354739,1,"","仙台市青葉区上愛子字松原４７番地の１０"
"青葉区","松原バス停東側",38.2714864,140.7290071,1,"","仙台市青葉区上愛子字松原９番地の１"
"青葉区","仙台市交通局白沢出張所",38.2753086,140.7139673,0,"","仙台市青葉区上愛子字下十三枚田30番地の１"
"青葉区","赤生木集会所",38.2792363999999,140.7021313,0,"","仙台市青葉区上愛子字大道３３番地の２"
"青葉区","大針バス停",38.2777805,140.7085932,0,"","仙台市青葉区上愛子字大道２番地の２"
"青葉区","上愛子字大針２番地",38.2740647,140.7087611,0,"","仙台市青葉区上愛子字大針２番地先"
"青葉区","ＪＲ仙山線第２赤生木踏切南側",38.2780365,140.6990494,0,"","仙台市青葉区上愛子字赤生木３５番地の３"
"青葉区","上愛子字白沢３８番地",38.2863612,140.6904171,0,"","仙台市青葉区上愛子字白沢３８番地"
"青葉区","上愛子字白沢８番地の10地先",38.2849267,140.6908637,0,"","仙台市青葉区上愛子字白沢８番地の６５地先"
"青葉区","国道４８号線(熊ヶ根橋)南側",38.2880754,140.6887425,0,"","仙台市青葉区上愛子字道半３６番地の５"
"青葉区","宮城西市民センター東側",38.2990509,140.6843662,0,"","仙台市青葉区熊ケ根字石積４７番地"
"青葉区","熊ヶ根橋バス停西側",38.2925993,140.6866072,0,"","仙台市青葉区熊ケ根字町一番の四番地先"
"青葉区","熊ケ根字町二番４７番地",38.2937933,140.6894399,0,"","仙台市青葉区熊ケ根字町二番４７番地"
"青葉区","熊ケ根字関一番２番地の３地先（店舗)東側",38.3026651,140.6729507,0,"","仙台市青葉区熊ケ根字関一番２番地の３地先"
"青葉区","大手門集会所",38.3073274,140.6896613,0,"","仙台市青葉区大倉字新田５番地の４"
"青葉区","新川生活センター西側",38.3046815,140.6393557,0,"","仙台市青葉区新川字清水尻３２番地の６地先"
"青葉区","旧仙台市立作並小学校新川分校北側",38.3030129,140.6306022,0,"","仙台市青葉区新川字中屋敷４６番地の２地先"
"青葉区","仙台市新川団地１号公園",38.3064271,140.6295852,0,"","仙台市青葉区作並字岩谷堂西１６番地の１０３"
"青葉区","新川字佐手山５番地の845向",38.298969,140.654479,0,"","仙台市青葉区新川字佐手山５番地の84５地先"
"青葉区","旧仙台市立作並小学校北側",38.3170839,140.6360463,0,"","仙台市青葉区作並字北子原5番地の１0地内"
"青葉区","仙台ハイランド入口",38.3082054,140.6630679,0,"","仙台市青葉区作並字棒目木５番地の１"
"青葉区","作並川崎バス停東側",38.3094024,140.6569384,0,"","仙台市青葉区作並字川崎７番地内"
"青葉区","ニッカウヰスキー工場（ニッカ橋)南側",38.3119917,140.6473443,0,"","仙台市青葉区作並字小坂東１２番地の４地内"
"青葉区","作並宿バス停西側",38.3193331,140.6239664,0,"","仙台市青葉区作並字檀ノ原１０番地の４"
"青葉区","湯のまち作並観光交流館ラサンタ",38.330708,140.6159037,0,"","仙台市青葉区作並字元木２番地の７"
"青葉区","定義交流センター",38.3625015,140.6715436,0,"","仙台市青葉区大倉字久保１番地の10"
"青葉区","大倉字赤坂3番地の１地先",38.3663702,140.6662908,0,"","仙台市青葉区大倉字赤坂3番地の１地先"
"青葉区","白木集会所",38.3876357,140.6458488,0,"","仙台市青葉区大倉字東菖蒲沼３番地の１"
"青葉区","宮城消防団大倉分団白木支部東側",38.355859,140.7141481,0,"","仙台市青葉区大倉字向田１６番地の３０地先"
"青葉区","大倉日向集会所入口",38.3329589,140.6999527,0,"","仙台市青葉区大倉字神明前１２番地先"
"青葉区","栗生上バス停",38.3351445,140.6877594,0,"","仙台市青葉区大倉字栗生２３番地の２"
"青葉区","仙台市水道局大倉送水ポンプ場",38.352732,140.6833218,0,"","仙台市青葉区大倉字伊呂波１６番地の１"
"青葉区","宮城消防団大倉分団日向部",38.336035,140.6967866,0,"","仙台市青葉区大倉字薬師12番地先"
"青葉区","小原バス停北側",38.3025551,140.7022366,0,"","仙台市青葉区大倉字一本木3番地の1地内"
"青葉区","宮城消防団大倉分団下倉部南側",38.3143421,140.7049109,0,"","仙台市青葉区大倉字新山12番地の4"
"青葉区","特別養護老人ホーム思行園入口",38.2938005,140.6961122,0,"","仙台市青葉区大倉字大原新田２１番地の２地先"
"青葉区","西川前集会所",38.2917482999999,140.7061682,1,"","仙台市青葉区芋沢字宅地９３番地"
"青葉区","芋沢字二尺木8番地東側",38.2802669,140.7068163,1,"","仙台市青葉区芋沢字二尺木４４番地の１地先"
"青葉区","芋沢字柿崎南16番地の１斜向（明照庵）",38.2756481,140.7211674,1,"","仙台市青葉区芋沢字柿崎南５番地の２地内"
"青葉区","青野木集落センター向",38.2939165,140.7310304,1,"","仙台市青葉区芋沢字沢田下３５番地の５地先"
"青葉区","青野木中バス停",38.2871471,140.7226678,0,"","仙台市青葉区芋沢字青野木２３０番地先"
"青葉区","千代福祉会ますみ学園東側",38.2871471,140.7226678,0,"","仙台市青葉区芋沢字青野木６６５番地先"
"青葉区","芋沢字青野木359番地の10地先",38.2824247,140.7223998,0,"","仙台市青葉区芋沢字青野木３５９番地の１０地先"
"青葉区","畑前バス停東側",38.2871471,140.7226678,0,"","仙台市青葉区芋沢字青野木６９番地の１"
"青葉区","仙台市立川前小学校南東法面",38.2893386999999,140.74612,0,"","仙台市青葉区芋沢字赤坂１６番地の１"
"青葉区","仙台市赤坂３号公園西側",38.2926557,140.7458152,0,"","仙台市青葉区赤坂三丁目３番地の１"
"青葉区","仙台市立大沢中学校南側",38.2921539,140.7501592,0,"","仙台市青葉区赤坂一丁目２番地の１"
"青葉区","赤坂ニュータウン集会所",38.2928485,140.7512901,0,"","仙台市青葉区赤坂一丁目１４番地の９"
"青葉区","仙台市高野原四丁目公園西側",38.2901387,140.7574768,0,"","仙台市青葉区高野原四丁目３番内(3番地の8)"
"青葉区","芋沢字大勝草上野原95番地の２地先",38.2800905,140.7777274,1,"","仙台市青葉区芋沢字大勝草上野原95番地の２地先"
"青葉区","二本松バス停西側",38.2840006,140.767449,1,"","仙台市青葉区芋沢字大竹原２５番地の１"
"青葉区","仙台市水道局中原浄水場東側",38.2816392999999,140.7593339,1,"","仙台市青葉区芋沢字花坂上野原１３番地の３地先"
"青葉区","高野原集会所南側",38.2880505,140.7698349,0,"","仙台市青葉区高野原二丁目１２番地１"
"青葉区","仙台市立大沢小学校西側",38.3004824,140.7742758,0,"","仙台市青葉区芋沢字長坂１番地の３"
"青葉区","芋沢唄坂バス停",38.2969024,140.7775441,0,"","仙台市青葉区芋沢字唄坂１１番地の１"
"青葉区","長泉寺前バス停西側",38.292248,140.7831631,0,"","仙台市青葉区芋沢字鹿野１２番地の２地内"
"青葉区","横前バス停西側",38.2925345,140.760765,0,"","仙台市青葉区芋沢字横前39番地の2地内"
"青葉区","芋沢平バス停東側",38.3028099,140.7714654,0,"","仙台市青葉区芋沢字平4番地の２地先"
"青葉区","上区集会所北側",38.3101277,140.760037,0,"","仙台市青葉区芋沢字荒屋敷３６番地"
"青葉区","塩野沢バス停",38.3143821,140.7810944,0,"","仙台市青葉区芋沢字塩野沢１５番地の３"
"青葉区","みやぎ台集会所",38.3111628,140.7685949,0,"","仙台市青葉区みやぎ台三丁目２１番１号"
"青葉区","みやぎ台入口バス停北側",38.3050242,140.7748738,0,"","仙台市青葉区みやぎ台一丁目９６番地の２０３地先"
"青葉区","仙台市みやぎ台３号公園",38.3064768,140.7761875,0,"","仙台市青葉区みやぎ台一丁目２５番内(96番地の25)"
"青葉区","仙台市みやぎ台１号公園南側",38.3077043,140.7716936,0,"","仙台市青葉区みやぎ台二丁目１４番内(96番地の336)"
"青葉区","仙台市みやぎ台５号公園南側",38.3091877,140.7688727,0,"","仙台市青葉区みやぎ台三丁目１２番内(119番地の445)"
"青葉区","仙台市みやぎ台５号公園北側",38.3091877,140.7688727,0,"","仙台市青葉区みやぎ台三丁目１２番内(119番地の445)"
"青葉区","仙台市みやぎ台４号公園西側",38.313905,140.7658166,0,"","仙台市青葉区みやぎ台四丁目26番内（みやぎ台4丁目1番地の3）"
"青葉区","仙台市みやぎ台２号公園",38.3119212,140.7656825,0,"","仙台市青葉区みやぎ台四丁目１６番内(1番地の123)"
"青葉区","大竹集会所入口",38.2819931,140.7880793,1,"","仙台市青葉区芋沢字大竹中5番地"
"青葉区","大竹バス停東側",38.2798958,140.7864171,1,"","仙台市青葉区芋沢字大竹１７番地の８地内"
"青葉区","明仙橋西側",38.2776191,140.7918252,1,"","仙台市青葉区芋沢字大竹新田２０番地の１地先"
"青葉区","大竹新田バス停北側",38.2772769,140.7915816,1,"","仙台市青葉区芋沢字大竹新田１０番地の２地先"
"青葉区","芋沢字大竹南96番地８南側",38.2775186,140.7895185,1,"","仙台市青葉区芋沢字大竹南96番地8"
"青葉区","仙台市南吉成四丁目公園",38.2905288,140.8153696,0,"","仙台市青葉区南吉成四丁目１６番内(16番地の3)"
"青葉区","吉成集会所",38.291991,140.8192599,1,"","仙台市青葉区吉成二丁目１１番１６号"
"青葉区","宮城総合支所吉成証明発行センタ－",38.2907612,140.8194975,1,"","仙台市青葉区吉成三丁目５番２８号"
"青葉区","仙台市南吉成二丁目公園西側",38.2851684,140.8211579,1,"","仙台市青葉区南吉成二丁目８番内(8番地の3)"
"青葉区","仙台市大石ケ原公園",38.281917,140.817212,1,"","仙台市青葉区南吉成七丁目９番内(9番地の5)"
"青葉区","南吉成第二集会所",38.2863963,140.814443,1,"","仙台市青葉区南吉成四丁目１番地の３"
"青葉区","南吉成第一集会所",38.2842658,140.8207761,1,"","仙台市青葉区南吉成二丁目９番地の１"
"青葉区","仙台市南吉成コミュニティ・センター",38.2992188,140.8133535,0,"","仙台市青葉区中山台一丁目１０番地の５"
"青葉区","仙台市中山台西公園",38.3031561,140.8118338,0,"","仙台市青葉区中山台西３０番内(30番地の１)"
"青葉区","中山台四丁目15番地の17向",38.2978005,140.8094498,0,"","仙台市青葉区中山台四丁目17外"
"青葉区","仙台市中山台二丁目公園(冒険公園）",38.3016619,140.8155713,0,"","仙台市青葉区中山台二丁目１８番内(18番地)"
"青葉区","中山吉成1丁目17番地の23の2",38.3016619,140.8155713,0,"","仙台市青葉区中山台二丁目２２番内(22番地の11)"
"青葉区","仙台市中山吉成一丁目公園南側",38.2992291,140.8193231,0,"","仙台市青葉区中山吉成一丁目１２番内(62番地の316)"
"青葉区","仙台市中山吉成二丁目公園",38.2970377,140.8212581,0,"","仙台市青葉区中山吉成二丁目２番内(66番地の281)"
"青葉区","郷六集会所",38.2663511,140.8161001,1,"","仙台市青葉区郷六字葛岡下２９番地"
"青葉区","ＪＲ仙山線葛岡駅入口",38.2672745,140.8180648,1,"","仙台市青葉区郷六字葛岡下３２番地の５"
"青葉区","ＪＲ仙山線葛岡駅（葛岡駐車場）",38.268119,140.8179329,1,"","仙台市青葉区郷六字葛岡下２６番地の６"
"青葉区","花の店たんぽぽ斜向",38.26537,140.8194798,1,"","仙台市青葉区郷六字石山５８番地の２地内"
"青葉区","コカ・コーラボトラーズジャパン（株）西隣",38.2598432,140.8199918,1,"","仙台市青葉区郷六字大霜５０番地の２"
"青葉区","郷六字龍沢３４番地先（西仙台バッティングセンター)西側",38.2691478,140.8087697,1,"","仙台市青葉区郷六字龍沢３４番地先"
"青葉区","（株）タカイ工業前",38.2642923,140.8157117,1,"","仙台市青葉区郷六字沼田８番地の３"
"青葉区","仙台北環状線登り待避所",38.2735689,140.8155846,0,"","仙台市青葉区郷六字葛岡５１番地内"
"青葉区","落合市民センター",38.2731589,140.7883703,1,"","仙台市青葉区落合二丁目１５番１５号"
"青葉区","ＪＲ仙山線 大垣踏切北側",38.2744473,140.7845538,0,"","仙台市青葉区落合四丁目２番内"
"青葉区","庄清ビル2号棟北側",38.2668545,140.7885351,1,"","仙台市青葉区栗生五丁目２９番内"
"青葉区","落合保育所西側法面",38.2731659,140.791393,1,"","仙台市青葉区落合二丁目１２番7号"
"青葉区","仙台市下愛子下河原公園",38.27455,140.7929363,1,"","仙台市青葉区落合二丁目１０１番地の４"
"青葉区","仙台市栗生二丁目北公園",38.2670673999999,140.7962425,1,"","仙台市青葉区栗生二丁目６番内(6番地の1)"
"青葉区","栗生一丁目団地入口",38.2615155,140.7953035,0,"","仙台市青葉区栗生一丁目２番内"
"青葉区","仙台市立栗生小学校",38.2677094,140.7849108,1,"","仙台市青葉区栗生六丁目６番地の６"
"青葉区","仙台市福沢市民センター",38.2740964,140.8890613,1,"","仙台市青葉区福沢町9番9号"
"青葉区","仙台市中江西公園",38.2741996,140.8908697,1,"","仙台市青葉区中江一丁目１２番内"
"青葉区","仙台市中江公園南側",38.273349,140.8928717,1,"","仙台市青葉区中江一丁目１７番内"
"青葉区","東北財務局中江住宅東側",38.272151,140.8948865,1,"","仙台市青葉区中江二丁目15番1号"
"青葉区","県営中江東アパート1号北側",38.2736063,140.8928944,1,"","仙台市青葉区中江一丁目17番1号"
"青葉区","仙台市高松通公園北側",38.2731773,140.8894334,1,"","仙台市青葉区福沢町３番内"
"青葉区","東北電力小田原アパート",38.2714554,140.8898029,1,"","仙台市青葉区小田原七丁目4番20号"
"青葉区","仙台市旅篭町公園西側",38.268195,140.869418,0,"","仙台市青葉区小田原六丁目１番内"
"青葉区","仙台市立吉成中学校西側",38.2888591,140.8248457,1,"","仙台市青葉区吉成一丁目12番1号"
"青葉区","仙台市伊勢吉成３号公園",38.2906928,140.822907,1,"","仙台市青葉区吉成一丁目20番内（31番地の96）"
"青葉区","吉成市民センター",38.2944453,140.8250636,0,"","仙台市青葉区国見ケ丘二丁目2番1号"
"青葉区","仙台市国見ケ丘一丁目北公園（集いの丘公園）",38.2946004,140.8295922,0,"","仙台市青葉区国見ケ丘一丁目55番内（55番地）"
"青葉区","国見ケ丘二丁目39番地の9向",38.2875047,140.8261566,0,"","仙台市青葉区国見ケ丘四丁目21番内（21番地）"
"青葉区","国見ケ丘三丁目集会所北側",38.287858,140.8299423,0,"","仙台市青葉区国見ケ丘三丁目74番内（74番地の3）"
"青葉区","仙台市臨済院公園（いにしえの丘）",38.2851638,140.8280264,0,"","仙台市青葉区臨済院地内（1番地）"
"青葉区","国見ケ丘五丁目東公園南側",38.2853047,140.8308269,0,"","仙台市青葉区国見ケ丘五丁目11番内（150番地の121）"
"青葉区","堤町三丁目１７番南側（堤町三丁目９号線）",38.2887923,140.8699463,0,"","仙台市青葉区堤町三丁目１７番先"
"青葉区","仙台北郵便局北側",38.2906012,140.8731129,0,"","仙台市青葉区台原三丁目17番10号"
"青葉区","仙台市台原二丁目公園南側",38.2872707,140.8723089,0,"","仙台市青葉区台原二丁目１２番内"
"青葉区","堤町三丁目１番１１号南側",38.2887923,140.8699463,0,"","仙台市青葉区堤町三丁目１番内"
"青葉区","SEIYU台原店東側歩道",38.2887923,140.8699463,0,"","仙台市青葉区堤町三丁目9番内"
"青葉区","仙台市三本松市民センター南側",38.2900078,140.8684583,0,"","仙台市青葉区堤町三丁目23番1号"
"青葉区","鷺ケ森歩道橋北側",38.2927754,140.8742184,0,"","仙台市青葉区北根一丁目１１番内"
"青葉区","養護老人ホーム仙台長生園東側",38.2856463,140.8630742,0,"","仙台市青葉区葉山町8番1号"
"青葉区","仙台市荒巻神明公園西側",38.2860675,140.8624818,0,"","仙台市青葉区荒巻神明町４番内"
"青葉区","仙台市古海道東下公園東側",38.2890765,140.8606054,0,"","仙台市青葉区荒巻中央８番内"
"青葉区","仙台市荒巻コミュニティ･センター東側",38.2889801,140.8621825,0,"","仙台市青葉区あけぼの町１２番２０号"
"青葉区","仙台市水道局堤町二丁目減圧弁室",38.2858509,140.8683065,0,"","仙台市青葉区堤町二丁目２１番内"
"青葉区","仙台市葉山町公園南側",38.2850397,140.8662087,0,"","仙台市青葉区葉山町３番内"
"青葉区","仙台市あけぼの町公園東側",38.2868025,140.8655773,0,"","仙台市青葉区あけぼの町２番内"
"青葉区","仙台市立北仙台小学校東側",38.2977190999999,140.8612064,0,"","仙台市青葉区東勝山三丁目６番１号"
"青葉区","仙台市水の森市民センター入口付近",38.2972608,140.8593977,0,"","仙台市青葉区水の森四丁目１番１号"
"青葉区","仙台市水の森三丁目公園東側",38.2949999,140.8579356,0,"","仙台市青葉区水の森三丁目１８番内"
"青葉区","水の森三丁目交差点北東側",38.2952537,140.8558542,0,"","仙台市青葉区水の森三丁目４１番内"
"青葉区","仙台市勝山東公園西側",38.2980186,140.866933,0,"","仙台市青葉区東勝山三丁目１番内"
"青葉区","双葉ケ丘二丁目１１番内西側",38.3003783,140.8702507,0,"","仙台市青葉区双葉ケ丘二丁目11番内"
"青葉区","仙台市双葉ケ丘二丁目公園北側",38.3011839,140.8729532,0,"","仙台市青葉区双葉ケ丘二丁目１番内"
"青葉区","みやぎ生協愛子店北側",38.2675208,140.7786574,1,"","仙台市青葉区栗生七丁目17番"
"青葉区","仙台市栗生西部１号公園",38.2702777,140.781947,1,"","仙台市青葉区落合六丁目31番地内（31番地）"
"青葉区","仙台市広瀬川前公園西側",38.2771903,140.7704742,0,"","仙台市青葉区愛子東四丁目21番内（71番地の1）"
"青葉区","ＪＲ仙山線第一勘太踏切北側",38.2759678,140.7710489,0,"","仙台市青葉区愛子東四丁目2番内（99番地の18）"
"青葉区","仙台市下愛子町３号公園東側",38.2722308,140.7650596,0,"","仙台市青葉区愛子東六丁目8番内（30番地の9）"
"青葉区","下愛子字稲荷前１３９番地内",38.2680198,140.7712487,0,"","仙台市青葉区下愛子字稲荷前１３９番地内"
"青葉区","仙台市栗生西部3号公園",38.2693507,140.780681,1,"","仙台市青葉区栗生七丁目６番内（６番地の１）"
"青葉区","愛子幼稚園入口西側",38.2717904,140.7663947,1,"","仙台市青葉区愛子東六丁目７番２７号先"
"青葉区","仙台市錦ケ丘中央公園北側",38.2562425,140.7655389,1,"","仙台市青葉区錦ケ丘二丁目１８番内（７８番地の５２）"
"青葉区","仙台市錦ケ丘三丁目公園西側",38.2526551,140.76746,1,"","仙台市青葉区錦ケ丘三丁目１１番内（１番地の１９０）"
"青葉区","ミニストップ向側",38.250541,140.7589868,1,"","仙台市青葉区錦ケ丘五丁目29番地の47"
"青葉区","仙台市錦ケ丘六丁目公園",38.2526704,140.7614442,1,"","仙台市青葉区錦ケ丘六丁目３０番内（３０番地の１）"
"青葉区","錦ケ丘集会所",38.256361,140.7629288,1,"","仙台市青葉区錦ケ丘七丁目２番内（２番地の１５）"
"青葉区","仙台市立錦ケ丘小学校西側",38.2558245,140.7600004,1,"","仙台市青葉区錦ケ丘七丁目２８番内（２８番地の１）"
"青葉区","仙台市錦ケ丘八丁目公園西側",38.2596056,140.7580924,1,"","仙台市青葉区錦ケ丘八丁目２３番内（２３番地の１０）"
"青葉区","セブンイレブン向側",38.2558999,140.760936,1,"","仙台市青葉区錦ケ丘七丁目29番地の26"
"宮城野区","宮城野区文化センター駐車場北側",38.263959,140.9114609,1,"","仙台市宮城野区銀杏町3番"
"宮城野区","仙台市宮城野区役所北側東駐車場南側",38.2661838,140.9099905,0,"","仙台市宮城野区五輪二丁目12番35号"
"宮城野区","仙台東郵便局西側（道路敷）",38.2706968,140.9111236,1,"","仙台市宮城野区原町六丁目2番"
"宮城野区","仙台市宮城野区役所立体駐車場北側",38.2661838,140.9099905,1,"","仙台市宮城野区五輪二丁目12番35号"
"宮城野区","宮城野区文化センター南側入口西側",38.2655728,140.9099667,1,"","仙台市宮城野区五輪二丁目12番70号"
"宮城野区","坂下交差点南東道路管理地西側",38.2637795,140.9052094,0,"","仙台市宮城野区五輪二丁目84番地24"
"宮城野区","コーポさとみ前北側",38.2644426,140.908306,1,"","仙台市宮城野区銀杏町5番3号"
"宮城野区","乳銀杏保育園向い（道路敷）",38.2634843,140.9067264,1,"","仙台市宮城野区銀杏町1番7号"
"宮城野区","（株）ブルースカイ駐車場東側",38.2703643,140.9247808,0,"","仙台市宮城野区苦竹二丁目2番"
"宮城野区","個人宅地南側",38.2685697,140.9162797,0,"","仙台市宮城野区苦竹一丁目6番47号"
"宮城野区","仙台市平成一丁目公園南側",38.2711332,140.9157192,0,"","仙台市宮城野区平成一丁目5番"
"宮城野区","苦竹駅自転車等駐車場北側",38.2640527,140.9189463,1,"","仙台市宮城野区南目館15番"
"宮城野区","日の出自動車学校北側",38.2692508,140.9328165,1,"","仙台市宮城野区日の出町二丁目1番13号"
"宮城野区","（有）芝原金物店向い駐車場北側",38.2731249,140.9201709,0,"","仙台市宮城野区新田一丁目14番"
"宮城野区","栄大建設(株)北向い（河川敷）",38.2701151,140.9372033,1,"","仙台市宮城野区日の出町一丁目３番"
"宮城野区","湘南荘北側",38.2748624,140.9180882,0,"","仙台市宮城野区新田一丁目16番11号"
"宮城野区","新田コミュニティ・センター東側",38.276097,140.9234302,0,"","仙台市宮城野区新田二丁目11番30号"
"宮城野区","個人宅地東側",38.2781493,140.930018,1,"","仙台市宮城野区新田三丁目18番19号"
"宮城野区","仙台市新田二丁目公園北側",38.278382,140.9247148,1,"","仙台市宮城野区新田二丁目22番"
"宮城野区","仙台市立新田小学校北側",38.2762543,140.9285537,0,"","仙台市宮城野区新田四丁目30番1号"
"宮城野区","仙台市新田公園西側",38.273974,140.92776,0,"","仙台市宮城野区新田四丁目20番"
"宮城野区","仙台市川北公園南側",38.268195,140.869418,0,"","仙台市宮城野区新田五丁目8番"
"宮城野区","仙台市屋舗公園北側",38.2802206,140.9298512,1,"","仙台市宮城野区新田三丁目24番"
"宮城野区","仙台市銀杏町緑地北側",38.263959,140.9114609,1,"","仙台市宮城野区銀杏町32番"
"宮城野区","ＪＲ北宮城野ＡＰ児童公園北側",38.2702111,140.9748768,0,"","仙台市宮城野区宮城野三丁目5番"
"宮城野区","仙台市南宮城野公園北側",38.256151,140.9103922,0,"","仙台市宮城野区宮千代一丁目36番"
"宮城野区","仙台市立宮城野小学校北側",38.2608717,140.916043,0,"","仙台市宮城野区東宮城野2番1号"
"宮城野区","仙台市南宮城野公園東側",38.256151,140.9103922,0,"","仙台市宮城野区宮千代一丁目36番"
"宮城野区","仙台市志波北公園東側",38.2546263,140.9142267,0,"","仙台市宮城野区萩野町二丁目7番"
"宮城野区","仙台市宮千代公園西側",38.2540149,140.9103092,0,"","仙台市宮城野区宮千代一丁目9番"
"宮城野区","仙台市志波北公園南側",38.2546263,140.9142267,0,"","仙台市宮城野区萩野町二丁目7番"
"宮城野区","仙台市立仙台工業高等学校北側",38.2605328,140.9177393,0,"","仙台市宮城野区東宮城野3番1号"
"宮城野区","仙台市立東宮城野小学校南側",38.2593691999999,140.919212,0,"","仙台市宮城野区東宮城野5番1号"
"宮城野区","仙台市立東宮城野小学校東側",38.2593691999999,140.919212,0,"","仙台市宮城野区東宮城野5番1号"
"宮城野区","仙台市萩野町公園南側",38.2578835,140.9196059,0,"","仙台市宮城野区萩野町三丁目10番"
"宮城野区","仙台市清水田公園南側",38.2566693,140.916611,0,"","仙台市宮城野区萩野町三丁目6番"
"宮城野区","仙台市谷地館公園東側",38.25332,140.9175884,0,"","仙台市宮城野区宮千代三丁目3番"
"宮城野区","仙台市谷地館公園南側",38.25332,140.9175884,0,"","仙台市宮城野区宮千代三丁目3番"
"宮城野区","仙台市宮城野一丁目公園北側",38.2576754,140.8972292,1,"","仙台市宮城野区宮城野一丁目13番"
"宮城野区","宮城野原公園総合運動場交番南側",38.2581657,140.9025332,1,"","仙台市宮城野区宮城野二丁目11番"
"宮城野区","宮城野原公園総合運動場南東側",38.2702111,140.9748768,0,"","仙台市宮城野区宮城野二丁目11番"
"宮城野区","宮城野原公園総合運動場正面入口",38.2581657,140.9025332,1,"","仙台市宮城野区宮城野二丁目11番"
"宮城野区","仙台市立東華中学校南側",38.2545491,140.8998012,1,"","仙台市宮城野区宮城野二丁目14番27号"
"宮城野区","仙台市立東華中学校北側",38.2545491,140.8998012,1,"","仙台市宮城野区宮城野二丁目14番27号"
"宮城野区","仙台市宮千代西公園西側",38.2534993,140.9066087,0,"","仙台市宮城野区宮千代一丁目22番"
"宮城野区","仙台市立宮城野中学校南側通用門脇",38.2626006,140.9000472,1,"","仙台市宮城野区五輪一丁目4番25号"
"宮城野区","杜のひろば・宮城野駐車場前北側",38.2614016,140.9003831,1,"","仙台市宮城野区五輪一丁目4番22号"
"宮城野区","仙台市五輪一丁目公園南側",38.260895,140.9027058,1,"","仙台市宮城野区宮城野二丁目20番"
"宮城野区","仙台育英学園北東側",38.2610527,140.9042122,1,"","仙台市宮城野区宮城野二丁目4番1号"
"宮城野区","交差点北側（道路敷）",38.2637795,140.9052094,0,"","仙台市宮城野区五輪二丁目7番"
"宮城野区","仙台育英学園南東側",38.2610527,140.9042122,1,"","仙台市宮城野区宮城野二丁目4番1号"
"宮城野区","FKビル駐車場北側",38.2617854999999,140.8987138,1,"","仙台市宮城野区五輪一丁目7番"
"宮城野区","仙台市榴岡公園北側西寄り",38.2606741,140.8970256,1,"","仙台市宮城野区五輪一丁目3番"
"宮城野区","仙台市榴岡四丁目西公園北側",38.2578158,140.8881657,1,"","仙台市宮城野区榴岡四丁目9番"
"宮城野区","榴ヶ岡駅自転車等駐車場南側",38.2591726,140.8928945,1,"","仙台市宮城野区榴岡五丁目12番"
"宮城野区","仙台市立榴岡小学校正門脇",38.2615582,140.8909033,1,"","仙台市宮城野区榴ケ岡103番地2"
"宮城野区","仙台市榴岡五丁目公園西側",38.25769,140.8929646,1,"","仙台市宮城野区榴岡五丁目4番"
"宮城野区","仙台市榴岡公園南側",38.2606741,140.8970256,1,"","仙台市宮城野区五輪一丁目3番"
"宮城野区","仙台市榴岡公園東側（道路敷）",38.2606741,140.8970256,1,"","仙台市宮城野区五輪一丁目3番"
"宮城野区","仙台市榴岡三丁目公園南側",38.2606895,140.8875497,1,"","仙台市宮城野区榴岡三丁目3番"
"宮城野区","仙台市榴岡三丁目公園東側",38.2606895,140.8875497,1,"","仙台市宮城野区榴岡三丁目3番"
"宮城野区","仙台市清水沼公園北側",38.26578,140.898317,0,"","仙台市宮城野区清水沼一丁目6番"
"宮城野区","仙台市清水沼公園西側",38.26578,140.898317,0,"","仙台市宮城野区清水沼一丁目6番"
"宮城野区","仙台市清水沼公園東側",38.26578,140.898317,1,"","仙台市宮城野区清水沼一丁目6番"
"宮城野区","仙台市立原町小学校正門脇",38.2664749,140.9040154,0,"","仙台市宮城野区原町二丁目6番1号"
"宮城野区","仙台市立原町小学校西側",38.2664749,140.9040154,0,"","仙台市宮城野区原町二丁目6番1号"
"宮城野区","グランデールコマツ北向い（道路敷）",38.2637795,140.9052094,6,"掲示板存在せず","仙台市宮城野区五輪二丁目8番"
"宮城野区","仙台市原町カッコウ公園南側",38.2657923,140.906219,1,"","仙台市宮城野区原町二丁目4番"
"宮城野区","仙台市立原町小学校北東側",38.2664749,140.9040154,1,"","仙台市宮城野区原町二丁目6番1号"
"宮城野区","仙台市立幸町南小学校グラウンド東側",38.2753464,140.8968008,0,"","仙台市宮城野区幸町二丁目24番"
"宮城野区","仙台市立幸町南小学校グラウンド南側",38.2753464,140.8968008,0,"","仙台市宮城野区幸町二丁目24番"
"宮城野区","仙台市立幸町南小学校正門前",38.2740914,140.8994629,1,"","仙台市宮城野区幸町五丁目2番1号"
"宮城野区","仙台市幸町市営住宅６－1棟東側",38.2736267,140.904044,0,"","仙台市宮城野区幸町五丁目6番"
"宮城野区","仙台市宮城野障害者福祉センター正門西側",38.2726287,140.9074077,0,"","仙台市宮城野区大梶16番2号"
"宮城野区","レックスユウ宮城野南側（道路敷）",38.2714621,140.9000155,0,"","仙台市宮城野区大梶12番"
"宮城野区","仙台市幸町公園南側",38.274815,140.8932895,1,"","仙台市宮城野区幸町二丁目2番"
"宮城野区","仙台市ガス局幸町三丁目部品倉庫西側",38.2749368,140.9028506,0,"","仙台市宮城野区幸町三丁目12番1号"
"宮城野区","仙台市立幸町中学校東側",38.2776225,140.892817,0,"","仙台市宮城野区幸町一丁目15番1号"
"宮城野区","仙台市立幸町中学校南側",38.2776225,140.892817,0,"","仙台市宮城野区幸町一丁目15番1号"
"宮城野区","仙台市立幸町小学校北側",38.2771291,140.8983447,0,"","仙台市宮城野区幸町二丁目19番1号"
"宮城野区","仙台市幸町市民センター東側",38.2767215,140.903195,0,"","仙台市宮城野区幸町三丁目13番13号"
"宮城野区","仙台市ガス局正門脇",38.2735323,140.9070954,0,"","仙台市宮城野区幸町五丁目13番1号"
"宮城野区","仙台市ガス局技術センター東側",38.2735323,140.9070954,1,"","仙台市宮城野区幸町五丁目13番1号"
"宮城野区","仙台市安養寺一丁目公園南側",38.2876479,140.9006604,0,"","仙台市宮城野区安養寺一丁目1番"
"宮城野区","仙台市安養寺二丁目公園北側",38.2842002999999,140.9037128,0,"","仙台市宮城野区安養寺二丁目17番"
"宮城野区","仙台市枡江コミュニティ・センター南側（道路敷）",38.2842389,140.9061552,0,"","仙台市宮城野区安養寺二丁目2番1号"
"宮城野区","仙台市立枡江小学校西側（道路敷）",38.2810036,140.9038389,0,"","仙台市宮城野区枡江15番1号"
"宮城野区","仙台市立枡江小学校グラウンド西向い側（道路敷）",38.2788064,140.8997578,0,"","仙台市宮城野区二の森14番"
"宮城野区","小百合園東側（道路敷）",38.2795956,140.9074511,0,"","仙台市宮城野区枡江1番2号"
"宮城野区","仙台市与兵衛沼公園北側",38.2831745,140.9001792,0,"","仙台市宮城野区蟹沢5番"
"宮城野区","仙台市鶴ケ谷四丁目西公園北側",38.2916594,140.9073219,0,"","仙台市宮城野区鶴ケ谷四丁目12番"
"宮城野区","仙台市立鶴谷小学校正門脇",38.2910936,140.9107185,0,"","仙台市宮城野区鶴ケ谷三丁目17番"
"宮城野区","仙台市鶴ケ谷三丁目公園南側",38.2896261,140.9086298,0,"","仙台市宮城野区鶴ケ谷三丁目10番"
"宮城野区","仙台市鶴ケ谷二丁目公園北側",38.2882028,140.9140194,0,"","仙台市宮城野区鶴ケ谷二丁目3番"
"宮城野区","宮城県仙台第三高等学校北側（道路敷）",38.2867674,140.9083057,0,"","仙台市宮城野区鶴ケ谷一丁目19番"
"宮城野区","仙台市鶴ケ谷第一市営住宅３棟南側",38.2872213,140.91202,0,"","仙台市宮城野区鶴ケ谷二丁目4番"
"宮城野区","仙台市鶴ケ谷一丁目西公園東側",38.2883842,140.9048305,0,"","仙台市宮城野区鶴ケ谷一丁目34番"
"宮城野区","仙台市若葉公園東側",38.287439,140.896361,0,"","仙台市宮城野区安養寺一丁目14番"
"宮城野区","仙台市大久保山公園西側",38.2984472,140.9158642,0,"","仙台市宮城野区鶴ケ谷北二丁目11番"
"宮城野区","仙台市鶴ケ谷山沢公園東側",38.2965379,140.9135655,0,"","仙台市宮城野区鶴ケ谷北一丁目7番"
"宮城野区","仙台市鶴ケ谷五丁目公園南側",38.2943731,140.9135591,0,"","仙台市宮城野区鶴ケ谷五丁目16番"
"宮城野区","仙台市立鶴谷中学校北側",38.2922536,140.9152791,0,"","仙台市宮城野区鶴ケ谷五丁目24番"
"宮城野区","仙台市立鶴谷中学校南側",38.2922536,140.9152791,0,"","仙台市宮城野区鶴ケ谷五丁目24番"
"宮城野区","仙台市鶴ケ谷四丁目東公園東側",38.2924731,140.9100136,0,"","仙台市宮城野区鶴ケ谷四丁目22番"
"宮城野区","仙台市鶴ケ谷四丁目東公園西側",38.2924731,140.9100136,0,"","仙台市宮城野区鶴ケ谷四丁目22番"
"宮城野区","仙台市鶴ケ谷中央公園西側",38.2923357,140.9189914,0,"","仙台市宮城野区鶴ケ谷六丁目1番"
"宮城野区","仙台市鶴ケ谷八丁目公園南側",38.2870188,140.9172166,0,"","仙台市宮城野区鶴ケ谷八丁目6番"
"宮城野区","仙台市立鶴谷東小学校南側",38.291882,140.9227036,0,"","仙台市宮城野区鶴ケ谷六丁目2番"
"宮城野区","仙台市鶴ケ谷六丁目公園西側",38.2915775,140.9232998,0,"","仙台市宮城野区鶴ケ谷六丁目10番"
"宮城野区","仙台市鶴ケ谷中央公園南西側",38.2923357,140.9189914,0,"","仙台市宮城野区鶴ケ谷六丁目1番"
"宮城野区","仙台市鶴ケ谷七丁目北公園東側",38.2888453,140.9218948,0,"","仙台市宮城野区鶴ケ谷七丁目29番"
"宮城野区","仙台市鶴ケ谷七丁目南公園南側",38.2866582,140.9193378,0,"","仙台市宮城野区鶴ケ谷七丁目8番"
"宮城野区","仙台市鶴ケ谷一丁目東公園東側",38.2858831,140.9122743,0,"","仙台市宮城野区鶴ケ谷一丁目10番"
"宮城野区","仙台市立西山小学校正門脇",38.2833419,140.915059,0,"","仙台市宮城野区燕沢二丁目23番１号"
"宮城野区","つばめさわ教会東側（道路敷）",38.2878161,140.9196623,0,"","仙台市宮城野区鶴ケ谷七丁目35番地"
"宮城野区","仙台市燕沢二丁目北公園西側",38.2854436,140.9149636,0,"","仙台市宮城野区燕沢二丁目12番"
"宮城野区","個人宅地東側",38.2837373,140.9246055,0,"","仙台市宮城野区燕沢三丁目2番18号"
"宮城野区","仙台市安養寺下東公園北向い（道路敷）",38.2808246,140.9164203,0,"","仙台市宮城野区東仙台七丁目10番"
"宮城野区","仙台市安養寺下西公園南側",38.2813761,140.9131955,0,"","仙台市宮城野区東仙台七丁目4番"
"宮城野区","光ヶ丘スペルマン病院向側バス停脇（道路敷）",38.276226,140.9106231,0,"","仙台市宮城野区東仙台四丁目16番"
"宮城野区","交差点東側三角地帯（道路敷）",38.2815945,140.9213144,0,"","仙台市宮城野区燕沢一丁目25番"
"宮城野区","仙台市小鶴市営住宅1-7棟東側",38.2812531999999,140.9262521,1,"","仙台市宮城野区小鶴三丁目1番"
"宮城野区","仙台市立東仙台中学校東側（道路敷）",38.2764052,140.9168763,0,"","仙台市宮城野区東仙台二丁目16番"
"宮城野区","仙台市宮の杜なかのさと公園西側",38.2756855,140.9100158,0,"","仙台市宮城野区東仙台四丁目８番"
"宮城野区","仙台市案内公園南側",38.2748789,140.913556,0,"","仙台市宮城野区東仙台五丁目18番"
"宮城野区","仙台市立東仙台保育所西側",38.2722669,140.9099338,1,"","仙台市宮城野区東仙台三丁目6番45号"
"宮城野区","仙台市東仙台コミュニティ・センター東側",38.2780488,140.9150708,0,"","仙台市宮城野区東仙台五丁目32番17号"
"宮城野区","仙台市鶴ケ谷菖蒲沢公園南側",38.2935792,140.927942,0,"","仙台市宮城野区鶴ケ谷東三丁目6番"
"宮城野区","仙台市菖蒲沢東公園西側",38.294532,140.9335335,0,"","仙台市宮城野区岩切二丁目6番"
"宮城野区","仙台市鶴ケ谷南公園西側",38.2908106,140.9284557,0,"","仙台市宮城野区鶴ケ谷東二丁目18番"
"宮城野区","仙台市立燕沢小学校北側",38.2881805,140.9305245,0,"","仙台市宮城野区燕沢東三丁目8番1号"
"宮城野区","駐車場西側",38.287265,140.932049,0,"","仙台市宮城野区燕沢東二丁目2番"
"宮城野区","仙台市立燕沢小学校東側",38.2881805,140.9305245,0,"","仙台市宮城野区燕沢東三丁目8番1号"
"宮城野区","仙台市燕沢東一丁目きただ公園東側",38.2874534,140.9351375,0,"","仙台市宮城野区燕沢東一丁目9番"
"宮城野区","仙台市交通局東仙台営業所北側（道路敷）",38.2815945,140.9213144,0,"","仙台市宮城野区燕沢一丁目27番"
"宮城野区","個人宅地南側（道路敷）",38.3095196,140.9317727,0,"","仙台市宮城野区岩切字昭和北2番地16地先"
"宮城野区","個人宅地西側",38.296593,140.9379458,0,"","仙台市宮城野区岩切字今市5番地"
"宮城野区","仙台市鴻巣３号公園南側",38.2960233,140.954492,0,"","仙台市宮城野区岩切字堰下82番地"
"宮城野区","今市橋東側バス停脇(道路敷）",38.3016296,140.9495737,0,"","仙台市宮城野区岩切字土手外東5番地内"
"宮城野区","仙台市三所北２号公園北側",38.303278,140.9459288,0,"","仙台市宮城野区岩切字三所北42番地"
"宮城野区","仙台市立岩切小学校正門西側",38.2999064,140.9424844,0,"","仙台市宮城野区岩切字今市東1番地2"
"宮城野区","仙台市岩切市民センター東側",38.3008145,140.9457361,0,"","仙台市宮城野区岩切字三所南88番地2"
"宮城野区","仙台市鴻巣1号公園東側",38.2978502,140.949325,0,"","仙台市宮城野区岩切字鴻巣33番地"
"宮城野区","玉川重機工業（有）向い（道路敷）",38.3006203,140.9288698,0,"","仙台市宮城野区鶴ケ谷字金堀278番地先"
"宮城野区","仙台市田子袋河原公園西側",38.2908796,140.9580517,0,"","仙台市宮城野区田子字袋河原42番地"
"宮城野区","仙台市立田子中学校北側",38.2785922,140.9579984,0,"","仙台市宮城野区田子二丁目12番1号"
"宮城野区","仙台市上田子2号公園東側",38.2823445999999,140.9631228,0,"","仙台市宮城野区田子三丁目9番"
"宮城野区","仙台市立田子小学校正門脇",38.280153,140.9629546,0,"","仙台市宮城野区田子二丁目1番1号"
"宮城野区","仙台市田子要害東公園南側",38.278626,140.9628393,0,"","仙台市宮城野区田子一丁目13番"
"宮城野区","仙台市田子西市営住宅3棟西側植栽場",38.2881864999999,140.9567869,0,"","仙台市宮城野区田子西一丁目11番"
"宮城野区","仙台市福田町第一市営住宅4A棟東側",38.2780797,140.9631982,0,"","仙台市宮城野区田子一丁目25番"
"宮城野区","仙台市福田町第二市営住宅5A棟北側",38.2829196,140.9638564,0,"","仙台市宮城野区田子三丁目12番"
"宮城野区","仙台市仙石西公園東側",38.2730747,140.9461131,0,"","仙台市宮城野区仙石6番"
"宮城野区","仙台市福住町公園北側",38.2731566,140.9530531,0,"","仙台市宮城野区福住町9番"
"宮城野区","仙台市立高砂小学校西側",38.2734529,140.9578394,0,"","仙台市宮城野区福田町一丁目11番1号"
"宮城野区","防災資機材倉庫西側",38.2728073,140.95999,0,"","仙台市宮城野区福田町一丁目133番12号"
"宮城野区","仙台市中央卸売市場食肉市場西側",38.2678506,140.9562193,0,"","仙台市宮城野区扇町六丁目3番6号"
"宮城野区","個人宅地西側",38.2696595,140.9604215,0,"","仙台市宮城野区福田町二丁目4番6号"
"宮城野区","陸前高砂駅前ロータリー西側",38.2724639,140.964926,0,"","仙台市宮城野区福室二丁目395番地2"
"宮城野区","仙台市高砂市民センター東側",38.2703053,140.9737777,0,"","仙台市宮城野区高砂一丁目24番9号"
"宮城野区","仙台市高砂二丁目向田公園南側",38.267995,140.9702105,0,"","仙台市宮城野区高砂二丁目8番"
"宮城野区","仙台市高砂緑地公園宮城野消防署高砂分署西向い",38.2692391,140.9734724,0,"","仙台市宮城野区高砂一丁目28番"
"宮城野区","仙台市蒲生土手前２号公園東側",38.2658592,140.976953,0,"","仙台市宮城野区白鳥一丁目25番"
"宮城野区","仙台市立高砂中学校東側",38.2648502,140.9769977,0,"","仙台市宮城野区白鳥一丁目32番1号"
"宮城野区","仙台市蒲生土手前公園北側",38.2628993999999,140.9804497,0,"","仙台市宮城野区白鳥一丁目2番"
"宮城野区","仙台市蒲生蓬田前公園南側",38.2648387,140.980436,0,"","仙台市宮城野区白鳥一丁目8番"
"宮城野区","仙台市耳取公園北側",38.2611885,140.9850199,0,"","仙台市宮城野区白鳥二丁目24番"
"宮城野区","（仮称）蒲生北部１号公園北側",38.2600317,140.9943671,0,"","仙台市宮城野区蒲生五丁目19番"
"宮城野区","仙台市西原排水機場東側",38.2622965,140.9998915,0,"","仙台市宮城野区蒲生二丁目1番4号"
"宮城野区","仙台市福室上町東公園西側",38.2800275,140.9699225,0,"","仙台市宮城野区福室五丁目6番"
"宮城野区","仙台市福室上町南公園西側",38.2786234999999,140.9688546,0,"","仙台市宮城野区福室三丁目34番"
"宮城野区","仙台市福室市民センター駐車場西側",38.2792212,140.9712382,0,"","仙台市宮城野区福室五丁目9番36号"
"宮城野区","仙台市福室公園北側",38.28258,140.9715923,0,"","仙台市宮城野区福室五丁目11番"
"宮城野区","仙台市高砂市営住宅F-1号棟北側",38.2798979,140.9721665,0,"","仙台市宮城野区福室五丁目23番"
"宮城野区","仙台市立中野中学校東側",38.2828946,140.9746284,0,"","仙台市宮城野区中野字高橋前65番地"
"宮城野区","仙台市高砂市営住宅C棟南側",38.2798979,140.9721665,0,"","仙台市宮城野区福室五丁目23番"
"宮城野区","なかの一丁目西公園南側",38.2739156,140.9746072,0,"","仙台市宮城野区中野一丁目13番"
"宮城野区","仙台市宿在家公園東側",38.282852,140.9794448,0,"","仙台市宮城野区栄三丁目5番"
"宮城野区","仙台市立中野栄小学校正門脇",38.2805054,140.9809703,0,"","仙台市宮城野区栄三丁目12番1号"
"宮城野区","仙台市栄公園西側",38.2805054,140.9809703,0,"","仙台市宮城野区栄四丁目4番"
"宮城野区","仙台市福在公園東側",38.2812094,140.9801297,0,"","仙台市宮城野区栄二丁目16番"
"宮城野区","仙台市中野栄駅前公園北側",38.2804801,140.9840358,0,"","仙台市宮城野区栄四丁目10番"
"宮城野区","仙台市栄五丁目公園南側",38.282797,140.9875124,0,"","仙台市宮城野区栄五丁目15番"
"宮城野区","仙台市出花二丁目公園西側",38.278517,140.987865,0,"","仙台市宮城野区出花二丁目7番"
"宮城野区","仙台市出花一丁目公園西側",38.2769937,140.9840942,0,"","仙台市宮城野区出花一丁目12番"
"宮城野区","洞ノ口交差点西側交差点南側（道路敷）",38.3056936,140.9482551,0,"","仙台市宮城野区岩切字若宮前72番地内"
"宮城野区","仙台市岩切東コミュニティ・センター南側",38.3064812,140.9535371,0,"","仙台市宮城野区岩切字青津目137番地8"
"宮城野区","仙台市岩切分台三丁目公園東側",38.3087636,140.9559239,0,"","仙台市宮城野区岩切分台三丁目3番"
"宮城野区","仙台市岩切分台二丁目さんかく公園東側",38.3076846,140.9588475,0,"","仙台市宮城野区岩切分台二丁目29番"
"宮城野区","みやぎ生活協同組合岩切店西側",38.3051483,140.956069,0,"","仙台市宮城野区岩切分台一丁目1番地2"
"宮城野区","仙台市交通局バス回転場北側",38.3012659,140.9554792,0,"","仙台市宮城野区岩切字洞ノ口191番地"
"宮城野区","岩切駅前ロータリー西側",38.3032315,140.9529074,0,"","仙台市宮城野区岩切字洞ノ口95番地3"
"宮城野区","仙台市東河原公園北側",38.268195,140.869418,1,"","仙台市宮城野区岩切字東河原330番地"
"宮城野区","上岡田公会堂北側",38.253861,140.9658201,0,"","仙台市宮城野区岡田字下高土手54番地"
"宮城野区","仙台市立岡田小学校南西側",38.2566883,140.9786521,0,"","仙台市宮城野区岡田字北在家67番地"
"宮城野区","仙台市上屋倉公園南側",38.2551512,140.986977,1,"","仙台市宮城野区蒲生字上屋倉24番地"
"宮城野区","仙台市港南西公園南側",38.2584267,140.9818511,0,"","仙台市宮城野区蒲生字南屋ケ城1番地"
"宮城野区","仙台市港南東公園南側",38.2580633,140.9855463,0,"","仙台市宮城野区蒲生字南城道田5番地"
"宮城野区","個人宅地南側",38.2451142,140.9829659,0,"","仙台市宮城野区岡田字堀切前12番地2"
"宮城野区","（有）菊ペン塗装店駐車場西側",38.2441506,140.986086,1,"","仙台市宮城野区岡田字浜通22番地"
"宮城野区","仙台市岡田ポンプ場西側",38.2492576,140.9888674,0,"","仙台市宮城野区蒲生字中通108番地3"
"宮城野区","個人宅地西側",38.2529463,140.9896166,0,"","仙台市宮城野区蒲生字鍋沼33番地"
"宮城野区","仙台市福田町砂押公園西側",38.266232,140.9646478,0,"","仙台市宮城野区福田町二丁目30番"
"宮城野区","仙台市扇町六丁目公園北西側",38.2661975,140.958469,0,"","仙台市宮城野区扇町六丁目5番"
"宮城野区","個人宅地東側",38.2621769,140.9618848,0,"","仙台市宮城野区福田町四丁目13番6号"
"宮城野区","仙台市福田町南一丁目公園北側",38.2592554,140.9606646,0,"","仙台市宮城野区福田町南一丁目7番"
"宮城野区","仙台市鶴巻一丁目西公園南側",38.2627939,140.9638479,0,"","仙台市宮城野区鶴巻一丁目10番"
"宮城野区","仙台市立鶴巻小学校西側",38.2629114,140.9677667,0,"","仙台市宮城野区鶴巻一丁目15番1号"
"宮城野区","仙台市福田町四丁目公園南側",38.2640289,140.9607579,0,"","仙台市宮城野区福田町四丁目5番"
"宮城野区","仙台市新田東総合運動場北側（道路敷）",38.279317,140.9365805,0,"","仙台市宮城野区新田東四丁目1番"
"宮城野区","仙台市新田東総合運動場西側",38.2774978,140.9370497,0,"","仙台市宮城野区新田東四丁目1番の1"
"宮城野区","仙台市新田東総合運動場南側",38.2774978,140.9370497,0,"","仙台市宮城野区新田東四丁目1番の1"
"宮城野区","小鶴新田駅前ロータリー南側",38.2735393,140.9351926,1,"","仙台市宮城野区新田東三丁目6番"
"宮城野区","仙台市新田東中央公園北側",38.2778449,140.9333461,0,"","仙台市宮城野区新田東一丁目11番"
"宮城野区","仙台市新田東中央公園西側",38.2778449,140.9333461,0,"","仙台市宮城野区新田東一丁目11番"
"宮城野区","仙台市新田東二丁目公園南側",38.275497,140.9317091,0,"","仙台市宮城野区新田東二丁目2番"
"宮城野区","水道局用地南西側",38.2774841,140.9325425,0,"","仙台市宮城野区新田東一丁目11番の2"
"若林区","南小泉中学校塀西側",38.2441791,140.9063052,0,"","仙台市若林区一本杉町2-1"
"若林区","南小泉中学校塀北側",38.2441791,140.9063052,0,"","仙台市若林区一本杉町2-1"
"若林区","若林区役所北側",38.2441529,140.9007965,1,"","仙台市若林区保春院前丁3-1"
"若林区","若林区文化センター前敷地北側",38.2425647,140.9010572,1,"","仙台市若林区南小泉一丁目1-1"
"若林区","南小泉茂庭線歩道柵（一本杉町8-7西側）",38.2426031,140.9081547,1,"","仙台市若林区一本杉町8-7先"
"若林区","歩道柵（南小泉四丁目17-10南側）",38.2381109,140.9052966,0,"","仙台市若林区南小泉四丁目17-10先"
"若林区","増尾造園(株)前敷地南側",38.2415578,140.9006479,1,"","仙台市若林区南小泉一丁目9-17"
"若林区","若林老人憩の家塀西側",38.2302158,140.900329,0,"","仙台市若林区若林四丁目2-1"
"若林区","若林市民センター塀東側",38.2313598,140.9019476,0,"","仙台市若林区若林三丁目15-20"
"若林区","歩道柵（若林七丁目8-20北東側）",38.2271688,140.9063668,0,"","仙台市若林区若林七丁目8-20先"
"若林区","若林公園南側",37.9802499,140.6595311,0,"","仙台市若林区若林四丁目4地内（若林四丁目43-74）"
"若林区","若林市営住宅敷地（集会所前植込）",38.2297346,140.9019666,0,"","仙台市若林区若林四丁目2-20"
"若林区","南小泉交通公園西側",38.2323036,140.9064185,0,"","仙台市若林区古城三丁目26-10"
"若林区","若林西市営住宅集会所前",38.2316003,140.895528,0,"","仙台市若林区若林二丁目7-1"
"若林区","早昌不動産・若林一丁目3-10敷地南側",38.2347122,140.8919384,0,"","仙台市若林区若林一丁目3-10"
"若林区","南材木町小学校塀南側",38.2410943,140.8890845,1,"","仙台市若林区南材木町84"
"若林区","南材木町小学校塀北側",38.2410943,140.8890845,1,"","仙台市若林区南材木町84"
"若林区","八軒中学校塀西側",38.2414171,140.8926101,1,"","仙台市若林区南小泉字八軒小路9-1"
"若林区","南材コミュニティ・センター敷地西側",38.2402484,140.8934782,1,"","仙台市若林区南小泉字八軒小路5-4"
"若林区","歩道柵（ポケットパーク内）",38.2430934,140.8878616,1,"","仙台市若林区舟丁27-2先"
"若林区","弘進ゴム(株)塀北側",38.2396545,140.8925915,1,"","仙台市若林区河原町二丁目1-11"
"若林区","河原町駐車場柵北側",38.2387793,140.8894751,1,"","仙台市若林区河原町一丁目4-20先"
"若林区","水路柵（南染師町59南側）",38.2442062999999,140.8926148,1,"","仙台市若林区南染師町59先"
"若林区","荒町小学校西側正門右側柵",38.2485509,140.8810051,1,"","仙台市若林区荒町86"
"若林区","愛宕橋欄干北東側",38.2464339,140.881465,1,"","仙台市若林区土樋225-2先（土樋223-8地先）"
"若林区","荒町公園西側",38.248126,140.884204,1,"","仙台市若林区荒町36-6外"
"若林区","荒町市民センター北側植栽",38.2490762,140.881866,1,"","仙台市若林区荒町86-2"
"若林区","地下鉄愛宕橋駅出入口前植込",38.2473988,140.8810994,1,"","仙台市若林区土樋一丁目11-8先"
"若林区","東北電力(株)石名坂アパート塀東側",38.2435321,140.8862767,1,"","仙台市若林区石名坂83"
"若林区","歩道柵（東海住宅北目町歩道橋南東側付近）",38.2550871,140.8823288,1,"","仙台市若林区五橋三丁目1-1先（五橋三丁目324-9地先）"
"若林区","歩道柵（南鍛冶町68-1東側・南鍛冶町橋下）",38.248277,140.8888927,1,"","仙台市若林区南鍛冶町68-1先"
"若林区","連坊小路小学校塀東側",38.2523199,140.888423,1,"","仙台市若林区連坊一丁目7-27"
"若林区","新寺三丁目公園南側",38.2550635,140.8880334,0,"","仙台市若林区新寺三丁目6"
"若林区","新寺四丁目公園北側",38.2538753,140.8914668,0,"","仙台市若林区新寺四丁目2地内"
"若林区","新寺五丁目公園西側",38.2560487,140.8959155,0,"","仙台市若林区新寺五丁目9地内"
"若林区","地下鉄連坊駅エレベーター出入口前植込（仙台第一高等学校北側）",38.2501485,140.8938565,1,"","仙台市若林区元茶畑4先"
"若林区","柴田町公園南側",38.0565346,140.7658363,0,"","仙台市若林区表柴田町2-1"
"若林区","連坊あづま児童公園南側",38.2511451,140.8931589,1,"","仙台市若林区連坊二丁目10-33先(連坊二丁目328-1)"
"若林区","歩道柵（東漸寺北側）",38.2499336,140.8902717,1,"","仙台市若林区元茶畑10-16先"
"若林区","若林消防団連坊分団連坊部コミュニティ消防センター柵",38.2539763,140.8938165,1,"","仙台市若林区連坊二丁目6-5先"
"若林区","聖ウルスラ学院木ノ下キャンパス南側植込",38.250026,140.8965014,1,"","仙台市若林区木ノ下一丁目25-25先"
"若林区","白萩公園南側",38.2505724,140.9083255,0,"","仙台市若林区白萩25地内（白萩町62番地）"
"若林区","東北電力(株)木ノ下アパート塀西側",38.2477105,140.9033697,1,"","仙台市若林区木ノ下五丁目7-30"
"若林区","水路上歩道柵（木ノ下五丁目4-7東側）",38.2491613,140.9056534,1,"","仙台市若林区木ノ下五丁目4-7先"
"若林区","椌木緑地西側",38.2483286999999,140.8987653,1,"","仙台市若林区椌木通61-1先(61-13)"
"若林区","連坊コミュニティ・センター別館木ノ下コミュニティ防災センター前",38.2499653,140.8989256,1,"","仙台市若林区木ノ下一丁目23-23"
"若林区","薬師堂駅駐輪場南側植込",38.2498121,140.9051829,1,"","仙台市若林区木ノ下三丁目16地内"
"若林区","南小泉小学校塀北側",38.2442551,140.9060334,0,"","仙台市若林区一本杉町17-10"
"若林区","一本杉町公園西側",38.2458575,140.903203,0,"","仙台市若林区一本杉町25地内"
"若林区","大和町一丁目東公園西側",38.2462829,140.9089936,0,"","仙台市若林区大和町一丁目22地内"
"若林区","大和町一丁目南公園南側",38.2476378,140.9086654,0,"","仙台市若林区大和町一丁目19地内（大和町一丁目205-32）"
"若林区","歩道柵（薬師高砂堀通り若林区役所北東交差点付近）",38.2453338,140.9021694,1,"","仙台市若林区一本杉町19-22先"
"若林区","宮城の萩大通り道路植栽地（整骨院西側）",38.2453006,140.9095785,0,"","仙台市若林区中倉一丁目4-10先"
"若林区","中倉一丁目公園北側",38.2438303,140.9098071,0,"","仙台市若林区中倉一丁目11地内（102-15）"
"若林区","大和小学校塀北側",38.2469133,140.9168278,0,"","仙台市若林区大和町三丁目16-1"
"若林区","大和小学校塀東側",38.2469133,140.9168278,0,"","仙台市若林区大和町三丁目16-1"
"若林区","牛踏公園北側",38.249307,140.9186813,0,"","仙台市若林区大和町四丁目21地内"
"若林区","松木公園西側",38.2496359,140.924471,0,"","仙台市若林区大和町五丁目7地内"
"若林区","仙台市中央卸売市場塀（正門脇バス停付近）",38.2584087,140.9343733,1,"","仙台市若林区卸町四丁目3-1"
"若林区","県営中倉住宅塀南側",38.2438322,140.9191541,0,"","仙台市若林区中倉二丁目24-1"
"若林区","大和町市営住宅入口フェンス",38.2467385,140.9239395,0,"","仙台市若林区大和町五丁目29-26"
"若林区","地下鉄卸町駅南側出入口植込",38.2501471,140.9170697,0,"","仙台市若林区大和町四丁目19地内"
"若林区","遠見塚小学校塀西側",38.2383685,140.9131188,0,"","仙台市若林区遠見塚一丁目22-1"
"若林区","遠見塚二丁目南公園",38.2397966,140.913504,0,"","仙台市若林区遠見塚二丁目22-28先"
"若林区","遠見塚二丁目２号公園北側",38.240002,140.9106872,0,"","仙台市若林区遠見塚二丁目16地内"
"若林区","遠見塚二丁目公園東側",38.2411259,140.9114325,0,"","仙台市若林区遠見塚二丁目15-24先"
"若林区","遠見塚東公園北側",38.2357115,140.9140766,0,"","仙台市若林区遠見塚東9地内"
"若林区","宮城の萩大通り・遠見塚一丁目4-33西側歩道植込",38.2379009,140.9075013,0,"","仙台市若林区遠見塚一丁目4-33先"
"若林区","南小泉保育所塀東側",38.2379326,140.9100792,0,"","仙台市若林区遠見塚一丁目14-1"
"若林区","若林消防署敷地東側",38.2427951,140.9139975,0,"","仙台市若林区遠見塚二丁目25-20"
"若林区","蒲町小学校塀東側",38.2423959,140.929292,0,"","仙台市若林区蒲町41-1"
"若林区","蒲町中学校塀南側",38.2474864,140.9278515,0,"","仙台市若林区蒲町9-1"
"若林区","なないろの里２号公園南側",38.241453,140.9278513,0,"","仙台市若林区なないろの里一丁目11-18"
"若林区","蒲町公園西側",38.2429509,140.9249714,0,"","仙台市若林区蒲町32地内"
"若林区","交通局霞の目営業所塀南側",38.2403987,140.9205668,0,"","仙台市若林区かすみ町9-1"
"若林区","七郷中央公園西側",38.245276,140.9327813,0,"","仙台市若林区蒲町東11-1"
"若林区","浪分神社柵南側",38.2353928,140.9276854,0,"","仙台市若林区霞目二丁目15-37"
"若林区","なないろの里５号公園北側",38.2385489,140.9344427,0,"","仙台市若林区なないろの里三丁目5-19"
"若林区","なないろの里６号公園北側",38.2374579,140.9307206,0,"","仙台市若林区なないろの里三丁目2-29"
"若林区","七郷小学校塀南側",38.2409413,140.9421237,0,"","仙台市若林区荒井三丁目17-1"
"若林区","七郷市民センター塀北側",38.2426051,140.9410587,0,"","仙台市若林区荒井三丁目7-2"
"若林区","荒井駅南側バスプール",38.2421005,140.9495941,1,"","仙台市若林区荒井東一丁目9"
"若林区","四ツ谷公会堂",38.2369278,140.9614835,0,"","仙台市若林区荒井字四ツ谷東69"
"若林区","歩道柵（笹新田西バス停西側）",38.2270685,140.9633961,0,"","仙台市若林区荒井字五才北138先（荒井字五才北161-2）"
"若林区","荒井字宅地10塀北側",38.2223782,140.9480205,0,"","仙台市若林区荒井字宅地10"
"若林区","荒井東市営住宅敷地西側",38.2363381,140.9508354,0,"","仙台市若林区荒井東二丁目1-1"
"若林区","荒井南１号公園南側",38.2376669,140.942344,0,"","仙台市若林区荒井南67"
"若林区","荒井７丁目公園東側",38.2404345,140.9467961,1,"","仙台市若林区荒井七丁目14-1"
"若林区","荒井小学校塀北側",38.2476801,140.9407374,0,"","仙台市若林区伊在三丁目2-1"
"若林区","荒井小学校塀西側",38.2476801,140.9407374,0,"","仙台市若林区伊在三丁目2-1"
"若林区","六丁の目北町1-68塀南側",38.2509919,140.9479427,0,"","仙台市若林区六丁の目北町1-68"
"若林区","六丁の目北町公園西側",38.2515538,140.9494606,0,"","仙台市若林区六丁の目北町9-3"
"若林区","六丁の目南町公園北側",38.2493611,140.9414065,0,"","仙台市若林区六丁の目南町6-2"
"若林区","卸町東二丁目公園南側",38.2590644,140.9475534,0,"","仙台市若林区卸町東二丁目4-1"
"若林区","六丁の目中町西公園北側",38.2529605,140.9391634,1,"","仙台市若林区六丁の目中町9-1"
"若林区","伊在二丁目公園南側",38.2462578,140.9378473,0,"","仙台市若林区伊在二丁目21-1"
"若林区","東六郷コミュニティ・センター塀北側",38.1987694,140.949906,0,"","仙台市若林区二木字山王77-2"
"若林区","歩道柵（種次入口バス停北側）",38.2018517,140.9443996,0,"","仙台市若林区種次字道元47-2先（二木字笠神341先）"
"若林区","歩道柵（東六郷コミュニティ・センター前バス停東側）",38.1997231,140.9512398,0,"","仙台市若林区二木字山王3-2先"
"若林区","種次公会堂南側フェンス",38.196441,140.9444113,0,"","仙台市若林区種次字中屋敷47-1先"
"若林区","歩道柵（長屋敷作業組合穀物共同乾燥調製施設向側）",38.2170375,140.9549029,0,"","仙台市若林区三本塚字下新田222-1先（三本塚字下新田374）"
"若林区","歩道柵（井土浜バス停前）",38.1995754,140.9573797,0,"","仙台市若林区二木字大口5先"
"若林区","中野バス停西側",38.1935832,140.9504748,0,"","仙台市若林区種次字南番古55-1"
"若林区","三本塚公会堂敷地南側",38.2097422,140.9531694,0,"","仙台市若林区三本塚字権太125"
"若林区","六郷小学校塀北側",38.2153889999999,140.9331421,0,"","仙台市若林区六郷11-11"
"若林区","六郷中学校塀西側",38.2134536,140.9340645,0,"","仙台市若林区六郷13-1"
"若林区","飯田前公園（今泉神社前バス停付近）",38.2126273,140.9271026,0,"","仙台市若林区今泉二丁目3-33先"
"若林区","若林消防署六郷分署塀北側（入口西側）",38.2112301,140.9342088,0,"","仙台市若林区今泉字久保田東32-65"
"若林区","土手畑２号公園南側",38.2172421,140.9133023,0,"","仙台市若林区上飯田二丁目17地内（上飯田二丁目145-29）"
"若林区","歩道柵（上飯田三丁目バス停南側）",38.2184118,140.9210229,0,"","仙台市若林区上飯田三丁目1-3先"
"若林区","今泉運動場駐車場塀北側",38.2051349,140.9271617,0,"","仙台市若林区今泉字鹿子穴140"
"若林区","ニッペリア敷地東側",38.2138542,140.9205927,0,"","仙台市若林区日辺字沖田東15"
"若林区","六郷市民センター塀南側",38.2149069,140.9275154,0,"","仙台市若林区今泉一丁目3-19"
"若林区","上飯田大町６号公園北側",38.2170459,140.9295867,0,"","仙台市若林区上飯田四丁目17-3先"
"若林区","沖野小学校塀西側",38.2259822,140.9140646,0,"","仙台市若林区沖野三丁目20-1"
"若林区","中柵東７号公園西側",38.2265976,140.915683,0,"","仙台市若林区沖野三丁目31地内（沖野三丁目91-5）"
"若林区","館西３号公園南側",38.2303238999999,140.915021,0,"","仙台市若林区沖野二丁目26地内"
"若林区","新神柵公園北側",38.2297116,140.9113072,0,"","仙台市若林区沖野二丁目14地内"
"若林区","水路北側（沖野一丁目41-3南側）",38.2314346,140.9110581,0,"","仙台市若林区沖野一丁目41-3先"
"若林区","沖野中学校塀西側",38.2289947,140.9160719,0,"","仙台市若林区沖野二丁目29-50"
"若林区","六郷幼稚園塀東側",38.2237221,140.9105941,0,"","仙台市若林区沖野五丁目4-33"
"若林区","沖野二丁目15-30塀東側",38.2286499,140.9119853,0,"","仙台市若林区沖野二丁目15-30"
"若林区","沖野東小学校塀西側",38.2225725,140.9225803,0,"","仙台市若林区沖野字高野南89"
"若林区","沖野市民センター塀東側",38.2249957,140.9222325,0,"","仙台市若林区沖野七丁目34-43"
"若林区","中柵東４号公園南側",38.2271623,140.9172377,0,"","仙台市若林区沖野七丁目11地内"
"若林区","河原下６号公園南側",38.2244045,140.9166169,0,"","仙台市若林区沖野六丁目16地内"
"若林区","館南９号公園北側",38.2252599,140.9196145,0,"","仙台市若林区沖野六丁目29-3先"
"若林区","天神公園南側",38.2182982,140.9266417,0,"","仙台市若林区上飯田字天神41-1先"
"若林区","つどいの家・コペル塀西側",38.2205371,140.9174608,0,"","仙台市若林区上飯田一丁目17-58"
"若林区","古城小学校塀西側",38.2361507,140.8970807,0,"","仙台市若林区古城二丁目1-1"
"若林区","若林一丁目北公園北側",38.2355729,140.897573,0,"","仙台市若林区若林一丁目8-6-1先（若林一丁目79-24）"
"若林区","古城コミュニティ・センター塀南側",38.2380194,140.8961715,0,"","仙台市若林区古城一丁目1-15"
"若林区","文化町２号公園南側",38.2407437,140.8958359,1,"","仙台市若林区文化町15地内"
"若林区","水路柵（文化町9-3北側）",38.2427157,140.8969494,1,"","仙台市若林区文化町9-3先（78-9地先）"
"若林区","水路柵（古城二丁目バス停付近・北側のバス停の東側）",38.2373879,140.899031,0,"","仙台市若林区南小泉三丁目21-22先（135-1地先）"
"若林区","若林一丁目公園南側",38.2343834,140.8984121,0,"","仙台市若林区若林一丁目8-24先（83-30）"
"若林区","宮城刑務所（南小泉三丁目バス停南側）",38.2366631,140.9003141,0,"","仙台市若林区古城二丁目5地内"
"若林区","大和コミュニティ・センター西側",38.2473247,140.9148247,0,"","仙台市若林区大和町二丁目9-15"
"若林区","大和児童館南側フェンス",38.2457152,140.9171166,0,"","仙台市若林区中倉二丁目19-25"
"若林区","市道２６７号南側植栽地（大和町二丁目1-14北側）",38.2487378,140.9120745,0,"","仙台市若林区大和町二丁目1-14先"
"若林区","市道２６７号北側植栽地（大和町二丁目バス停付近）",38.2492303,140.9121214,0,"","仙台市若林区志波町4-18先"
"若林区","宮城の萩大通り道路植栽地（ピザ店西側）",38.2466437,140.9101319,0,"","仙台市若林区大和町二丁目29-18先"
"若林区","尼坪公園北側",38.2462223,140.9165792,0,"","仙台市若林区大和町三丁目18"
"若林区","尼坪公園西側",38.2462223,140.9165792,0,"","仙台市若林区大和町三丁目18"
"若林区","ヨークマルシェ大和町店南側植栽地",38.2492783,140.9144661,0,"","仙台市若林区大和町四丁目6-1先"
"太白区","太白障害者福祉ｾﾝﾀｰ西側（植栽）",38.2241825,140.8803644,0,"","仙台市太白区長町南一丁目6-10"
"太白区","長町南三丁目北公園東側",38.2231776,140.8759848,1,"","仙台市太白区長町南三丁目5地内"
"太白区","地底の森ﾐｭｰｼﾞｱﾑ駐車場（植栽）",38.223052,140.8732552,1,"","仙台市太白区長町南四丁目3地内"
"太白区","仙台南県税事務所",38.1910832,140.8783609,0,"","仙台市太白区長町七丁目22-20"
"太白区","鹿野三丁目公園西側",38.2257061,140.8698915,1,"","仙台市太白区鹿野三丁目7地内"
"太白区","泉崎二丁目公園北西側",38.2226977,140.8666178,1,"","仙台市太白区泉崎二丁目9地内"
"太白区","長町南小学校西側",38.2262464999999,140.8742192,0,"","仙台市太白区長町七丁目23-1"
"太白区","地下鉄長町南駅駐輪場（植栽）",38.22461,140.8766,1,"","仙台市太白区長町南三丁目1地内"
"太白区","長町南四丁目北公園西側",38.2229853,140.8715743,1,"","仙台市太白区長町南四丁目2地内"
"太白区","土手前公園",38.2095976,140.8805329,0,"","仙台市太白区大野田三丁目12地内"
"太白区","大野田ｺﾐｭﾆﾃｨ･ｾﾝﾀｰ",38.2158379,140.8751182,0,"","仙台市太白区大野田五丁目23地内"
"太白区","長町南四丁目南公園北側",38.22,140.8741821,0,"","仙台市太白区長町南四丁目21地内"
"太白区","地下鉄富沢駅西側（植栽）",38.2142704,140.870577,1,"","仙台市太白区富沢四丁目2-22"
"太白区","大野田観音堂公園北側",38.2109864,140.8749958,0,"","仙台市太白区大野田四丁目27地内"
"太白区","大野田小学校東側",38.21673,140.874188,0,"","仙台市太白区大野田五丁目27-2"
"太白区","歩道ﾌｪﾝｽ（館腰線、袋東公園西側）",38.2179398,140.8783487,0,"","仙台市太白区大野田一丁目4地内"
"太白区","太子堂公園",38.2141654,140.8817366,0,"","仙台市太白区太子堂4地内"
"太白区","土手内一丁目東公園",38.2275262,140.8617276,0,"","仙台市太白区土手内一丁目7地内"
"太白区","歩道ﾌｪﾝｽ(鹿野小学校北側)",38.2288592,140.8718852,0,"","仙台市太白区鹿野二丁目9地内"
"太白区","東北工業大学長町ｷｬﾝﾊﾟｽ西側(長岫橋と大学入口の間のﾌｪﾝｽ)",38.235505,140.8727752,0,"","仙台市太白区二ツ沢10地内"
"太白区","二ツ沢公園",38.2351851,140.8666429,0,"","仙台市太白区緑ケ丘三丁目38地内"
"太白区","緑ケ丘2号緑地",38.2310092,140.8671948,1,"","仙台市太白区緑ケ丘一丁目9地内"
"太白区","水路ﾌｪﾝｽ(鹿野橋ﾊﾞｽ停付近)",38.232484,140.8723706,1,"","仙台市太白区鹿野本町6地内"
"太白区","長町中学校南東側",38.2299851,140.8736364,0,"","仙台市太白区鹿野一丁目8-1"
"太白区","緑ケ丘4号緑地",38.2335103,140.8662849,0,"","仙台市太白区緑ケ丘三丁目5地内"
"太白区","桜木町公園南側",38.2441907,140.8527744,0,"","仙台市太白区桜木町13地内"
"太白区","八木山本町一丁目公園",38.2425483,140.8477807,1,"","仙台市太白区八木山本町一丁目18地内"
"太白区","水路ﾌｪﾝｽ（八木山本町二丁目ﾊﾞｽ停付近）",38.2434027,140.8464445,0,"","仙台市太白区八木山本町一丁目40地内"
"太白区","八木山小学校西側",38.2387196,140.8485827,1,"","仙台市太白区八木山本町一丁目40-1"
"太白区","八木山中学校南東側（法面）",38.2369646,140.8461052,0,"","仙台市太白区八木山東二丁目27-1"
"太白区","八木山中学校北西側（ﾌｪﾝｽ）",38.2369646,140.8461052,1,"","仙台市太白区八木山東二丁目27-1"
"太白区","歩道ﾌｪﾝｽ（地下鉄八木山動物公園駅西出口側）",38.2440366,140.8424728,1,"","仙台市太白区八木山本町一丁目43地内"
"太白区","松風公園南側",38.2389042,140.8408654,0,"","仙台市太白区八木山本町二丁目38地内"
"太白区","青山二丁目公園",38.2382642,140.8611268,0,"","仙台市太白区青山二丁目27地内"
"太白区","青山保育所南側",38.2406604,140.8584145,0,"","仙台市太白区青山一丁目10-28"
"太白区","市道敷",38.2441907,140.8527744,0,"","仙台市太白区桜木町39地内"
"太白区","歩道ﾌｪﾝｽ（仙台城南高校入口付近）",38.2410989,140.8623207,0,"","仙台市太白区八木山弥生町4地内"
"太白区","市道敷（水路ｶﾞｰﾄﾞﾚｰﾙ）",38.2381617,140.8606833,0,"","仙台市太白区青山二丁目40地内"
"太白区","青山二丁目3号公園南側",38.236921,140.8624611,0,"","仙台市太白区青山二丁目23地内"
"太白区","水路ﾌｪﾝｽ（市道幅員の広い箇所）",38.2409161,140.856072,0,"","仙台市太白区青山一丁目32地内"
"太白区","太白消防署八木山出張所（植栽）",38.2459583,140.8571609,0,"","仙台市太白区八木山香澄町25-20"
"太白区","向山小学校東側(向山児童館脇植栽)",38.243791,140.8669661,0,"","仙台市太白区向山三丁目19-1"
"太白区","萩ケ丘公園（植栽）",38.2397901,140.8663997,0,"","仙台市太白区萩ケ丘28地内"
"太白区","大泉山保存緑地北側（市道沿いﾌｪﾝｽ）",38.2410989,140.8623207,0,"","仙台市太白区八木山弥生町17地内"
"太白区","市道敷（萩ケ丘ﾊﾞｽ停付近ｶﾞｰﾄﾞﾚｰﾙ）",38.2376555,140.8680842,0,"","仙台市太白区長嶺14地内"
"太白区","仙台城南高等学校ｸﾞﾗｳﾝﾄﾞ（南西側法面）",38.2467914,140.8593467,0,"","仙台市太白区八木山香澄町12地内"
"太白区","愛宕中学校(向山ｺﾐｭﾆﾃｨ・ｾﾝﾀｰ西側法面)",38.2408102,140.8709961,0,"","仙台市太白区萩ケ丘9-1"
"太白区","民地（向山四丁目ﾊﾞｽ停付近）",38.2437961,140.8763757,0,"","仙台市太白区向山四丁目28地内"
"太白区","歩道脇水道局フェンス（ますみ保育園隣）",38.2437961,140.8763757,0,"","仙台市太白区向山四丁目26地内"
"太白区","歩道ﾌｪﾝｽ(東北電子産業向)",38.24249,140.8687312,0,"","仙台市太白区向山三丁目1地内"
"太白区","向山公園",38.2437961,140.8763757,0,"","仙台市太白区向山四丁目27地内"
"太白区","歩道ﾌｪﾝｽ(越路ﾊﾞｽ停近く)",38.2447510999999,140.8802385,1,"","仙台市太白区越路17地内"
"太白区","野草園（正門右側ﾌｪﾝｽ）",38.2387997,140.8739392,0,"","仙台市太白区茂ケ崎二丁目1-1"
"太白区","向山一丁目公園南側",38.2491435,140.8649556,0,"","仙台市太白区向山一丁目8地内"
"太白区","歩道ﾌｪﾝｽ（大年寺前ﾊﾞｽ停付近）",38.2350822999999,140.878942,0,"","仙台市太白区門前町4地内"
"太白区","交通局長町営業所北側",38.2244405,140.8660943,4,"記載されている名称の建物も掲示板も見当たりませんでした","仙台市太白区長町五丁目8-18"
"太白区","長町小学校南側",38.2452654,140.8738492,0,"","仙台市太白区長町四丁目6-1"
"太白区","長町二丁目公園南側",38.2336877,140.8844138,0,"","仙台市太白区長町二丁目4地内"
"太白区","長町小学校東側",38.2452654,140.8738492,0,"","仙台市太白区長町四丁目6-1"
"太白区","歩道ﾌｪﾝｽ（県第二総合運動場西側）",38.2390582,140.8832095,0,"","仙台市太白区根岸町15地内"
"太白区","福寿さくら公園",38.2316583,140.8772229,1,"","仙台市太白区鹿野一丁目2地内"
"太白区","長町駅西口広場公園（植栽）",38.227296,140.8852212,1,"","仙台市太白区長町五丁目1地内"
"太白区","水路ﾌｪﾝｽ(仙台南高校前ﾊﾞｽ停付近)",38.2342243,140.882561,0,"","仙台市太白区長町二丁目1地内"
"太白区","あすと長町中央公園西側（植栽）",38.2247396,140.8875105,1,"","仙台市太白区あすと長町四丁目4地内"
"太白区","JR長町駅東口広場（駐輪場脇植栽）",38.2272399999999,140.886157,1,"","仙台市太白区あすと長町一丁目6地内"
"太白区","仙台市立病院東側（植栽）",38.2319186,140.8883235,1,"","仙台市太白区あすと長町一丁目1-1"
"太白区","〆木公園北側",38.2253526999999,140.894584,0,"","仙台市太白区郡山三丁目6地内"
"太白区","八本松小学校東側",38.2259791,140.8978568,0,"","仙台市太白区八本松一丁目16-1"
"太白区","資材倉庫(旧環境事業所西側ﾌｪﾝｽ)",38.2216038,140.8954029,0,"","仙台市太白区郡山三丁目27-10"
"太白区","八本松市民ｾﾝﾀｰ（ﾌｪﾝｽ）",38.2289174,140.8925718,0,"","仙台市太白区八本松二丁目4-20"
"太白区","八本松公園（児童館側入口西側植栽)",38.2281835,140.8918814,0,"","仙台市太白区八本松二丁目5地内"
"太白区","長町副都心1号公園北側",38.2238965,140.8891533,0,"","仙台市太白区郡山二丁目2地内"
"太白区","宮城自動車学校南側（ﾌｪﾝｽ)",38.2232738,140.9022538,0,"","仙台市太白区東郡山一丁目10-1"
"太白区","飯田公園",38.2213914,140.900748,0,"","仙台市太白区東郡山二丁目17地内"
"太白区","郡山小学校西側",38.2164832,140.8996866,0,"","仙台市太白区郡山字行新田1-1"
"太白区","郡山源兵衛東公園",38.2190479,140.9068241,0,"","仙台市太白区東郡山二丁目25地内"
"太白区","谷地田西公園",38.2141713,140.8949726,0,"","仙台市太白区郡山字谷地田西3地内"
"太白区","郡山新橋北公園",38.2173939,140.896382,0,"","仙台市太白区郡山字新橋北8地内"
"太白区","郡山老人福祉ｾﾝﾀｰ前（ｶﾞｰﾄﾞﾊﾟｲﾌﾟ）",38.2154849,140.9024413,0,"","仙台市太白区郡山字深町2地内"
"太白区","郡山中学校南側",38.2199684,140.8933617,0,"","仙台市太白区郡山五丁目10-1"
"太白区","東長町小学校東側",38.2189361,140.8892438,0,"","仙台市太白区郡山六丁目5-1"
"太白区","天王前公園南側",38.2124078,140.889587,0,"","仙台市太白区郡山八丁目7地内"
"太白区","ＪＲ太子堂駅東口広場（駐輪場脇植栽）",38.217142,140.884908,1,"","仙台市太白区あすと長町三丁目12地内"
"太白区","市道敷（仙台南部道路北側）",38.2089547,140.8866353,0,"","仙台市太白区東大野田地内"
"太白区","東大野田西公園西側",38.2103729,140.8865339,0,"","仙台市太白区東大野田10地内"
"太白区","東大野田公園（東大野田ﾊﾞｽ停付近）",38.2098863,140.8843746,0,"","仙台市太白区東大野田2地内"
"太白区","郡山市営住宅西側（植栽）",38.2198115,140.8873239,0,"","仙台市太白区郡山六丁目6-6"
"太白区","市道ｶﾞｰﾄﾞﾌｪﾝｽ（四郎丸小学校前ﾊﾞｽ停脇）",38.1908148,140.9088191,0,"","仙台市太白区四郎丸字渡道37地内"
"太白区","吹上1号公園東側",38.1939595,140.9147768,0,"","仙台市太白区四郎丸字吹上77地内"
"太白区","四郎丸小学校北側（ｶﾞｰﾄﾞﾊﾟｲﾌﾟ）",38.1937422,140.9108018,0,"","仙台市太白区四郎丸字吹上6-3"
"太白区","東中田市民ｾﾝﾀｰ",38.1929607,140.9140372,0,"","仙台市太白区四郎丸字吹上51"
"太白区","袋原保育所東側",38.1978181,140.9151253,0,"","仙台市太白区袋原五丁目1-10"
"太白区","小平公園北側",38.1968285,140.9123659,0,"","仙台市太白区袋原六丁目17地内"
"太白区","向日葵ﾌｧﾐﾘｰ正面西側（植栽）",38.1956585,140.9178742,0,"","仙台市太白区袋原五丁目17-33"
"太白区","四郎丸昭和裏3号公園",38.1890328,140.9155329,0,"","仙台市太白区四郎丸字昭和裏26地内"
"太白区","四郎丸市営住宅1号棟南側（植栽）",38.1939077,140.9175124,0,"","仙台市太白区四郎丸字大宮26-1"
"太白区","四郎丸東市営住宅1号棟南側（植栽）",38.1959222,140.919847,0,"","仙台市太白区四郎丸字落合23-1"
"太白区","東四郎丸小学校西側",38.1933779,140.9251316,0,"","仙台市太白区四郎丸字昭和北1"
"太白区","昭和中公園",38.1907831,140.9230568,0,"","仙台市太白区四郎丸字昭和中78地内"
"太白区","四郎丸東市営住宅3号棟東側（植栽）",38.1959222,140.919847,0,"","仙台市太白区四郎丸字落合23-1"
"太白区","四郎丸戸ノ内2号公園",38.1892019,140.9172736,0,"","仙台市太白区四郎丸字戸ノ内93地内"
"太白区","四郎丸市営住宅7号棟西側（植栽）",38.1939077,140.9175124,0,"","仙台市太白区四郎丸字大宮26-1"
"太白区","寺浦公園東側",38.1947662,140.899675,0,"","仙台市太白区中田町字寺浦10地内"
"太白区","中田境東公園（堰場ﾊﾞｽ停東南方向）",38.1897266,140.9049481,0,"","仙台市太白区中田町字境29地内"
"太白区","中田中央公園南側（駐車場入口脇ﾌｪﾝｽ）",38.1995724,140.8990559,0,"","仙台市太白区東中田五丁目13地内"
"太白区","中法地公園西側",38.2017114,140.8981092,0,"","仙台市太白区東中田二丁目20地内"
"太白区","JCHO仙台南病院前（ｶﾞｰﾄﾞﾊﾟｲﾌﾟ）",38.1906772,140.8997262,0,"","仙台市太白区中田町前沖143地内"
"太白区","中田二軒橋公園",38.1964854,140.8954571,0,"","仙台市太白区中田町字二軒橋14地内"
"太白区","南首長北公園東側",38.2018768999999,140.9029104,0,"","仙台市太白区東中田三丁目5地内"
"太白区","袋原北公園南側",38.2027387,140.9122269,0,"","仙台市太白区袋原二丁目11地内"
"太白区","袋原・原公園",38.2009872,140.9083616,0,"","仙台市太白区袋原一丁目19地内"
"太白区","中田二丁目公園",38.2033318,140.8897382,0,"","仙台市太白区中田二丁目15地内"
"太白区","中田小学校北側",38.200436,140.8872191,0,"","仙台市太白区中田四丁目1-1"
"太白区","JR南仙台駅東口広場（駐輪場側植栽）",38.1966447,140.887594,0,"","仙台市太白区中田五丁目2地内"
"太白区","中田市民ｾﾝﾀｰ南側",38.1993769,140.8876401,0,"","仙台市太白区中田四丁目1-5"
"太白区","ｺﾐｭﾆﾃｨ消防ｾﾝﾀｰ（植栽）",38.1969065,140.8888264,0,"","仙台市太白区中田五丁目14-1"
"太白区","中田六丁目西公園",38.1924264,140.8852677,0,"","仙台市太白区中田六丁目6地内"
"太白区","くりっこ保育園駐車場",38.1905948,140.887901,0,"","仙台市太白区中田七丁目16地内"
"太白区","中田老人憩の家",38.2004859,140.895268,0,"","仙台市太白区東中田二丁目9-26"
"太白区","西中田市営住宅3号棟北側（ﾌｪﾝｽ）",38.1902036,140.8812342,0,"","仙台市太白区西中田六丁目20-3"
"太白区","西中田公園北側",38.1935312,140.8785528,0,"","仙台市太白区西中田七丁目1地内"
"太白区","西中田小学校東側",38.1927967,140.876136,0,"","仙台市太白区西中田七丁目7-1"
"太白区","安久公園東側",38.1981687,140.8763032,0,"","仙台市太白区西中田三丁目19地内"
"太白区","JR南仙台駅西口広場（中央部植栽）",38.1958871,140.8817722,0,"","仙台市太白区西中田四丁目1地内"
"太白区","柳生天神公園南側",38.2020827,140.8792972,0,"","仙台市太白区西中田二丁目12地内"
"太白区","西中田三丁目公園西側",38.1993664,140.8797459,0,"","仙台市太白区西中田三丁目1地内"
"太白区","栗ノ木公園西側",38.1914398,140.8755801,0,"","仙台市太白区西中田七丁目31地内"
"太白区","安久東公園南側",38.1966096,140.8809836,0,"","仙台市太白区西中田四丁目4地内"
"太白区","市道敷（西中田二丁目ﾊﾞｽ停付近）",38.2025659,140.8758207,0,"","仙台市太白区柳生字野添6地内"
"太白区","柳生小学校北側",38.1987171,140.8715809,0,"","仙台市太白区柳生字台畑100"
"太白区","柳生市民ｾﾝﾀｰ北駐車場南側",38.1994719,140.8683396,0,"","仙台市太白区柳生七丁目21地内"
"太白区","荒田公園東側",38.195917,140.8724495,0,"","仙台市太白区柳生二丁目11地内"
"太白区","柳生六丁目公園北側",38.1968573,140.8626301,0,"","仙台市太白区柳生六丁目7地内"
"太白区","柳生一丁目公園東側",38.1975544,140.8711119,0,"","仙台市太白区柳生一丁目11地内"
"太白区","柳生四丁目公園南側",38.1948698,140.8672058,0,"","仙台市太白区柳生四丁目11地内"
"太白区","柳生七丁目公園西側",38.1985982,140.8655968,0,"","仙台市太白区柳生七丁目24地内"
"太白区","みやぎ生協西多賀店東側（市道沿い植栽）",38.2221342,140.8563689,0,"","仙台市太白区西多賀三丁目１-1"
"太白区","富沢三丁目公園西側",38.2173179,140.8600779,0,"","仙台市太白区富沢三丁目11地内"
"太白区","富沢中学校正門脇",38.2186109,140.8636114,0,"","仙台市太白区富沢二丁目4-1"
"太白区","西多賀小学校正門脇",38.2198183,140.8588856,0,"","仙台市太白区西多賀二丁目3-1"
"太白区","富沢二丁目公園",38.2196700999999,140.8641244,0,"","仙台市太白区富沢二丁目6地内"
"太白区","富沢公園南側",38.2173577,140.8704544,1,"","仙台市太白区富沢一丁目2地内"
"太白区","八坂神社前（富田ちびっ子広場東側）",38.2124989,140.8480575,0,"","仙台市太白区富田字上野中4番1"
"太白区","歩道ﾌｪﾝｽ（唐松橋西側）",38.2162523,140.853179,0,"","仙台市太白区富田字八幡東29地内"
"太白区","西の平二丁目2号公園南側",38.231358,140.8504312,0,"","仙台市太白区西の平二丁目27地内"
"太白区","はたとや公園",38.2321926,140.8596094,0,"","仙台市太白区大塒町39地内"
"太白区","大塒3号公園",38.2350502,140.8574106,0,"","仙台市太白区大塒町13地内"
"太白区","芦ノ口羽黒台公園",38.2310769,140.8563822,0,"","仙台市太白区芦の口2地内"
"太白区","歩道ﾌｪﾝｽ（芦口小学校正門脇）",38.2306861,140.8559816,0,"","仙台市太白区芦の口1-1"
"太白区","西の平二丁目公園",38.2333323,140.8492636,0,"","仙台市太白区西の平二丁目9地内"
"太白区","市道ﾌｪﾝｽ（大塒緑地北東側）",38.2340163,140.8588846,0,"","仙台市太白区大塒町1地内"
"太白区","名召公園",38.2226073,140.8477188,0,"","仙台市太白区西多賀四丁目23地内"
"太白区","鈎取寺西公園",38.222788,140.8401725,0,"","仙台市太白区鈎取四丁目6地内"
"太白区","鈎取三丁目2号公園",38.2281243,140.8394211,0,"","仙台市太白区鈎取三丁目1地内"
"太白区","光塩幼稚園第二ｸﾞﾗｳﾝﾄﾞ東側",38.2275584,140.8418433,0,"","仙台市太白区鈎取二丁目9地内"
"太白区","鈎取四丁目東公園",38.2254134,140.8408875,0,"","仙台市太白区鈎取四丁目17地内"
"太白区","鈎取四丁目西公園",38.2249753,140.839843,0,"","仙台市太白区鈎取四丁目17地内"
"太白区","後田公園",38.2275584,140.8418433,0,"","仙台市太白区鈎取二丁目2地内"
"太白区","西多賀中学校ｸﾞﾗｳﾝﾄﾞ東側",38.2258688,140.8522727,0,"","仙台市太白区西多賀三丁目10-1"
"太白区","金剛沢小学校北側",38.2291087,140.8485837,1,"","仙台市太白区金剛沢一丁目1-1"
"太白区","横森2号公園",38.2306933,140.8445588,0,"","仙台市太白区金剛沢一丁目24地内"
"太白区","金剛沢一丁目公園",38.2287389,140.8439149,0,"","仙台市太白区金剛沢一丁目24地内"
"太白区","横森ひかり公園東側",38.2282397,140.8468274,0,"","仙台市太白区三神峯二丁目15地内"
"太白区","金剛沢ｺﾐｭﾆﾃｨ･ｾﾝﾀｰ前",38.2313838,140.8465159,1,"","仙台市太白区金剛沢一丁目7-1"
"太白区","金山公園北側",38.2279335,140.8573145,0,"","仙台市太白区西の平一丁目7地内"
"太白区","金剛沢一丁目5号公園",38.2300791,140.8470613,1,"","仙台市太白区金剛沢一丁目10地内"
"太白区","金剛沢羽黒台公園（法面）",38.2330373,140.8397282,1,"","仙台市太白区金剛沢三丁目18地内"
"太白区","八木山南一丁目東公園",38.2374632,140.8357719,0,"","仙台市太白区八木山南一丁目6地内"
"太白区","鈎取三丁目7号公園西側",38.2305954,140.8384512,0,"","仙台市太白区鈎取三丁目12地内"
"太白区","八木山南公園北西側",38.2359132,140.834872,0,"","仙台市太白区八木山南三丁目4地内"
"太白区","八木山南小学校正門脇",38.2334825,140.8316497,1,"","仙台市太白区八木山南五丁目3-2"
"太白区","八木山南四丁目緑地公園北側",38.2340921,140.8378841,0,"","仙台市太白区八木山南四丁目4地内"
"太白区","金剛沢公園東側",38.2317932,140.8406072,0,"","仙台市太白区金剛沢二丁目8地内"
"太白区","民地（個人宅地 南側植栽）",38.2215579,140.8351616,0,"","仙台市太白区鈎取本町一丁目12-60"
"太白区","ひより台東部町内会集会所",38.2289327,140.8257929,0,"","仙台市太白区ひより台23-12"
"太白区","上野山保育所南側",38.2257404,140.8286044,0,"","仙台市太白区上野山一丁目21-8"
"太白区","上野山保存緑地(月ケ丘ﾊﾞｽ停付近)",38.2270806,140.8320567,0,"","仙台市太白区上野山一丁目22地内"
"太白区","上野山公園（法面）",38.2259387,140.8235357,0,"","仙台市太白区上野山二丁目40地内"
"太白区","上野山児童館南側",38.2268716,140.8319208,0,"","仙台市太白区上野山一丁目11-1"
"太白区","鈎取本町二丁目南公園",38.2238232,140.8369962,0,"","仙台市太白区鈎取本町二丁目4地内"
"太白区","山田羽黒堂中公園",38.2187134,140.8226407,0,"","仙台市太白区山田本町24地内"
"太白区","仙台市鈎取球場北側",38.222659,140.8287468,0,"","仙台市太白区山田北前町9地内"
"太白区","山田中学校ｸﾞﾗｳﾝﾄﾞ南側",38.2204979,140.8288095,0,"","仙台市太白区山田北前町36-1"
"太白区","山田羽黒堂公園",38.2223967,140.8181818,0,"","仙台市太白区旗立二丁目1地内"
"太白区","山田上ノ台町1号公園",38.2165563,140.8308584,0,"","仙台市太白区山田上ノ台町21地内"
"太白区","太白消防署",38.2203441,140.8303897,0,"","仙台市太白区山田北前町15-1"
"太白区","縄文の森広場駐車場東側",38.2187836,140.8319645,0,"","仙台市太白区山田上ノ台町11地内"
"太白区","仙台南ﾆｭｰﾀｳﾝ市民運動広場東側(南ﾆｭｰﾀｳﾝ西ﾊﾞｽ停付近ﾌｪﾝｽ）",38.2247691,140.8066272,0,"","仙台市太白区人来田一丁目30地内"
"太白区","日本平公園",38.2212337,140.8119467,0,"","仙台市太白区日本平16地内"
"太白区","生出前公園東側",38.2256714,140.8048894,0,"","仙台市太白区人来田一丁目34地内"
"太白区","人来田1号緑地(人来田小学校北東側ﾌｪﾝｽ）",38.2247691,140.8066272,0,"","仙台市太白区人来田一丁目1地内"
"太白区","日本平緑地公園西側",38.2212724,140.8087117,0,"","仙台市太白区日本平49地内"
"太白区","人来田保育所東側",38.2234026,140.8095716,0,"","仙台市太白区人来田一丁目3-1"
"太白区","人来田山1号公園",38.2217884,140.8064229,0,"","仙台市太白区人来田二丁目13地内"
"太白区","太白公園南東側",38.2330985,140.8187524,0,"","仙台市太白区太白一丁目23地内"
"太白区","太白小学校正門脇",38.2313785,140.8173024,0,"","仙台市太白区太白一丁目5-1"
"太白区","太白団地市営住宅20-11棟前（法面）",38.2352494,140.8175284,0,"","仙台市太白区太白二丁目20-11"
"太白区","太白三丁目東公園",38.2305958,140.8152203,0,"","仙台市太白区太白三丁目4地内"
"太白区","市道法面(太白ｺﾐｭﾆﾃｨ･ｾﾝﾀｰ北側)",38.2303089,140.8148285,0,"","仙台市太白区太白三丁目7地内"
"太白区","太白団地市営住宅9-1棟前（法面）",38.2322408,140.8143854,0,"","仙台市太白区太白二丁目9-1"
"太白区","旗立西公園北側",38.2281038,140.8103417,0,"","仙台市太白区山田自由ケ丘36地内"
"太白区","茂庭台市民ｾﾝﾀｰ西側（植栽)",38.2356138,140.7820929,0,"","仙台市太白区茂庭台四丁目1-10"
"太白区","市道沿い緑地帯（茂庭台四丁目ﾊﾞｽ停付近市営住宅側）",38.2378331,140.7847053,0,"","仙台市太白区茂庭台四丁目26地内"
"太白区","茂庭台小学校北側",38.2374839999999,140.7839493,0,"","仙台市太白区茂庭台四丁目17-1"
"太白区","茂庭台一丁目南公園(茂庭台一丁目ﾊﾞｽ停付近)",38.2310423,140.7822429,0,"","仙台市太白区茂庭台一丁目11地内"
"太白区","茂庭台三丁目南公園東側",38.2349841,140.7870045,0,"","仙台市太白区茂庭台三丁目7地内"
"太白区","茂庭台三丁目北公園西側",38.2381687,140.787706,0,"","仙台市太白区茂庭台三丁目25地内"
"太白区","市道沿い緑地帯（茂庭台五丁目ﾊﾞｽ停付近市営住宅側）",38.2378331,140.7847053,0,"","仙台市太白区茂庭台四丁目25地内"
"太白区","茂庭台二丁目公園東側",38.2317166,140.7836972,0,"","仙台市太白区茂庭台二丁目14地内"
"太白区","歩道ﾌｪﾝｽ（国道286号線南側、茂庭荘入口ﾊﾞｽ停付近）",38.216475,140.8032153,0,"","仙台市太白区茂庭字人来田中24-1"
"太白区","民地（個人宅地 東側ﾌﾞﾛｯｸ塀)",38.2153518,140.8022696,0,"","仙台市太白区茂庭字人来田西92"
"太白区","生出市民ｾﾝﾀｰ西側",38.2213219,140.7901493,0,"","仙台市太白区茂庭二丁目8-1"
"太白区","市道敷（竜鳳前）",38.2213257,140.7860727,0,"","仙台市太白区茂庭字門野18地内"
"太白区","民地（茂庭ﾊﾞｽ停付近)",38.2192254,140.7872288,1,"","仙台市太白区茂庭字大沢46-3"
"太白区","市道敷(茂庭字本郷､嶺岸､西前境界付近)",38.2236867,140.7865727,0,"","仙台市太白区茂庭字本郷地内"
"太白区","人来田西公園",38.2139785,140.7994883,0,"","仙台市太白区茂庭字人来田西65-44"
"太白区","茂庭中ノ瀬公園東側",38.2196934,140.792419,0,"","仙台市太白区茂庭字中ノ瀬中1地内"
"太白区","歩道ﾌｪﾝｽ（中ノ瀬東交差点付近）",38.2224997,140.795127,0,"","仙台市太白区茂庭一丁目9地内"
"太白区","県道法面(飲食店龍宝向)",38.2143511,140.762323,0,"","仙台市太白区茂庭字川添西地内"
"太白区","市道敷（赤石交差点付近）",38.2160261,140.7550055,0,"","仙台市太白区茂庭字合ノ沢南47付近"
"太白区","民地（個人宅地　ビニールハウス前植栽）",38.212587,140.7532978,0,"","仙台市太白区坪沼字大苗23"
"太白区","国道286号線赤石ﾊﾟｰｷﾝｸﾞｴﾘｱ（植栽）",38.2122419,140.74836,0,"","仙台市太白区坪沼字山田69地内"
"太白区","民地（秋保ｳﾞｨﾚｯｼﾞ前、中谷地ﾊﾞｽ停付近）",38.217884,140.7459889,0,"","仙台市太白区茂庭字中谷地南42-3"
"太白区","善敬寺（北東側市道交差点付近法面）",38.1929212999999,140.7832327,0,"","仙台市太白区坪沼字寺山1"
"太白区","畑法面(乗合ﾀｸｼｰ営団入口乗場付近)",38.1981846,140.774871,1,"","仙台市太白区坪沼字北ノ上66"
"太白区","ろりぽっぷ小学校南側（ﾌｪﾝｽ)",38.191971,140.7713518,0,"","仙台市太白区坪沼字長田中9-1"
"太白区","歩道ﾌｪﾝｽ（県道沿いｺﾝﾋﾞﾆ店向）",38.190464,140.7771957,0,"","仙台市太白区坪沼字長田西26地内"
"太白区","歩道ﾌｪﾝｽ(町内会集会所、乗合ﾀｸｼｰ舘前中乗場付近)",38.1925467,140.7650541,1,"","仙台市太白区坪沼字館前中41地内"
"太白区","除緑地敷地",38.2208558,140.7359438,0,"","仙台市太白区秋保町湯元字除4-92"
"太白区","湯元小学校校門向緑地",38.2291994,140.7225785,0,"","仙台市太白区秋保町湯向30-4"
"太白区","民地（個人宅地 東側)",38.2332195,140.710853,0,"","仙台市太白区秋保町湯元字太夫83-2"
"太白区","民地（個人宅地 ﾌｪﾝｽ）",38.2236046,140.7324161,0,"","仙台市太白区秋保町湯元字枇杷原11-32"
"太白区","湯元保育所北側",38.2293689,140.7231063,0,"","仙台市太白区秋保町湯元字湯向24-11"
"太白区","ﾎﾃﾙ佐勘正面",38.2277906,140.7198493,0,"","仙台市太白区秋保町湯元字薬師28"
"太白区","ﾎﾃﾙ佐勘西側市道植樹帯",38.2283148,140.7191588,0,"","仙台市太白区秋保町湯元字薬師32-8"
"太白区","民地（個人宅地 ﾌﾞﾛｯｸ)",38.2244236,140.7273612,0,"","仙台市太白区秋保町湯元字寺田原46-17"
"太白区","県道敷（湯元送水ポンプ場向い側）",38.2232194,140.7208647,0,"","仙台市太白区秋保町湯元字釜土南25-4"
"太白区","民地（秋保神社向い側　個人宅地）",38.2640401,140.6606735,0,"","仙台市太白区秋保町長袋字諏訪北14-1"
"太白区","菅原医院",38.2599832,140.6706221,0,"","仙台市太白区秋保町長袋字大原31"
"太白区","市道敷（個人宅地　入口付近）",38.2400718,140.6966075,0,"","仙台市太白区秋保町境野字羽山12-1地先"
"太白区","国道457号線道路敷（個人宅地 脇）",38.2536777,140.6753351,0,"","仙台市太白区秋保町長袋字下河原4"
"太白区","民地（個人宅地 東側）",38.2560848,140.6792435,0,"","仙台市太白区秋保町長袋字町12"
"太白区","民地（自動販売機 南側)",38.2558515,140.6793529,0,"","仙台市太白区秋保町長袋字町32-1"
"太白区","秋保総合支所南側（植栽）",38.2585346,140.6712816,0,"","仙台市太白区秋保町長袋字大原45-1"
"太白区","県道仙台山寺線道路敷（境野濱井場待避所）",38.2383526,140.7049682,0,"","仙台市太白区秋保町境野字濱井場51-2"
"太白区","民地（個人宅地 ﾌﾞﾛｯｸ）",38.2473475,140.6899636,0,"","仙台市太白区秋保町境野字中原96"
"太白区","民地（個人宅地 ﾌﾞﾛｯｸ）",38.2674612,140.6515344,0,"","仙台市太白区秋保町長袋字宿12"
"太白区","民地（個人宅地前）",38.2685452,140.6487993,0,"","仙台市太白区秋保町馬場字町北5"
"太白区","秋保大滝駐車場向更地",38.2728069,140.6024274,0,"","仙台市太白区秋保町馬場字鷹ノ巣7-1"
"太白区","民地（個人宅地前）",38.2677724,140.6466362,0,"","仙台市太白区秋保町馬場字町南18-1"
"太白区","県道敷（個人宅地 入口付近）",38.271128,140.631579,0,"","仙台市太白区秋保町馬場字上の原23-6"
"太白区","市道敷(個人宅地前)",38.2777175,140.6169294,0,"","仙台市太白区秋保町馬場字中84-3"
"太白区","県道敷（個人宅地前）",38.2720588,140.6185301,0,"","仙台市太白区秋保町馬場字新田町75-6先"
"太白区","滝原交流ｾﾝﾀｰ東側",38.2723838,140.6133371,0,"","仙台市太白区秋保町馬場字新田町45-2"
"太白区","民地（個人宅地 北側）",38.269324,140.575637,0,"","仙台市太白区秋保町馬場字野尻町南23"
"太白区","県道仙台山寺線道路敷（野尻ﾗｲﾌﾞｶﾒﾗ西側）",38.2673783,140.5780614,0,"","仙台市太白区秋保町馬場字野尻町南89"
"太白区","富沢小学校東側",38.2096641,140.8629398,0,"","仙台市太白区富沢西四丁目12-1"
"太白区","市水道局正面（植栽）",38.2091497,140.8729294,0,"","仙台市太白区南大野田29-1"
"太白区","南大野田公園北西側",38.2106624,140.8723181,0,"","仙台市太白区南大野田11地内"
"太白区","富沢南一丁目南公園北側",38.2125987,140.8668537,0,"","仙台市太白区富沢南一丁目22地内"
"太白区","富沢南一丁目北公園西側",38.2141758,140.8658435,0,"","仙台市太白区富沢南一丁目10地内"
"太白区","富沢南二丁目公園東側",38.2109636,140.8669709,0,"","仙台市太白区富沢南二丁目15地内"
"太白区","市道敷(杉の下橋付近ｶﾞｰﾄﾞﾌｪﾝｽ)",38.2143506,140.8612338,0,"","仙台市太白区富沢西一丁目21地内"
"太白区","地下鉄高架下ﾌｪﾝｽ（ｸｲｰﾝﾊﾟﾙ斎藤東側）",38.2109101,140.866994,0,"","仙台市太白区富沢南二丁目1地内"
"泉区","旧 仙台徳洲会病院（跡地）南側Y字路交差点",38.328495,140.8702732,0,"","仙台市泉区七北田字駕篭沢１５地先"
"泉区","県営七北田住宅西側",38.3232805,140.8784633,0,"","仙台市泉区泉中央一丁目２１－１"
"泉区","泉中央５号公園北側",38.3218314,140.8747996,0,"","仙台市泉区泉中央一丁目４６地内"
"泉区","地下鉄泉中央駅前タクシープール南側",38.322908,140.8806849,1,"","仙台市泉区泉中央一丁目７地内"
"泉区","泉区役所東側",38.3263979,140.8806402,0,"","仙台市泉区泉中央二丁目１－１"
"泉区","泉中央公園東側",38.3271706,140.8801134,1,"","仙台市泉区泉中央二丁目１８－３"
"泉区","七北田七ツ沼調整池西側",38.3278171,140.8801611,0,"","仙台市泉区泉中央二丁目２９地内"
"泉区","泉中央四丁目公園西側",38.3225586999999,140.8868678,0,"","仙台市泉区泉中央四丁目２２－１"
"泉区","高玉南公園北側",38.3180385,140.8922851,0,"","仙台市泉区高玉町９－１"
"泉区","仙台白百合女子大学入口バス停東側",38.3182842,140.9032005,0,"","仙台市泉区市名坂字萩清水地内"
"泉区","運転免許センター前バス停西側",38.3136184,140.9088069,0,"","仙台市泉区市名坂字鹿島地内"
"泉区","泉区中央市民センター西側",38.3242531,140.8801946,1,"","仙台市泉区市名坂字東裏５３－１"
"泉区","七北田中学校北側",38.3241974,140.8929722,0,"","仙台市泉区七北田字東裏１００"
"泉区","七北田愛宕公園南側入口",38.328495,140.8702732,0,"","仙台市泉区七北田字白水沢１２６"
"泉区","市名坂野蔵公園南側",38.3149053,140.8989699,0,"","仙台市泉区市名坂字野蔵１０１－３７"
"泉区","天神沢市営住宅３号棟南側",38.3241194,140.8983735,0,"","仙台市泉区天神沢一丁目１７地内"
"泉区","東北学院大学泉キャンパス北側法面",38.3274994999999,140.90257,0,"","仙台市泉区天神沢二丁目（主要地方道仙台三本木線沿い）"
"泉区","古内集会所向い側",38.321483,140.8431442,0,"","仙台市泉区古内字古内４２地先"
"泉区","なのはなサポートセンター敷地付近",38.3188598,140.8543109,0,"","仙台市泉区上谷刈字長命３地先（上谷刈字羽黒山8-2向い付近)"
"泉区","仙台商業高等学校北側",38.3239505,140.869665,0,"","仙台市泉区野村字新田７（野村字一本杉3-21向い）"
"泉区","野村小学校北側",38.3250407,140.8610033,0,"","仙台市泉区野村字東原前７"
"泉区","泉総合運動場東側",38.3295926,140.8639705,1,"","仙台市泉区野村字新桂島前６０"
"泉区","シェルコムせんだい駐車場入口付近",38.3307107,140.859893,0,"","仙台市泉区野村字筒岫８９－２"
"泉区","ローソン（仙台野村店）斜め向い",38.3235347,140.8533954,0,"","仙台市泉区野村字上野前２５地先"
"泉区","県道大衡仙台線エネオス・ガソリンスタンド向い側",38.3244192,140.8436381,0,"","仙台市泉区古内字古内18-1地内（古内字古内20-1向い）"
"泉区","将監十三丁目公園東側",38.3395168,140.8693426,0,"","仙台市泉区将監十三丁目１地内（集会所脇）"
"泉区","将監九丁目１２Ｙ字路交差点緑地",38.3320464,140.871996,1,"","仙台市泉区将監九丁目１２地内"
"泉区","将監中央小学校東側",38.336716,140.873167,0,"","仙台市泉区将監十丁目３－１"
"泉区","将監公園南側",38.3343611,140.8720772,0,"","仙台市泉区将監十丁目９地内"
"泉区","宮城県泉高等学校前南側横断地下道付近",38.3357676,140.8712467,0,"","仙台市泉区将監十丁目１－２０６"
"泉区","将監西小学校西側",38.3348452,140.8686671,0,"","仙台市泉区将監十丁目２９－１"
"泉区","県営将監第五住宅４８号棟北側",38.3392252,140.8731412,1,"","仙台市泉区将監十一丁目５－４８"
"泉区","県営将監第二住宅２０号棟北東擁壁下",38.3389224,140.8807144,0,"","仙台市泉区将監五丁目１－２０"
"泉区","ヨークベニマル泉将監殿店南側緑地",38.3417085,140.8782806,0,"","仙台市泉区将監殿三丁目２０地内"
"泉区","県営将監第三住宅３２号棟南側",38.3374653,140.877712,1,"","仙台市泉区将監六丁目４-１７４（六丁目4-32付近）"
"泉区","県営将監第一住宅６号棟北側",38.3376112,140.8798239,0,"","仙台市泉区将監六丁目３－６"
"泉区","将北４号公園北東側",38.3412423,140.8720905,0,"","仙台市泉区将監殿四丁目２３"
"泉区","将北いこいの公園東側",38.3445295,140.8737116,0,"","仙台市泉区将監殿五丁目１７"
"泉区","将監市民センター向側（将監風致公園内）",38.332285,140.8767573,0,"","仙台市泉区将監八丁目２８地内"
"泉区","将監八丁目将監運動公園南西角法面",38.3331419,140.8767979,1,"","仙台市泉区将監八丁目２８地内（九丁目5-4 向い付近）"
"泉区","将監一丁目西公園東側",38.3286059,140.8858864,0,"","仙台市泉区将監一丁目11地内（一丁目10-2 向い付近）"
"泉区","将監二丁目東公園西側",38.335259,140.8786638,0,"","仙台市泉区将監二丁目１１地内（二丁目11-4付近）"
"泉区","将監二丁目緑地北側",38.3301562,140.8817221,0,"","仙台市泉区将監二丁目地内（二丁目22-2向い付近）"
"泉区","将監小学校東側",38.3330195,140.8817747,0,"","仙台市泉区将監三丁目１０－１"
"泉区","将監四丁目公園南側",38.3349384,140.8828458,0,"","仙台市泉区将監四丁目１９地内"
"泉区","将監第一公社住宅１号棟北側",38.3365436,140.8819854,1,"","仙台市泉区将監四丁目２８－１"
"泉区","泉消防署北側",38.336335,140.8864227,0,"","仙台市泉区将監四丁目４－１"
"泉区","向陽台ふれあい公園北側",38.3370192,140.892256,0,"","仙台市泉区向陽台一丁目２１地内"
"泉区","向陽台中央公園南側",38.3388852,140.8993071,0,"","仙台市泉区向陽台三丁目２６地内"
"泉区","向陽台小学校東側",38.3344368,140.8984163,0,"","仙台市泉区向陽台五丁目６－１２"
"泉区","向陽台コミュニティ・センター南側",38.3366845,140.9016151,0,"","仙台市泉区向陽台五丁目２１－４１"
"泉区","山の寺一丁目北バス停付近",38.3296578,140.897871,0,"","仙台市泉区山の寺一丁目３７地内(一丁目27-19向い)"
"泉区","向陽台二丁目公園北側",38.3411515,140.8945543,0,"","仙台市泉区向陽台二丁目２７地内(二丁目27-7隣り)"
"泉区","山の寺一丁目公園前バス停南側",38.3304259,140.8988794,0,"","仙台市泉区山の寺一丁目３７地内(一丁目11-28向い付近)"
"泉区","山の寺二丁目西側法面 階段向い側(国道４号線上り車線 山の寺入口坂道)",38.3303002,140.8929777,0,"","仙台市泉区山の寺二丁目５地内（６街区西側）"
"泉区","永和台団地入口バス停付近公園北側",38.3317489,140.9031954,0,"","仙台市泉区永和台２地内(永和台3-5付近)"
"泉区","永和台集会所北側",38.3282387,140.9053063,0,"","仙台市泉区永和台２８－２１"
"泉区","松陵公園東側",38.3273764,140.9123576,0,"","仙台市泉区松陵二丁目４地内"
"泉区","ヤマザワ松陵店前ガス局整圧器室南側",38.3285072,140.9127187,0,"","仙台市泉区松陵二丁目５－１地内"
"泉区","泉松陵小学校東側",38.3318486,140.9071314,0,"","仙台市泉区松陵三丁目３５"
"泉区","松陵三丁目北公園南側",38.3326117,140.9099444,0,"","仙台市泉区松陵三丁目５０－２"
"泉区","歩坂町公園西側",38.3226284,140.9082282,0,"","仙台市泉区歩坂町１４地内(14-5隣り)"
"泉区","百合ケ丘中央公園西側",38.3234383,140.9082593,0,"","仙台市泉区歩坂町５９地内(67-25向い付近)"
"泉区","松陵一丁目南公園西側",38.3187925,140.9120094,0,"","仙台市泉区松陵一丁目３－２"
"泉区","松陵四丁目公園西側",38.3305352,140.9141812,0,"","仙台市泉区松陵四丁目１－１"
"泉区","宮城県立松陵支援学校西側",38.3327033,140.9171349,0,"","仙台市泉区松陵四丁目２８－２"
"泉区","松陵四丁目北公園南側",38.3332856,140.916089,0,"","仙台市泉区松陵四丁目４０－２"
"泉区","松陵市民センター南側",38.3281374,140.9142308,0,"","仙台市泉区松陵五丁目２０－２"
"泉区","泉消防署松陵出張所西側",38.3281237,140.9135062,0,"","仙台市泉区松陵五丁目２０－３"
"泉区","松陵中学校西側",38.3291633,140.9167843,0,"","仙台市泉区松陵五丁目３２"
"泉区","鶴が丘一丁目公園西側",38.3188238,140.9252705,0,"","仙台市泉区鶴が丘一丁目５－４３外（一丁目28-25付近）"
"泉区","鶴が丘一丁目東公園西側",38.3228828,140.9249651,0,"","仙台市泉区鶴が丘一丁目２３－１６"
"泉区","鶴が丘コミュニティ・センター東側",38.3154536,140.9233393,0,"","仙台市泉区鶴が丘一丁目３７－１"
"泉区","鶴が丘小学校正門前",38.3185237,140.9263026,0,"","仙台市泉区鶴が丘一丁目３５０"
"泉区","松森小学校北側",38.3199507,140.9192577,0,"","仙台市泉区鶴が丘二丁目２"
"泉区","鶴が丘二丁目集会所西側",38.3192067,140.9164186,0,"","仙台市泉区鶴が丘二丁目９－１"
"泉区","鶴が丘児童センター付近緑地",38.3226708,140.9193802,0,"","仙台市泉区鶴が丘三丁目１７地内(三丁目17-20隣り)"
"泉区","鶴が丘四丁目東公園東側",38.3270753,140.9217576,0,"","仙台市泉区鶴が丘四丁目１０－８"
"泉区","清水寺駐車場向い側",38.313978,140.9113492,0,"","仙台市泉区市名坂字高島１－３地先"
"泉区","鶴が丘二丁目南公園西側",38.317463,140.914829,0,"","仙台市泉区鶴が丘二丁目１３－２"
"泉区","泉環境事業所西側",38.3054206,140.9210314,0,"","仙台市泉区松森字阿比古３３"
"泉区","松森工場西側",38.3078122,140.9198685,0,"","仙台市泉区松森字城前１３５"
"泉区","松森市民センター北側",38.3145526,140.9171797,0,"","仙台市泉区松森字城前９－２"
"泉区","松木沢北公園東側",38.3139866,140.9248886,0,"","仙台市泉区松森字松木沢９－４"
"泉区","セブンイレブン仙台鶴が丘店前",38.3140586,140.9224611,0,"","仙台市泉区松森字鼠堂１地先"
"泉区","南光台東一丁目南公園西側",38.2981633,140.9070194,0,"","仙台市泉区南光台東一丁目４４地内"
"泉区","南光台東児童センター南側",38.2971633,140.9081647,0,"","仙台市泉区南光台東一丁目４９－２２"
"泉区","南光台東一丁目緑地東側",38.2990432,140.9074668,0,"","仙台市泉区南光台東一丁目３３地内(二丁目18-11向い付近)"
"泉区","南光台東二丁目南公園西側",38.2972073,140.9105657,0,"","仙台市泉区南光台東二丁目７地内"
"泉区","南光台東二丁目東公園南側",38.299109,140.9162778,0,"","仙台市泉区南光台東二丁目３１"
"泉区","南光台東小学校北側",38.2987285,140.9110002,0,"","仙台市泉区南光台東二丁目１６－１"
"泉区","南光台東中学校北側",38.3025277,140.9157759,0,"","仙台市泉区南光台東三丁目１－１"
"泉区","南光台南一丁目公園南側",38.2966074,140.9014338,0,"","仙台市泉区南光台南一丁目５地内"
"泉区","南光台南二丁目北公園東側",38.296589,140.903735,0,"","仙台市泉区南光台南二丁目５地内"
"泉区","前坂集会所西側",38.2959452,140.9020056,0,"","仙台市泉区南光台南二丁目８－４５"
"泉区","前坂南集会所南側",38.2936802,140.9054981,0,"","仙台市泉区南光台南三丁目３５地内"
"泉区","南光台南二丁目公園北側",38.2933749,140.8990198,0,"","仙台市泉区南光台南二丁目２９"
"泉区","南光台南三丁目公園北側",38.2955172,140.9068886,0,"","仙台市泉区南光台南三丁目１１地内"
"泉区","南光台南三丁目南公園北側",38.2940739,140.9039915,0,"","仙台市泉区南光台南三丁目２７地内"
"泉区","小松島新堤橋バス停西側 緑地",38.2907287,140.8951307,0,"","仙台市泉区南光台一丁目７１地内(一丁目3-6付近）"
"泉区","南光台一丁目公園北側",38.2906447,140.8943578,0,"","仙台市泉区南光台一丁目５８地内"
"泉区","南光台入口バス停付近（水道局 旧南光台分水所南側）",38.29384,140.8943026,0,"","仙台市泉区南光台二丁目１地内（二丁目1-5付近)"
"泉区","南光台三丁目交差点西側歩道緑地",38.2957409,140.8933117,0,"","仙台市泉区南光台三丁目１５地内(四丁目1-28付近)"
"泉区","南光台一丁目・二丁目隣接変則交差点付近法面",38.2907287,140.8951307,0,"","仙台市泉区南光台一丁目３２地内"
"泉区","南光台東区流量計測所南側",38.29384,140.8943026,0,"","仙台市泉区南光台二丁目２５地内"
"泉区","南光台三丁目公園東側",38.29299,140.8904728,0,"","仙台市泉区南光台三丁目１地内"
"泉区","社会福祉法人つどいの家（南光台三丁目公園前バス停付近）",38.29299,140.8904728,0,"","仙台市泉区南光台三丁目１－２４"
"泉区","松森前ヶ沢公園東側",38.3070558,140.8998193,0,"","仙台市泉区松森字明神４１地内"
"泉区","南光台六丁目西公園西側",38.3021994,140.8961545,0,"","仙台市泉区南光台六丁目７地内"
"泉区","南光台やすらぎ公園南側",38.3039721,140.9007505,0,"","仙台市泉区南光台七丁目３４－１"
"泉区","南光台ふれあい広場南側",38.3018903,140.9016175,0,"","仙台市泉区南光台七丁目１地内"
"泉区","南光台小学校西側",38.3009138,140.9002688,0,"","仙台市泉区南光台七丁目１０－１"
"泉区","新田八沢公園南側",38.30363,140.908021,0,"","仙台市泉区松森字新田２０９地内"
"泉区","南光台七丁目公園北側",38.3006067,140.9050991,0,"","仙台市泉区南光台七丁目３２地内"
"泉区","松森明神北公園入口北側付近",38.3042271,140.9031786,0,"","仙台市泉区松森字明神４３地内"
"泉区","旭丘堤橋西側交差点南西花壇内",38.3042168,140.8944508,0,"","仙台市泉区南光台五丁目２"
"泉区","旭丘堤橋北西側たもと",38.3033455,140.8893473,0,"","仙台市泉区旭丘堤二丁目１２－３０４"
"泉区","地下鉄黒松駅南側",38.3033455,140.8893473,0,"","仙台市泉区旭丘堤二丁目２２地内"
"泉区","真美沢公園入口付近",38.3052908,140.8884304,1,"","仙台市泉区旭丘堤二丁目２９"
"泉区","地下鉄黒松駅入口前",38.3033455,140.8893473,0,"","仙台市泉区旭丘堤二丁目２１地内"
"泉区","旭丘堤２丁目４番街区内緑地帯",38.3033455,140.8893473,0,"","仙台市泉区旭丘堤二丁目４地内"
"泉区","旭丘橋北側（交差点東方向付近）",38.3042168,140.8944508,0,"","仙台市泉区南光台五丁目６地内"
"泉区","愛隣町西公園南側",38.3112014,140.884102,1,"","仙台市泉区八乙女中央五丁目２６－３０９"
"泉区","黒松一丁目公園南側",38.3040261,140.8823448,1,"","仙台市泉区黒松一丁目９地内"
"泉区","真実沢西公園東側",38.3102612,140.8865356,0,"","仙台市泉区八乙女中央五丁目１７地内"
"泉区","黒松二丁目公園東側",38.3081045,140.8819838,1,"","仙台市泉区黒松二丁目２０地内"
"泉区","黒松第二公社住宅１８号棟南側",38.3050667,140.8853278,1,"","仙台市泉区黒松三丁目１－１８"
"泉区","黒松公社住宅７号棟北側",38.3081928,140.8850734,0,"","仙台市泉区黒松三丁目２－８"
"泉区","地方主要道仙台泉線（下り）向原バス停付近",38.328495,140.8702732,0,"","仙台市泉区七北田字杉ノ田地内"
"泉区","地下鉄八乙女駅前杉ノ田交差点",38.314117,140.884119,1,"","仙台市泉区八乙女中央一丁目６地内"
"泉区","そらのこ保育園斜め向い側",38.3098765,140.8890956,0,"","仙台市泉区東黒松１９－３３地内"
"泉区","八乙女小学校西側",38.307508,140.8938023,0,"","仙台市泉区松森字不動１４８"
"泉区","八乙女南公園北側入口付近",38.3070311,140.8912978,0,"","仙台市泉区東黒松１１"
"泉区","八乙女四丁目公園西側入口付近",38.3107761,140.8986668,0,"","仙台市泉区八乙女四丁目９地内"
"泉区","八乙女二丁目公園西側",38.3095326,140.893012,0,"","仙台市泉区八乙女二丁目４－１"
"泉区","八乙女中央公園北側",38.3083691,140.8961564,0,"","仙台市泉区八乙女三丁目１３地内"
"泉区","みやぎ生活協同組合南側",38.3110578,140.8952934,0,"","仙台市泉区八乙女四丁目２－２"
"泉区","八乙女一丁目公園南側",38.3112702,140.8916404,0,"","仙台市泉区八乙女一丁目５－９"
"泉区","みずほ台公園南側",38.3125098999999,140.8795944,0,"","仙台市泉区みずほ台５９"
"泉区","みずほ台南公園北側",38.3108087,140.8738954,0,"","仙台市泉区みずほ台７４"
"泉区","虹の丘一丁目東公園西側",38.3071135,140.8783712,0,"","仙台市泉区虹の丘一丁目３－３０"
"泉区","虹の丘一丁目公園東側",38.3069297,140.8747124,0,"","仙台市泉区虹の丘一丁目９－３"
"泉区","虹の丘小学校西側",38.3079143,140.8731161,0,"","仙台市泉区虹の丘一丁目１０－１"
"泉区","三島学園東北生活文化大学・高等学校入り口付近",38.3062641,140.873532,0,"","仙台市泉区虹の丘一丁目１８地内"
"泉区","虹の丘公園南側",38.3072376,140.8692873,0,"","仙台市泉区虹の丘二丁目１０"
"泉区","県営虹の丘住宅集会所北側",38.3031253,140.8659295,0,"","仙台市泉区虹の丘四丁目１０－６"
"泉区","上谷刈新中谷地公園東側",38.3151865,140.8708409,0,"","仙台市泉区上谷刈四丁目９（四丁目9-36隣り付近）"
"泉区","狼河原公園西側",38.3172305,140.8744887,0,"","仙台市泉区上谷刈二丁目１地内（二丁目1-20付近）"
"泉区","仙台市北部警察官待機宿舎入口右側",38.3162905,140.8784427,0,"","仙台市泉区上谷刈一丁目３－３３"
"泉区","仮屋敷公園北側",38.3181951,140.8688948,0,"","仙台市泉区上谷刈三丁目８地内（三丁目7-14付近）"
"泉区","丸山集会所(シーアイタウン八乙女町内会集会所）前",38.3125378,140.8697743,0,"","仙台市泉区上谷刈五丁目２３－８"
"泉区","仙台市下水道北管理センター入口付近",38.3189406,140.8719564,0,"","仙台市泉区上谷刈字沼地内（上谷刈字沼下20-5付近）"
"泉区","長左エ門公園南側",38.3156027,140.8710419,0,"","仙台市泉区上谷刈四丁目１７地内（四丁目16-1付近）"
"泉区","加茂一丁目公園北側",38.312476,140.8631419,0,"","仙台市泉区加茂一丁目２４－１"
"泉区","加茂一丁目ガソリンスタンド向い側",38.3145779,140.8655733,0,"","仙台市泉区加茂一丁目８－１地先"
"泉区","県営加茂住宅７号棟北側",38.3142299999999,140.8596007,0,"","仙台市泉区加茂二丁目２３－７"
"泉区","加茂三丁目公園東側",38.3163497,140.8523153,0,"","仙台市泉区加茂三丁目４－３"
"泉区","加茂入口バス停法面",38.312476,140.8631419,0,"","仙台市泉区加茂一丁目３地内（一丁目4-3向い付近）"
"泉区","加茂小学校南側",38.3126304,140.8519403,0,"","仙台市泉区加茂四丁目３"
"泉区","加茂五丁目公園東側",38.3146349,140.8480905,0,"","仙台市泉区加茂五丁目５－４"
"泉区","長命ケ丘二丁目公園北側",38.3133469,140.8414368,0,"","仙台市泉区長命ケ丘二丁目１－２付近"
"泉区","長命ケ丘中学校北側",38.3125558,140.8400528,0,"","仙台市泉区長命ケ丘二丁目１１－１"
"泉区","長命ケ丘四丁目西公園南側",38.3105589,140.8360506,0,"","仙台市泉区長命ケ丘四丁目２１－１３"
"泉区","長命ケ丘保育所北側",38.316523,140.8374423,0,"","仙台市泉区長命ケ丘五丁目２－１"
"泉区","長命ケ丘公園野球場東側",38.3135137,140.834429,0,"","仙台市泉区長命ケ丘五丁目14地内（五丁目11-3向い付近）"
"泉区","長命ケ丘小学校北側",38.3141927,140.8331888,0,"","仙台市泉区長命ケ丘五丁目１４－１"
"泉区","長命ケ丘児童センター東側",38.3136539,140.8311594,0,"","仙台市泉区長命ケ丘六丁目１０－１２"
"泉区","長命ケ丘東公園南側",38.3134705,140.8436259,0,"","仙台市泉区長命ケ丘東8-2（長命ケ丘東5-2向い付近）"
"泉区","南中山一丁目南公園西側",38.3029982,140.830203,0,"","仙台市泉区南中山一丁目２８－１"
"泉区","南中山二丁目公園西側",38.30891,140.828858,0,"","仙台市泉区南中山二丁目８－３"
"泉区","ヨークベニマル南中山店駐車場出入り口向い側緑地",38.3098046,140.8216387,0,"","仙台市泉区南中山六丁目１８地内"
"泉区","南中山中学校西側",38.3074375,140.8275974,0,"","仙台市泉区南中山二丁目２６－１"
"泉区","南中山三丁目公園西側",38.3122172,140.8269286,0,"","仙台市泉区南中山三丁目１０－２"
"泉区","南中山公園南側",38.3145271,140.8239306,0,"","仙台市泉区南中山三丁目40地内（三丁目26-2向い付近）"
"泉区","南中山児童センター東側",38.3128034,140.8207898,0,"","仙台市泉区南中山四丁目１８－１"
"泉区","南中山五丁目公園 東側法面",38.3124786,140.8134591,0,"","仙台市泉区南中山五丁目４地内(4-22付近)"
"泉区","北中山一丁目ポンプ場東側",38.3172598,140.8247176,0,"","仙台市泉区北中山一丁目１２－２５"
"泉区","北中山コミュニティ・センター西側",38.3189826,140.8202493,0,"","仙台市泉区北中山一丁目１８－１１"
"泉区","西中山バス停付近バス方向変換所前",38.3063870999999,140.8058463,0,"","仙台市泉区西中山二丁目１５"
"泉区","北中山二丁目公園南側",38.3184726,140.8150468,0,"","仙台市泉区北中山二丁目１６－２"
"泉区","北中山小学校西側",38.3159689,140.81425,0,"","仙台市泉区北中山二丁目２７－５"
"泉区","北中山三丁目公園西側",38.3146517,140.8130249,0,"","仙台市泉区北中山三丁目7（三丁目6-14向い付近）"
"泉区","北中山四丁目公園東側",38.3129368,140.8092564,0,"","仙台市泉区北中山四丁目２５－６"
"泉区","北中山四丁目北公園北側",38.3146648,140.8081536,0,"","仙台市泉区北中山四丁目２０－１５"
"泉区","実沢大橋北側野菜ハウス付近歩道",38.32436,140.8243244,0,"","仙台市泉区実沢字宮東 地内（実沢字蒜屋敷25より南方面歩道）"
"泉区","旧実沢小学校南側",38.3286169,140.8209115,0,"","仙台市泉区実沢字一本橋２０"
"泉区","林泉寺入口付近市道沿い北側",38.3236912,140.8168499,0,"","仙台市泉区実沢字上３０－２"
"泉区","株式会社フコク仙台センター資材置場北側市道待避所付近",38.3227774481338,140.812101254669,0,"","仙台市泉区実沢字二ノ関西地内（二ノ関屋敷32-5付近）"
"泉区","八沢川バス停付近",38.3281623,140.8350421,0,"","仙台市泉区実沢字立田地内（実沢字八沢橋本11-1 付近）"
"泉区","窪バス停前西側",38.3271168,140.8052264,0,"","仙台市泉区小角字窪上東 地先（泉区小角字館前4付近）"
"泉区","泉自動車学校向い側歩道",38.3291429,140.81142,0,"","仙台市泉区小角字下河原地内"
"泉区","館一丁目公園東側",38.3108678,140.795635,0,"","仙台市泉区館一丁目地内（館一丁目8-10付近)"
"泉区","泉ビレジ一丁目バス停付近（緑道）",38.3108678,140.795635,0,"","仙台市泉区館一丁目10地内（館一丁目10-5付近）"
"泉区","館二丁目公園内館二丁目集会所南側",38.3145076,140.7956611,0,"","仙台市泉区館二丁目地内（館二丁目16-1付近）"
"泉区","館三丁目西公園東側",38.3177977,140.7945721,0,"","仙台市泉区館三丁目地内（館三丁目2-8付近）"
"泉区","泉ビレジ五丁目バス停付近（緑道）",38.3198148,140.8006214,0,"","仙台市泉区館五丁目18地内（館五丁目18-3付近）"
"泉区","館中学校北側",38.3168415,140.7984105,0,"","仙台市泉区館六丁目１７－１"
"泉区","館小学校西側",38.3127312,140.7997375,0,"","仙台市泉区館七丁目１－１７"
"泉区","館ゆりのき緑道",38.3236818,140.7969548,0,"","仙台市泉区館四丁目28地内（館四丁目28-1付近）"
"泉区","住吉台西一丁目公園北側",38.3270829,140.7824061,0,"","仙台市泉区住吉台西一丁目７－７"
"泉区","住吉台西二丁目公園北側",38.3301733,140.7775035,0,"","仙台市泉区住吉台西二丁目７－５"
"泉区","住吉台小学校東側",38.3296387,140.7826184,0,"","仙台市泉区住吉台西四丁目１－１"
"泉区","住吉台東五丁目公園西側",38.3291617,140.7927644,0,"","仙台市泉区住吉台東五丁目地内（住吉台東五丁目13-9 付近）"
"泉区","住吉台西四丁目東公園東側",38.3324573,140.7839418,0,"","仙台市泉区住吉台西四丁目地内（住吉台西四丁目25-3付近）"
"泉区","住吉台東一丁目公園北側",38.3267436,140.7850949,0,"","仙台市泉区住吉台東一丁目3-9（東二丁目8-20向い付近）"
"泉区","住吉台東一丁目東公園南側",38.3269032,140.7874234,0,"","仙台市泉区住吉台東一丁目11地内（住吉台東一丁目10-8付近）"
"泉区","住吉台東四丁目公園北側",38.3318808,140.7898177,0,"","仙台市泉区住吉台東四丁目６－８"
"泉区","住吉台南側入口ガソリンスタンド向い側",38.3253501,140.7919264,0,"","仙台市泉区西田中字萱場中 地内（西田中字並木南1-9向い）"
"泉区","ＪＡ仙台旧根白石支店跡地（高長商店 南隣）",38.3440891,140.7967298,0,"","仙台市泉区根白石字堂ノ沢 地内（根白石字町西上24 南隣）"
"泉区","早坂自動車商会西側 国道457号線 Ｙ字路",38.3333417,140.8016516,0,"","仙台市泉区根白石字判在家後 15 地先(判在家後28-4より北西方向付近)"
"泉区","根白石市民センター西側",38.3421903,140.7959915,0,"","仙台市泉区根白石字杉下前２４"
"泉区","年川水管橋下 西側たもと",38.337293,140.8016998,0,"","仙台市泉区根白石字判在家 地内(根白石字新坂上8 斜め向い付近)"
"泉区","ＪＡ仙台根白石支店駐車場西側",38.340142,140.8015404,0,"","仙台市泉区根白石字町尻道下２８地内"
"泉区","山田川右岸新館下橋西側",38.3482929,140.799606,0,"","仙台市泉区根白石字愛宕下西１１－２"
"泉区","住吉台北側入口付近",38.3344426,140.7918487,0,"","仙台市泉区西田中字萩坂前29 地先(西田中字萩坂前25 付近)"
"泉区","国道457号線バイパス西田中住吉神社入口",38.3430761,140.7998521,0,"","仙台市泉区根白石字上館地内"
"泉区","県道泉ケ岳公園線七北田ダム入口バス停付近",38.3734587,140.7585417,0,"","仙台市泉区福岡字平場 地内（福岡字上野原1-16付近）"
"泉区","県道泉ケ岳公園線旗枠バス停付近",38.3734587,140.7585417,0,"","仙台市泉区福岡字大前通 地内（福岡字下野中沢2-15付近）"
"泉区","西泉バス停付近",38.3506209,140.7886237,0,"","仙台市泉区福岡字西泉９地先"
"泉区","ミニストップ仙台泉福岡店北側入口付近",38.3562189,140.7827474,0,"","仙台市泉区福岡字阿弥陀前 地内（福岡字阿弥陀前14-1付近）"
"泉区","福岡小学校西側",38.3540327,140.7825785,0,"","仙台市泉区福岡字堰添１０"
"泉区","国道457号線バイパス福岡浄水場入口付近",38.3519404,140.7773102,0,"","仙台市泉区福岡字台 地先（福岡字狐崎20-1付近）"
"泉区","県道泉ケ丘熊ケ根線杉の崎公会堂前バス停付近",38.3646119,140.7556308,0,"","仙台市泉区福岡字熊ケ沢 地内（福岡字上畑31付近)"
"泉区","県道泉ケ岳公園線川崎上バス停西側",38.3578534,140.7809367,0,"","仙台市泉区福岡字川崎 地内（福岡字川崎4-4付近）"
"泉区","水道局西脇配水ポンプ場東側",38.3748189,140.7890215,0,"","仙台市泉区朴沢字狩集 地内（朴沢字狩集19付近）"
"泉区","朴沢集会所南側",38.36651,140.7898421,0,"","仙台市泉区朴沢字南６８－１"
"泉区","水道局朴沢ポンプ場南側",38.3592676,140.7861101,0,"","仙台市泉区朴沢字上鳥居原 地内（朴沢字上鳥居原2-5付近）"
"泉区","朴沢クリーンセンター西側",38.3572126,140.7898632,0,"","仙台市泉区朴沢字原前４－３"
"泉区","勝山企業（株）勝山酒造部泉蔵入口付近",38.3553302,140.7905509,0,"","仙台市泉区朴沢字二階１５－２地内"
"泉区","国道４５７号線下り線（朴沢大原地内）右カーブ付近",38.3740234,140.7902095,0,"","仙台市泉区朴沢字大原地内"
"泉区","国道４５７号線下り線ほこだて仏光堂根白石店南側Ｙ字路",38.3710894,140.7901266,0,"","仙台市泉区朴沢字小原前２４－４地先"
"泉区","国道４５７号線上り線朴沢字小田地内Ｙ字路付近",38.3613491,140.7897851,0,"","仙台市泉区朴沢字小田 地内 (朴沢字上原7付近)"
"泉区","寺岡一丁目公園東側",38.3375095,140.836652,0,"","仙台市泉区寺岡一丁目１２－２９"
"泉区","寺岡山南側",38.3353275,140.8310438,0,"","仙台市泉区寺岡二丁目３－３０向い側"
"泉区","寺岡二丁目公園南側",38.3365784,140.8333242,0,"","仙台市泉区寺岡二丁目５－１"
"泉区","寺岡市民センター北側",38.3411439,140.8290161,0,"","仙台市泉区寺岡二丁目１４－４"
"泉区","寺岡児童センター東側",38.3405893,140.8263919,0,"","仙台市泉区寺岡三丁目１－３"
"泉区","寺岡六丁目公園南側",38.3434656,140.8317973,0,"","仙台市泉区寺岡六丁目１２－８"
"泉区","寺岡中央公園東側",38.3408513,140.8328831,0,"","仙台市泉区寺岡二丁目１２地内"
"泉区","寺岡緑地（谷間公園）東側",38.3422243,140.8206764,0,"","仙台市泉区寺岡三丁目１６地内（13街区西側）"
"泉区","高森一丁目東公園東側",38.3375818,140.843722,0,"","仙台市泉区高森一丁目1 地内（高森一丁目1-194付近）"
"泉区","高森小学校西側",38.3417016,140.8470862,0,"","仙台市泉区高森三丁目１"
"泉区","高森六丁目公園南側",38.3432251,140.851018,0,"","仙台市泉区高森六丁目15 地内（高森六丁目28-6付近）"
"泉区","高森四丁目公園西側",38.33616,140.8475586,0,"","仙台市泉区高森四丁目2 地内（高森四丁目2-108付近）"
"泉区","高森五丁目公園北側",38.3348627,140.8512899,0,"","仙台市泉区高森五丁目２８－１"
"泉区","高森東公園東側",38.3401706,140.8528357,0,"","仙台市泉区高森六丁目1 地内（高森七丁目1-4付近）"
"泉区","高森中学校南側",38.3392243,140.8508732,0,"","仙台市泉区高森六丁目２－１"
"泉区","北高森みはらしの丘公園南側",38.3470428,140.8615175,1,"","仙台市泉区北高森３０－１"
"泉区","桂一丁目バス停南側緑地",38.3342549,140.8609059,0,"","仙台市泉区桂一丁目３－１向い側"
"泉区","桂中央公園東側",38.3393492999999,140.860215,0,"","仙台市泉区桂二丁目34地内（桂三丁目7-11付近）"
"泉区","桂大倉緑地東側",38.3361489,140.8575743,0,"","仙台市泉区桂二丁目35地内（桂二丁目11-7付近）"
"泉区","桂小学校西側",38.3350632,140.8636671,0,"","仙台市泉区桂三丁目１－１"
"泉区","桂三丁目公園西側",38.3415209,140.8646251,0,"","仙台市泉区桂三丁目13-4外（桂三丁目16-26付近）"
"泉区","桂四丁目公園西側",38.3426691,140.8681961,1,"","仙台市泉区桂四丁目２９－１"
"泉区","ダイシン桂店北側緑地（道路脇）",38.3343564,140.8659205,1,"","仙台市泉区桂一丁目15地内（泉区桂一丁目16-7付近）"
"泉区","大沢二丁目公園西側",38.3511084,140.8758947,0,"","仙台市泉区大沢二丁目１１－１"
"泉区","泉ケ丘一丁目東公園北側",38.3531238,140.8705626,0,"","仙台市泉区泉ケ丘一丁目１２－１４付近"
"泉区","泉ケ丘二丁目公園南側",38.35371,140.869064,0,"","仙台市泉区泉ケ丘二丁目１０－１４付近"
"泉区","泉ケ丘二丁目１１街区西側 法面階段付近",38.3534175,140.867277,0,"","仙台市泉区泉ケ丘二丁目13地内(泉ケ丘老人憩いの家13-7から南進)"
"泉区","泉ケ丘児童センター東側",38.3580737,140.8663584,0,"","仙台市泉区泉ケ丘四丁目１１－２９"
"泉区","泉ケ丘五丁目公園北側",38.3607591,140.863902,0,"","仙台市泉区泉ケ丘五丁目２４地内（五丁目29-6向い側）"
"泉区","泉ケ丘コミュニティ・センター駐車場北側",38.3567486,140.8703094,0,"","仙台市泉区泉ケ丘三丁目１－２６"
"泉区","泉ケ丘小学校東側",38.3565434,140.8617627,0,"","仙台市泉区明通四丁目１２－１"
"泉区","宮城交通北営業所南側法面",38.3588005,140.8727799,0,"","仙台市泉区泉ケ丘三丁目１４－１５"
"泉区","明石南一丁目公園南側",38.3396476,140.8892814,0,"","仙台市泉区明石南一丁目11（明石南一丁目10-1付近）"
"泉区","明石南一丁目バス停付近緑地",38.3411064,140.8883905,0,"","仙台市泉区明石南二丁目31地内（明石南二丁目9-12付近）"
"泉区","明石南二丁目バス停付近緑地",38.345445,140.8890027,0,"","仙台市泉区明石南四丁目20（明石南四丁目2-10付近）"
"泉区","明石南運動広場南側法面",38.3411144,140.8869349,0,"","仙台市泉区明石南三丁目８"
"泉区","明石南四丁目公園南側",38.3451662,140.8869621,0,"","仙台市泉区明石南四丁目８－３"
"泉区","明石南五丁目南公園西側",38.3413924,140.8854333,0,"","仙台市泉区明石南五丁目2地内（明石南五丁目2-2付近）"
"泉区","明石南六丁目公園西側入口",38.3443775,140.8817327,0,"","仙台市泉区明石南六丁目15（明石南六丁目1-1付近）"
"泉区","紫山一丁目公園南側",38.3503321,140.8279758,0,"","仙台市泉区紫山一丁目20地内(集会所左側　紫山一丁目16-3付近)"
"泉区","紫山二丁目公園西側",38.3473157,140.8281029,0,"","仙台市泉区紫山二丁目３１－４"
"泉区","紫山三丁目公園西側",38.3467669,140.8242472,0,"","仙台市泉区紫山三丁目14地内（紫山三丁目9-12付近)"
"泉区","紫山四丁目公園北側",38.3492855,140.820931,0,"","仙台市泉区紫山四丁目8地内(集会所左側　紫山四丁目18-5付近)"
"泉区","紫山四丁目公園南側",38.3492855,140.820931,0,"","仙台市泉区紫山四丁目8地内（紫山四丁目22-14付近）"
"泉区","紫山公園南側",38.3507845,140.8242471,0,"","仙台市泉区紫山五丁目12（泉区紫山二丁目23-4向い付近)"
"泉区","紫山公園北側",38.3507845,140.8242471,0,"","仙台市泉区紫山五丁目12（紫山五丁目40-3向い付近）"
"石巻市","旧中央児童館前フェンス",38.4281204,141.3052945,0,"","石巻市泉町１丁目１番２号"
"石巻市","石巻小学校坂下通フェンス",38.4281204,141.3052945,0,"","石巻市泉町１丁目１番２号"
"石巻市","市役所職員駐車場",38.4306276,141.3039638,0,"","石巻市羽黒町１丁目１番地２"
"石巻市","市立桜坂高等学校西側フェンス",38.4226855,141.3048872,0,"","石巻市日和が丘２丁目１１番８号"
"石巻市","日和山公園西側生垣",38.4231559,141.3053894,0,"","石巻市日和が丘２丁目２番内"
"石巻市","個人宅脇道路敷",38.2928967,141.4251958,0,"","石巻市田代浜字仁斗田１３７番地先"
"石巻市","大泊公衆トイレ西側道路敷",38.2990467,141.4171536,0,"","石巻市田代浜字大泊地内"
"石巻市","石巻中学校正門側フェンス",38.4282419,141.298044,0,"","石巻市泉町４丁目７番１５号"
"石巻市","石巻中学校グラウンド側フェンス",38.4282419,141.298044,0,"","石巻市泉町４丁目７番１５号"
"石巻市","泉町緑地東側柵",38.4292605,141.2975187,0,"","石巻市泉町３丁目１番"
"石巻市","市営泉町復興住宅ゴミ集積所脇",38.427529,141.2960205,0,"","石巻市泉町４丁目１３番１５号"
"石巻市","大手町ちびっこ広場東側フェンス",38.4242188,141.2992942,0,"","石巻市大手町３番内"
"石巻市","石巻保育所フェンス",38.4238486,141.2979013,0,"","石巻市大手町８番２１号"
"石巻市","石巻高等学校北側フェンス",38.4245937,141.2999977,0,"","石巻市大手町３番１５号"
"石巻市","市営門脇東復興住宅フェンス",38.421121,141.3075321,0,"","石巻市門脇町３丁目６番１９号"
"石巻市","開発５４７号公園北側柵",38.4216071,141.3014183,0,"","石巻市日和が丘４丁目９番内"
"石巻市","市営門脇西復興住宅東側緑地",38.4202762,141.3023342,0,"","石巻市門脇町５丁目７番４０号"
"石巻市","開北小学校西側フェンス",38.4429896,141.3142598,0,"","石巻市大橋１丁目２番１号"
"石巻市","住吉小学校東側フェンス",38.4376523,141.3119844,0,"","石巻市住吉町２丁目４番２７号"
"石巻市","住吉会館駐車場",38.4349865999999,141.3114646,0,"","石巻市住吉町１丁目４番"
"石巻市","大橋南公園フェンス",38.4396195,141.3152561,0,"","石巻市大橋２丁目２８番地"
"石巻市","袋谷地東公園西側柵",38.4453338,141.3233392,0,"","石巻市水明北３丁目１１番地内"
"石巻市","袋谷地南公園西側柵",38.4420278,141.3208849,0,"","石巻市水明南１丁目１３番地内"
"石巻市","袋谷地北児童公園南側フェンス",38.4439973,141.3178409,0,"","石巻市水明北２丁目８番地内"
"石巻市","駅前ちびっこ広場東側フェンス",38.4371135,141.299271,0,"","石巻駅前北通り４丁目３番地内"
"石巻市","旧宮城県東部土木事務所フェンス",38.4403131,141.3088014,0,"","石巻市東中里２丁目１番１号"
"石巻市","旧石巻中里メリー保育園前グリーンロード柵",38.4382488,141.3043382,0,"","石巻市駅前北通り２丁目９番２１号地先"
"石巻市","新中里南公園南側",38.4399031,141.3019191,0,"","石巻市南中里２丁目７番地内"
"石巻市","住吉中学校正門側フェンス",38.4426218,141.306625,0,"","石巻市東中里３丁目３番１号"
"石巻市","大橋一丁目ミニストップ向かい歩道",38.4448466,141.3110079,0,"","石巻市大橋１丁目地内"
"石巻市","みやぎ生協石巻大橋店県道側",38.4446869,141.3085297,0,"","石巻市大橋１丁目８番２号"
"石巻市","水押公園西側柵",38.4470168,141.3063674,0,"","石巻市開北３丁目１番地内"
"石巻市","水押保育所フェンス",38.4473759,141.3011744,0,"","石巻市水押２丁目１１番２０号"
"石巻市","個人宅ブロック塀",38.4442295,141.303258,0,"","石巻市開北２丁目２番２７号"
"石巻市","市営水押住宅集会所脇地",38.444315,141.3015552,0,"","石巻市水押１丁目４号"
"石巻市","宮城県石巻職員寮北側フェンス",38.4393397,141.2995659,0,"","石巻市南中里３丁目９番３４号"
"石巻市","北上公園西側柵",38.4431838,141.2987266,0,"","石巻市中里３丁目１２番地内"
"石巻市","新中里西公園西側柵",38.4390193,141.2957866,0,"","石巻市南中里４丁目２番内"
"石巻市","中里七丁目公園南側柵",38.4449525,141.2928954,0,"","石巻市中里７丁目６番内"
"石巻市","新境谷地南公園線路側",38.4419843,141.2909216,0,"","石巻市中里６丁目１番地内"
"石巻市","三軒屋公園西側フェンス",38.4252646,141.2850736,0,"","石巻市大街道東３丁目１２番地内"
"石巻市","大街道小学校フェンス",38.4284399999999,141.2819537,0,"","石巻市大街道南１丁目３番１号"
"石巻市","開発２７号公園南側",38.4254916999999,141.281982,0,"","石巻市大街道南２丁目１番地内"
"石巻市","開発１０４８号公園南側フェンス",38.4326629,141.3055061,0,"","石巻市築山２丁目６番地内"
"石巻市","釜小学校西側フェンス",38.4324683,141.27406,0,"","石巻市大街道西２丁目５番１号"
"石巻市","開発７８号公園南側",38.4285115,141.2742911,0,"","石巻市築山１丁目５番地内"
"石巻市","市営三ツ股第一復興住宅",38.428801,141.270913,0,"","石巻市三ツ股１丁目２番６０号"
"石巻市","市営新館復興住宅西側",38.4266033,141.2647321,0,"","石巻市新館３丁目６番１１０号"
"石巻市","開発５６４公園",38.4240309,141.2621874,0,"","石巻市門脇字浦屋敷７５番地４"
"石巻市","開発９１５公園",38.4234975,141.267326,0,"","石巻市新館２丁目１番"
"石巻市","市営三ツ股第二復興住宅敷地",38.427095,141.2727357,0,"","石巻市三ツ股２丁目８番１号"
"石巻市","上釜ふれあい広場向い駐車場柵",38.4253252,141.2504041,0,"","石巻市門脇字元明神４０番地１"
"石巻市","三ツ股三角ちびっこ広場",38.4269157,141.2709386,0,"","石巻市三ツ股２丁目２番地内"
"石巻市","開発５００号公園",38.4347652,141.2693205,0,"","石巻市門脇字青葉東１０４番地内"
"石巻市","青葉会館植込み",38.4344343,141.2653433,1,"","石巻市門脇字二番谷地１３番地６６"
"石巻市","個人宅ブロック塀",38.4352031,141.2732669,0,"","石巻市門脇字二番谷地１３番地１５９"
"石巻市","個人所有空き地",38.4322343,141.2678987,1,"","石巻市門脇字二番谷地１３番地"
"石巻市","市営二番谷地復興住宅東側ゴミ集積所脇",38.4359008,141.2757075,1,"","石巻市門脇字二番谷地１３番地３１２"
"石巻市","ＪＲ石巻駅入り口脇",38.4347569,141.3043671,0,"","石巻市鋳銭場８番内"
"石巻市","ＪＲ石巻駅裏ロータリー",38.4351408,141.3045424,1,"","石巻市鋳銭場９番内"
"石巻市","七十七銀行石巻支店北側フェンス",38.4330159999999,141.3054006,0,"","石巻市立町２丁目５番１２号"
"石巻市","石巻市防災センターフェンス",38.4338369,141.3032993,1,"","石巻市穀町１２番１号"
"石巻市","山下小学校東向緑地フェンス",38.4316906,141.2978675,0,"","石巻市羽黒町２丁目９番地内"
"石巻市","個人宅ブロック塀",38.4376127,141.2946734,0,"","石巻市田道町２丁目５番１号"
"石巻市","開発３７９号公園西側フェンス",38.4374853,141.2886263,0,"","石巻市錦町６番地内"
"石巻市","開発１８１号公園",38.4330989,141.2917833,0,"","石巻市西山町３番地内"
"石巻市","石巻日日新聞社フェンス",38.4248236,141.2921177,0,"","石巻市双葉町８番１７号"
"石巻市","大街道浄水場入口側フェンス",38.428493,141.2926271,0,"","石巻市双葉町４番２６号"
"石巻市","個人宅フェンス",38.4318053,141.2887447,0,"","石巻市貞山１丁目１番６号"
"石巻市","日本製紙所有空き地",38.4287731999999,141.2874509,0,"","石巻市大街道東１丁目１０番内"
"石巻市","開発２２７公園",38.4317797,141.2841323,0,"","石巻市大街道北２丁目３番地内"
"石巻市","開発２６８公園",38.4331169,141.2868235,0,"","石巻市貞山１丁目１２番内"
"石巻市","新横堤公園柵",38.4375871,141.2824456,0,"","石巻市貞山５丁目７番地内"
"石巻市","山下中学校フェンス",38.4379865,141.2853143,0,"","石巻市貞山５丁目３番２号"
"石巻市","個人宅向い道路敷",38.4346955,141.2820501,0,"","石巻市貞山３丁目６番地先"
"石巻市","開発１１０号公園",38.4361238,141.2835046,0,"","石巻市貞山４丁目６番地内"
"石巻市","開発３２０号公園",38.4203619,141.3099858,0,"","石巻市貞山３丁目７番地内"
"石巻市","コミュニティハウスふどう",38.4375225,141.3187042,0,"","石巻市不動町２丁目８番地内"
"石巻市","箱崎八幡宮社務所フェンス",38.428683,141.3136821,0,"","石巻市八幡町１丁目６番地内"
"石巻市","湊小学校校庭国道沿い",38.4272456,141.3165213,0,"","石巻市吉野町１丁目３番２１号"
"石巻市","御所入公園南側柵",38.4252189,141.3231804,0,"","石巻市湊字御所入１３８番地"
"石巻市","松並公園北側柵",38.4175031,141.3320634,0,"","石巻市松並２丁目７番地"
"石巻市","湊東４号公園東側",38.4167019,141.3222831,0,"","石巻市明神町２丁目１番"
"石巻市","湊東２号公園南側",38.4194514,141.3230925,0,"","石巻市大門町３丁目４番地内"
"石巻市","筒場公園西側柵",38.4279368,141.2309273,0,"","石巻市緑町１丁目８番地"
"石巻市","北伊原津バス停横ゴミ集積所脇",38.419566,141.3373588,0,"","石巻市伊原津２丁目１１５番地１"
"石巻市","鹿妻西公園東側柵",38.4206543,141.3397816,0,"","石巻市鹿妻南１丁目１０番地内"
"石巻市","鹿妻小学校東側フェンス",38.4230604,141.3467184,0,"","石巻市鹿妻北２丁目２番１号"
"石巻市","鹿妻東公園南側柵",38.4207573,141.3430455,0,"","石巻市鹿妻南２丁目７番地内"
"石巻市","鹿妻第五公園北側柵",38.4235075,141.343327,0,"","石巻市鹿妻北１丁目４番内"
"石巻市","鹿妻第二公園西側柵",38.4215116,141.3407679,0,"","石巻市鹿妻南１丁目１４番地内"
"石巻市","鹿妻第四公園南側柵",38.4260368,141.3463838,0,"","石巻市鹿妻北２丁目８番地"
"石巻市","あけぼの北公園東側フェンス",38.4539376,141.2745524,0,"","石巻市あけぼの３丁目７番地"
"石巻市","あけぼの南公園西側柵",38.4505365,141.2726425,0,"","石巻市あけぼの２丁目９番地内"
"石巻市","個人宅ブロック塀",38.4547407,141.2617666,0,"","石巻市蛇田字南久林３２番地"
"石巻市","浜江場会館脇畑地",38.4573699,141.2585483,0,"","石巻市蛇田字土和田４５番地６"
"石巻市","個人宅西側ブロック塀",38.4396304,141.2775612,0,"","石巻市蛇田字下谷地４番地"
"石巻市","個人宅ブロック塀",38.4422886,141.27298,0,"","石巻市蛇田字新埣寺２５４番地２"
"石巻市","蛇田歩道橋下緑地",38.442847,141.2778117,0,"","石巻市蛇田字新埣寺１９１番地内"
"石巻市","新下前沼公園北側ブロック柵",38.4378328,141.2745897,0,"","石巻市蛇田字新下前沼６９番地４"
"石巻市","新下前沼西公園西側ブロック塀",38.4373127,141.2701981,0,"","石巻市蛇田字新下前沼１１０番地"
"石巻市","開発１２５号公園東側フェンス",38.4380577,141.2672002,0,"","石巻市蛇田字新東前沼５９番地１"
"石巻市","開発１５５公園",38.4372816,141.2672096,0,"","石巻市蛇田字新下前沼１３６番地内"
"石巻市","開発５１９号公園",38.438697,141.2736906,0,"","石巻市蛇田字新埣寺５４番地内"
"石巻市","恵み野自然公園南側柵",38.443929,141.2659632,1,"","石巻市恵み野５丁目地内"
"石巻市","蛇田小学校東側フェンス",38.4451224,141.2790893,0,"","石巻市蛇田字上中埣９７番地１"
"石巻市","蛇田保育所北側フェンス",38.4447897,141.2731214,0,"","石巻市蛇田字新金沼４０６番地１"
"石巻市","恵み野中央公園西側",38.4420398,141.2686298,0,"","石巻市恵み野４丁目２番地８"
"石巻市","蛇田中央公園南側フェンス",38.4511253,141.2774373,0,"","石巻市向陽町４丁目７番地内"
"石巻市","向陽コミュニティセンター正門脇フェンス",38.4517861,141.2791834,1,"","石巻市向陽町４丁目９番１１号"
"石巻市","蛇田団地北児童公園西側柵",38.4500402,141.2813785,1,"","石巻市向陽町２丁目１５番"
"石巻市","向陽町東緑地",38.4506793,141.2818384,0,"","石巻市向陽町２丁目１番地内"
"石巻市","蛇田新下堀公園南側",38.4501583,141.2749877,0,"","石巻市向陽町５丁目８番"
"石巻市","蛇田浄水場入口側フェンス",38.4501612,141.2839895,0,"","石巻市蛇田字新上沼８１番地"
"石巻市","わかば北公園北側柵",38.4562873,141.2807656,1,"","石巻市わかば２丁目１４番地内"
"石巻市","新境町公園北側柵",38.4460665,141.2872109,0,"","石巻市新境町１丁目７番地"
"石巻市","西境谷地公園柵",38.4474845,141.2880547,0,"","石巻市蛇田字西境谷地１０４番地"
"石巻市","あけぼの北中央公園",38.4573397,141.2770161,0,"","石巻市あけぼの北１丁目１４番地内"
"石巻市","のぞみ野中央公園",38.4477892,141.2590913,0,"","石巻市のぞみ野２丁目４７番地"
"石巻市","のぞみ野西公園",38.4444251,141.2574113,0,"","石巻市のぞみ野５丁目２９番地"
"石巻市","のぞみ野東公園",38.4460164,141.2621634,0,"","石巻市のぞみ野２丁目３３番地"
"石巻市","のぞみ野南公園",38.4434183,141.2623955,0,"","石巻市のぞみ野１丁目１２番地"
"石巻市","のぞみ野北公園",38.4471278,141.257109,0,"","石巻市のぞみ野４丁目３７番地"
"石巻市","蛇田中学校体育館フェンス",38.4465564,141.2644288,0,"","石巻市茜平５丁目３番１号"
"石巻市","あゆみ野通り公園",38.4389839,141.2586423,0,"","石巻市あゆみ野４丁目３５番地"
"石巻市","あゆみ野公園西側",38.441645,141.260086,0,"","石巻市あゆみ野５丁目４番地"
"石巻市","あゆみ野駅前公園",38.4361758999999,141.2587479,1,"","石巻市あゆみ野４丁目２１番地"
"石巻市","あゆみ野東公園",38.4383127,141.2618236,0,"","石巻市あゆみ野１丁目１３番地"
"石巻市","市営新西前沼第二復興住宅３号棟東側",38.4371328,141.2638942,0,"","石巻市あゆみ野１丁目１番地"
"石巻市","個人宅前道路敷",38.3545233,141.4446104,0,"","石巻市福貴浦字福貴屋敷３１-１番地先"
"石巻市","個人所有空き地フェンス",38.3507451,141.4207653,0,"","石巻市狐崎浜字狐崎屋敷２８番地先"
"石巻市","旧東浜小学校フェンス前",38.3638079,141.4343911,0,"","石巻市牧浜字竹浜道２２番地２"
"石巻市","市営竹浜復興住宅地先空き地",38.361054,141.4320952,0,"","石巻市竹浜字狐崎道８番地９"
"石巻市","侍浜漁港入口前空き地",38.3832265,141.4341424,0,"","石巻市侍浜字侍浜１４番地先"
"石巻市","荻浜支所入口",38.3774159,141.4514067,0,"","石巻市荻浜字白浜山７番地２"
"石巻市","風越公園",38.4046976,141.4051527,0,"","石巻市折浜字風越２６番地内"
"石巻市","個人宅ブロック塀",38.4282208,141.350502,0,"","石巻市渡波字西ヶ崎３番地"
"石巻市","鹿松公園北側柵",38.4269751,141.362003,0,"","石巻市新成１丁目５番"
"石巻市","さくら町西公園",38.4226025,141.3547637,0,"","石巻市さくら町２丁目地内"
"石巻市","さくら町北公園",38.4245391,141.3580494,0,"","石巻市さくら町３丁目２６番地"
"石巻市","旧新千刈ちびっこ広場北側フェンス",38.4221286,141.351092,0,"","石巻市渡波字根岸前２３９番地"
"石巻市","黄金浜会館空地",38.419028,141.3546945,0,"","石巻市渡波字黄金浜１０８番地１"
"石巻市","市営浜松町復興住宅敷地内緑地",38.4165707,141.3587168,0,"","石巻市浜松町５番地５"
"石巻市","市営黄金浜第一復興住宅敷地内",38.4193026,141.3566278,0,"","石巻市渡波字黄金浜１６０番地"
"石巻市","小竹浜バス停横空き地",38.3856126,141.3803261,0,"","石巻市小竹浜字小竹６６番地２"
"石巻市","宮城水産高等学校北側フェンス",38.4205701,141.3687786,0,"","石巻市宇田川町１番地２４"
"石巻市","渡波小学校校庭国道沿い",38.4184165,141.3636725,0,"","石巻市渡波町１丁目５番２２号"
"石巻市","渡波支所南側フェンス",38.4170181,141.3668909,0,"","石巻市渡波町２丁目６番３１号"
"石巻市","サンファントンネル入口交差点道路敷",38.4137423,141.3770345,0,"","石巻市渡波字神明３０番地１１"
"石巻市","渡波駅前トイレ脇緑地",38.4198765999999,141.3655947,0,"","石巻市渡波町１丁目７番地内"
"石巻市","さくら町南公園柵",38.4228672,141.3624624,0,"","石巻市さくら町５丁目２５番地"
"石巻市","さくら町東公園東側植栽",38.4235641,141.3579287,0,"","石巻市さくら町５丁目３３番地"
"石巻市","垂水三丁目公園西側柵",38.4281107,141.3710839,0,"","石巻市垂水町３丁目９番地２"
"石巻市","万石浦中学校北側フェンス",38.4245322,141.3719895,0,"","石巻市流留字七勺２１番地"
"石巻市","県営石巻渡波住宅公園",38.4231564,141.3763741,0,"","石巻市流留字沖２１番地１７３"
"石巻市","流留ちびっこ広場北側フェンス",38.4268276,141.3734959,0,"","石巻市流留字七勺４７番地１"
"石巻市","市営万石浦住宅集会所敷地内",38.4264198,141.3750896,0,"","石巻市流留字七勺９番地１"
"石巻市","個人宅前畑",38.4369024,141.3861642,0,"","石巻市沢田字折立入２番地"
"石巻市","個人所有地",38.4394477,141.3971419,0,"","石巻市沢田字志の畑１０７番地５"
"石巻市","個人宅敷地",38.4307503,141.3778786,0,"","石巻市流留字町４１番地"
"石巻市","㈱伊藤製鐵所グラウンド前フェンス",38.4669341,141.3108004,0,"","石巻市南境字金沢前３７番地５２"
"石巻市","ルネッサンス館西側道路沿い",38.4625308,141.3076113,0,"","石巻市開成１番地３５地先"
"石巻市","セイホクパーク石巻北側フェンス",38.4566801,141.3096495,0,"","石巻市南境字新小堤１８番地"
"石巻市","セイホクパーク石巻フットボールフィールド第１北側フェンス",38.4566801,141.3096495,0,"","石巻市南境字新小堤１８番地"
"石巻市","セイホクパーク石巻こども広場のびのびエリア側駐車場フェンス",38.4566801,141.3096495,0,"","石巻市南境字新小堤１８番地"
"石巻市","総合運動公園バス停留所付近フェンス",38.4578647,141.3052602,0,"","石巻市南境新小堤２５番地地先"
"石巻市","モギ家電販売様向い空地",38.4534753999999,141.3166061,0,"","石巻市大瓜字棚橋２４番地"
"石巻市","個人宅ブロック塀",38.4529017,141.3246975,0,"","石巻市大瓜字内亀山１３１番地１"
"石巻市","井内会館正面空き地",38.444004,141.3309223,0,"","石巻市大瓜字井内９２番地"
"石巻市","稲井支所東側フェンス",38.4464695,141.3355501,0,"","石巻市新栄１丁目２５番地７"
"石巻市","新栄西公園東側フェンス",38.4460178,141.3317682,0,"","石巻市新栄１丁目３番地"
"石巻市","陸前稲井駅前自転車置き場",38.445233,141.3347433,0,"","石巻市井内字二番８０番地１"
"石巻市","新栄東公園",38.4490956,141.3366247,0,"","石巻市新栄２丁目１６番地内"
"石巻市","個人所有畑",38.457594,141.3297238,0,"","石巻市大瓜字内八津６１番地"
"石巻市","大瓜入生活センター前",38.4620460999999,141.335994,0,"","石巻市大瓜字鷲巣１３０番地"
"石巻市","高木西部ゴミ集積所脇緑地",38.4691828,141.3557871,0,"","石巻市高木字二番"
"石巻市","鶴岡商店脇空き地",38.4729049,141.3584347,0,"","石巻市高木字岡田２６番地１"
"石巻市","水沼西生活センター脇畑地",38.4819304,141.3745246,0,"","石巻市水沼字横路４番地３"
"石巻市","亀山畑地区ゴミ集積所脇緑地",38.4802058,141.3811551,0,"","石巻市水沼字亀山畑７番地先"
"石巻市","旧真野小学校南側道路敷",38.4718972,141.3771325,0,"","石巻市真野字馬場前７７番地"
"石巻市","個人所有空き地",38.471415,141.3836585,0,"","石巻市真野字内原１５０番地２"
