[{"area_id":6,"name":"旧中央児童館前フェンス","lat":38.4281204,"long":141.3052945,"status":0.0,"note":null,"address":"石巻市泉町１丁目１番２号","row_num":1295},{"area_id":6,"name":"石巻小学校坂下通フェンス","lat":38.4281204,"long":141.3052945,"status":0.0,"note":null,"address":"石巻市泉町１丁目１番２号","row_num":1296},{"area_id":6,"name":"市役所職員駐車場","lat":38.4306276,"long":141.3039638,"status":0.0,"note":null,"address":"石巻市羽黒町１丁目１番地２","row_num":1297},{"area_id":6,"name":"市立桜坂高等学校西側フェンス","lat":38.4226855,"long":141.3048872,"status":0.0,"note":null,"address":"石巻市日和が丘２丁目１１番８号","row_num":1298},{"area_id":6,"name":"日和山公園西側生垣","lat":38.4231559,"long":141.3053894,"status":0.0,"note":null,"address":"石巻市日和が丘２丁目２番内","row_num":1299},{"area_id":6,"name":"個人宅脇道路敷","lat":38.2928967,"long":141.4251958,"status":0.0,"note":null,"address":"石巻市田代浜字仁斗田１３７番地先","row_num":1300},{"area_id":6,"name":"大泊公衆トイレ西側道路敷","lat":38.2990467,"long":141.4171536,"status":0.0,"note":null,"address":"石巻市田代浜字大泊地内","row_num":1301},{"area_id":6,"name":"石巻中学校正門側フェンス","lat":38.4282419,"long":141.298044,"status":0.0,"note":null,"address":"石巻市泉町４丁目７番１５号","row_num":1302},{"area_id":6,"name":"石巻中学校グラウンド側フェンス","lat":38.4282419,"long":141.298044,"status":0.0,"note":null,"address":"石巻市泉町４丁目７番１５号","row_num":1303},{"area_id":6,"name":"泉町緑地東側柵","lat":38.4292605,"long":141.2975187,"status":0.0,"note":null,"address":"石巻市泉町３丁目１番","row_num":1304},{"area_id":6,"name":"市営泉町復興住宅ゴミ集積所脇","lat":38.427529,"long":141.2960205,"status":0.0,"note":null,"address":"石巻市泉町４丁目１３番１５号","row_num":1305},{"area_id":6,"name":"大手町ちびっこ広場東側フェンス","lat":38.4242188,"long":141.2992942,"status":0.0,"note":null,"address":"石巻市大手町３番内","row_num":1306},{"area_id":6,"name":"石巻保育所フェンス","lat":38.4238486,"long":141.2979013,"status":0.0,"note":null,"address":"石巻市大手町８番２１号","row_num":1307},{"area_id":6,"name":"石巻高等学校北側フェンス","lat":38.4245937,"long":141.2999977,"status":0.0,"note":null,"address":"石巻市大手町３番１５号","row_num":1308},{"area_id":6,"name":"市営門脇東復興住宅フェンス","lat":38.421121,"long":141.3075321,"status":0.0,"note":null,"address":"石巻市門脇町３丁目６番１９号","row_num":1309},{"area_id":6,"name":"開発５４７号公園北側柵","lat":38.4216071,"long":141.3014183,"status":0.0,"note":null,"address":"石巻市日和が丘４丁目９番内","row_num":1310},{"area_id":6,"name":"市営門脇西復興住宅東側緑地","lat":38.4202762,"long":141.3023342,"status":0.0,"note":null,"address":"石巻市門脇町５丁目７番４０号","row_num":1311},{"area_id":6,"name":"開北小学校西側フェンス","lat":38.4429896,"long":141.3142598,"status":0.0,"note":null,"address":"石巻市大橋１丁目２番１号","row_num":1312},{"area_id":6,"name":"住吉小学校東側フェンス","lat":38.4376523,"long":141.3119844,"status":0.0,"note":null,"address":"石巻市住吉町２丁目４番２７号","row_num":1313},{"area_id":6,"name":"住吉会館駐車場","lat":38.4349866,"long":141.3114646,"status":0.0,"note":null,"address":"石巻市住吉町１丁目４番","row_num":1314},{"area_id":6,"name":"大橋南公園フェンス","lat":38.4396195,"long":141.3152561,"status":0.0,"note":null,"address":"石巻市大橋２丁目２８番地","row_num":1315},{"area_id":6,"name":"袋谷地東公園西側柵","lat":38.4453338,"long":141.3233392,"status":0.0,"note":null,"address":"石巻市水明北３丁目１１番地内","row_num":1316},{"area_id":6,"name":"袋谷地南公園西側柵","lat":38.4420278,"long":141.3208849,"status":0.0,"note":null,"address":"石巻市水明南１丁目１３番地内","row_num":1317},{"area_id":6,"name":"袋谷地北児童公園南側フェンス","lat":38.4439973,"long":141.3178409,"status":0.0,"note":null,"address":"石巻市水明北２丁目８番地内","row_num":1318},{"area_id":6,"name":"駅前ちびっこ広場東側フェンス","lat":38.4371135,"long":141.299271,"status":0.0,"note":null,"address":"石巻駅前北通り４丁目３番地内","row_num":1319},{"area_id":6,"name":"旧宮城県東部土木事務所フェンス","lat":38.4403131,"long":141.3088014,"status":0.0,"note":null,"address":"石巻市東中里２丁目１番１号","row_num":1320},{"area_id":6,"name":"旧石巻中里メリー保育園前グリーンロード柵","lat":38.4382488,"long":141.3043382,"status":0.0,"note":null,"address":"石巻市駅前北通り２丁目９番２１号地先","row_num":1321},{"area_id":6,"name":"新中里南公園南側","lat":38.4399031,"long":141.3019191,"status":0.0,"note":null,"address":"石巻市南中里２丁目７番地内","row_num":1322},{"area_id":6,"name":"住吉中学校正門側フェンス","lat":38.4426218,"long":141.306625,"status":0.0,"note":null,"address":"石巻市東中里３丁目３番１号","row_num":1323},{"area_id":6,"name":"大橋一丁目ミニストップ向かい歩道","lat":38.4448466,"long":141.3110079,"status":0.0,"note":null,"address":"石巻市大橋１丁目地内","row_num":1324},{"area_id":6,"name":"みやぎ生協石巻大橋店県道側","lat":38.4446869,"long":141.3085297,"status":0.0,"note":null,"address":"石巻市大橋１丁目８番２号","row_num":1325},{"area_id":6,"name":"水押公園西側柵","lat":38.4470168,"long":141.3063674,"status":0.0,"note":null,"address":"石巻市開北３丁目１番地内","row_num":1326},{"area_id":6,"name":"水押保育所フェンス","lat":38.4473759,"long":141.3011744,"status":0.0,"note":null,"address":"石巻市水押２丁目１１番２０号","row_num":1327},{"area_id":6,"name":"個人宅ブロック塀","lat":38.4442295,"long":141.303258,"status":0.0,"note":null,"address":"石巻市開北２丁目２番２７号","row_num":1328},{"area_id":6,"name":"市営水押住宅集会所脇地","lat":38.444315,"long":141.3015552,"status":0.0,"note":null,"address":"石巻市水押１丁目４号","row_num":1329},{"area_id":6,"name":"宮城県石巻職員寮北側フェンス","lat":38.4393397,"long":141.2995659,"status":0.0,"note":null,"address":"石巻市南中里３丁目９番３４号","row_num":1330},{"area_id":6,"name":"北上公園西側柵","lat":38.4431838,"long":141.2987266,"status":0.0,"note":null,"address":"石巻市中里３丁目１２番地内","row_num":1331},{"area_id":6,"name":"新中里西公園西側柵","lat":38.4390193,"long":141.2957866,"status":0.0,"note":null,"address":"石巻市南中里４丁目２番内","row_num":1332},{"area_id":6,"name":"中里七丁目公園南側柵","lat":38.4449525,"long":141.2928954,"status":0.0,"note":null,"address":"石巻市中里７丁目６番内","row_num":1333},{"area_id":6,"name":"新境谷地南公園線路側","lat":38.4419843,"long":141.2909216,"status":0.0,"note":null,"address":"石巻市中里６丁目１番地内","row_num":1334},{"area_id":6,"name":"三軒屋公園西側フェンス","lat":38.4252646,"long":141.2850736,"status":0.0,"note":null,"address":"石巻市大街道東３丁目１２番地内","row_num":1335},{"area_id":6,"name":"大街道小学校フェンス","lat":38.42844,"long":141.2819537,"status":0.0,"note":null,"address":"石巻市大街道南１丁目３番１号","row_num":1336},{"area_id":6,"name":"開発２７号公園南側","lat":38.4254917,"long":141.281982,"status":0.0,"note":null,"address":"石巻市大街道南２丁目１番地内","row_num":1337},{"area_id":6,"name":"開発１０４８号公園南側フェンス","lat":38.4326629,"long":141.3055061,"status":0.0,"note":null,"address":"石巻市築山２丁目６番地内","row_num":1338},{"area_id":6,"name":"釜小学校西側フェンス","lat":38.4324683,"long":141.27406,"status":0.0,"note":null,"address":"石巻市大街道西２丁目５番１号","row_num":1339},{"area_id":6,"name":"開発７８号公園南側","lat":38.4285115,"long":141.2742911,"status":0.0,"note":null,"address":"石巻市築山１丁目５番地内","row_num":1340},{"area_id":6,"name":"市営三ツ股第一復興住宅","lat":38.428801,"long":141.270913,"status":0.0,"note":null,"address":"石巻市三ツ股１丁目２番６０号","row_num":1341},{"area_id":6,"name":"市営新館復興住宅西側","lat":38.4266033,"long":141.2647321,"status":0.0,"note":null,"address":"石巻市新館３丁目６番１１０号","row_num":1342},{"area_id":6,"name":"開発５６４公園","lat":38.4240309,"long":141.2621874,"status":0.0,"note":null,"address":"石巻市門脇字浦屋敷７５番地４","row_num":1343},{"area_id":6,"name":"開発９１５公園","lat":38.4234975,"long":141.267326,"status":0.0,"note":null,"address":"石巻市新館２丁目１番","row_num":1344},{"area_id":6,"name":"市営三ツ股第二復興住宅敷地","lat":38.427095,"long":141.2727357,"status":0.0,"note":null,"address":"石巻市三ツ股２丁目８番１号","row_num":1345},{"area_id":6,"name":"上釜ふれあい広場向い駐車場柵","lat":38.4253252,"long":141.2504041,"status":0.0,"note":null,"address":"石巻市門脇字元明神４０番地１","row_num":1346},{"area_id":6,"name":"三ツ股三角ちびっこ広場","lat":38.4269157,"long":141.2709386,"status":0.0,"note":null,"address":"石巻市三ツ股２丁目２番地内","row_num":1347},{"area_id":6,"name":"開発５００号公園","lat":38.4347652,"long":141.2693205,"status":0.0,"note":null,"address":"石巻市門脇字青葉東１０４番地内","row_num":1348},{"area_id":6,"name":"青葉会館植込み","lat":38.4344343,"long":141.2653433,"status":1.0,"note":null,"address":"石巻市門脇字二番谷地１３番地６６","row_num":1349},{"area_id":6,"name":"個人宅ブロック塀","lat":38.4352031,"long":141.2732669,"status":0.0,"note":null,"address":"石巻市門脇字二番谷地１３番地１５９","row_num":1350},{"area_id":6,"name":"個人所有空き地","lat":38.4322343,"long":141.2678987,"status":1.0,"note":null,"address":"石巻市門脇字二番谷地１３番地","row_num":1351},{"area_id":6,"name":"市営二番谷地復興住宅東側ゴミ集積所脇","lat":38.4359008,"long":141.2757075,"status":1.0,"note":null,"address":"石巻市門脇字二番谷地１３番地３１２","row_num":1352},{"area_id":6,"name":"ＪＲ石巻駅入り口脇","lat":38.4347569,"long":141.3043671,"status":0.0,"note":null,"address":"石巻市鋳銭場８番内","row_num":1353},{"area_id":6,"name":"ＪＲ石巻駅裏ロータリー","lat":38.4351408,"long":141.3045424,"status":1.0,"note":null,"address":"石巻市鋳銭場９番内","row_num":1354},{"area_id":6,"name":"七十七銀行石巻支店北側フェンス","lat":38.433016,"long":141.3054006,"status":0.0,"note":null,"address":"石巻市立町２丁目５番１２号","row_num":1355},{"area_id":6,"name":"石巻市防災センターフェンス","lat":38.4338369,"long":141.3032993,"status":1.0,"note":null,"address":"石巻市穀町１２番１号","row_num":1356},{"area_id":6,"name":"山下小学校東向緑地フェンス","lat":38.4316906,"long":141.2978675,"status":0.0,"note":null,"address":"石巻市羽黒町２丁目９番地内","row_num":1357},{"area_id":6,"name":"個人宅ブロック塀","lat":38.4376127,"long":141.2946734,"status":0.0,"note":null,"address":"石巻市田道町２丁目５番１号","row_num":1358},{"area_id":6,"name":"開発３７９号公園西側フェンス","lat":38.4374853,"long":141.2886263,"status":0.0,"note":null,"address":"石巻市錦町６番地内","row_num":1359},{"area_id":6,"name":"開発１８１号公園","lat":38.4330989,"long":141.2917833,"status":0.0,"note":null,"address":"石巻市西山町３番地内","row_num":1360},{"area_id":6,"name":"石巻日日新聞社フェンス","lat":38.4248236,"long":141.2921177,"status":0.0,"note":null,"address":"石巻市双葉町８番１７号","row_num":1361},{"area_id":6,"name":"大街道浄水場入口側フェンス","lat":38.428493,"long":141.2926271,"status":0.0,"note":null,"address":"石巻市双葉町４番２６号","row_num":1362},{"area_id":6,"name":"個人宅フェンス","lat":38.4318053,"long":141.2887447,"status":0.0,"note":null,"address":"石巻市貞山１丁目１番６号","row_num":1363},{"area_id":6,"name":"日本製紙所有空き地","lat":38.4287732,"long":141.2874509,"status":0.0,"note":null,"address":"石巻市大街道東１丁目１０番内","row_num":1364},{"area_id":6,"name":"開発２２７公園","lat":38.4317797,"long":141.2841323,"status":0.0,"note":null,"address":"石巻市大街道北２丁目３番地内","row_num":1365},{"area_id":6,"name":"開発２６８公園","lat":38.4331169,"long":141.2868235,"status":0.0,"note":null,"address":"石巻市貞山１丁目１２番内","row_num":1366},{"area_id":6,"name":"新横堤公園柵","lat":38.4375871,"long":141.2824456,"status":0.0,"note":null,"address":"石巻市貞山５丁目７番地内","row_num":1367},{"area_id":6,"name":"山下中学校フェンス","lat":38.4379865,"long":141.2853143,"status":0.0,"note":null,"address":"石巻市貞山５丁目３番２号","row_num":1368},{"area_id":6,"name":"個人宅向い道路敷","lat":38.4346955,"long":141.2820501,"status":0.0,"note":null,"address":"石巻市貞山３丁目６番地先","row_num":1369},{"area_id":6,"name":"開発１１０号公園","lat":38.4361238,"long":141.2835046,"status":0.0,"note":null,"address":"石巻市貞山４丁目６番地内","row_num":1370},{"area_id":6,"name":"開発３２０号公園","lat":38.4203619,"long":141.3099858,"status":0.0,"note":null,"address":"石巻市貞山３丁目７番地内","row_num":1371},{"area_id":6,"name":"コミュニティハウスふどう","lat":38.4375225,"long":141.3187042,"status":0.0,"note":null,"address":"石巻市不動町２丁目８番地内","row_num":1372},{"area_id":6,"name":"箱崎八幡宮社務所フェンス","lat":38.428683,"long":141.3136821,"status":0.0,"note":null,"address":"石巻市八幡町１丁目６番地内","row_num":1373},{"area_id":6,"name":"湊小学校校庭国道沿い","lat":38.4272456,"long":141.3165213,"status":0.0,"note":null,"address":"石巻市吉野町１丁目３番２１号","row_num":1374},{"area_id":6,"name":"御所入公園南側柵","lat":38.4252189,"long":141.3231804,"status":0.0,"note":null,"address":"石巻市湊字御所入１３８番地","row_num":1375},{"area_id":6,"name":"松並公園北側柵","lat":38.4175031,"long":141.3320634,"status":0.0,"note":null,"address":"石巻市松並２丁目７番地","row_num":1376},{"area_id":6,"name":"湊東４号公園東側","lat":38.4167019,"long":141.3222831,"status":0.0,"note":null,"address":"石巻市明神町２丁目１番","row_num":1377},{"area_id":6,"name":"湊東２号公園南側","lat":38.4194514,"long":141.3230925,"status":0.0,"note":null,"address":"石巻市大門町３丁目４番地内","row_num":1378},{"area_id":6,"name":"筒場公園西側柵","lat":38.4279368,"long":141.2309273,"status":0.0,"note":null,"address":"石巻市緑町１丁目８番地","row_num":1379},{"area_id":6,"name":"北伊原津バス停横ゴミ集積所脇","lat":38.419566,"long":141.3373588,"status":0.0,"note":null,"address":"石巻市伊原津２丁目１１５番地１","row_num":1380},{"area_id":6,"name":"鹿妻西公園東側柵","lat":38.4206543,"long":141.3397816,"status":0.0,"note":null,"address":"石巻市鹿妻南１丁目１０番地内","row_num":1381},{"area_id":6,"name":"鹿妻小学校東側フェンス","lat":38.4230604,"long":141.3467184,"status":0.0,"note":null,"address":"石巻市鹿妻北２丁目２番１号","row_num":1382},{"area_id":6,"name":"鹿妻東公園南側柵","lat":38.4207573,"long":141.3430455,"status":0.0,"note":null,"address":"石巻市鹿妻南２丁目７番地内","row_num":1383},{"area_id":6,"name":"鹿妻第五公園北側柵","lat":38.4235075,"long":141.343327,"status":0.0,"note":null,"address":"石巻市鹿妻北１丁目４番内","row_num":1384},{"area_id":6,"name":"鹿妻第二公園西側柵","lat":38.4215116,"long":141.3407679,"status":0.0,"note":null,"address":"石巻市鹿妻南１丁目１４番地内","row_num":1385},{"area_id":6,"name":"鹿妻第四公園南側柵","lat":38.4260368,"long":141.3463838,"status":0.0,"note":null,"address":"石巻市鹿妻北２丁目８番地","row_num":1386},{"area_id":6,"name":"あけぼの北公園東側フェンス","lat":38.4539376,"long":141.2745524,"status":0.0,"note":null,"address":"石巻市あけぼの３丁目７番地","row_num":1387},{"area_id":6,"name":"あけぼの南公園西側柵","lat":38.4505365,"long":141.2726425,"status":0.0,"note":null,"address":"石巻市あけぼの２丁目９番地内","row_num":1388},{"area_id":6,"name":"個人宅ブロック塀","lat":38.4547407,"long":141.2617666,"status":0.0,"note":null,"address":"石巻市蛇田字南久林３２番地","row_num":1389},{"area_id":6,"name":"浜江場会館脇畑地","lat":38.4573699,"long":141.2585483,"status":0.0,"note":null,"address":"石巻市蛇田字土和田４５番地６","row_num":1390},{"area_id":6,"name":"個人宅西側ブロック塀","lat":38.4396304,"long":141.2775612,"status":0.0,"note":null,"address":"石巻市蛇田字下谷地４番地","row_num":1391},{"area_id":6,"name":"個人宅ブロック塀","lat":38.4422886,"long":141.27298,"status":0.0,"note":null,"address":"石巻市蛇田字新埣寺２５４番地２","row_num":1392},{"area_id":6,"name":"蛇田歩道橋下緑地","lat":38.442847,"long":141.2778117,"status":0.0,"note":null,"address":"石巻市蛇田字新埣寺１９１番地内","row_num":1393},{"area_id":6,"name":"新下前沼公園北側ブロック柵","lat":38.4378328,"long":141.2745897,"status":0.0,"note":null,"address":"石巻市蛇田字新下前沼６９番地４","row_num":1394},{"area_id":6,"name":"新下前沼西公園西側ブロック塀","lat":38.4373127,"long":141.2701981,"status":0.0,"note":null,"address":"石巻市蛇田字新下前沼１１０番地","row_num":1395},{"area_id":6,"name":"開発１２５号公園東側フェンス","lat":38.4380577,"long":141.2672002,"status":0.0,"note":null,"address":"石巻市蛇田字新東前沼５９番地１","row_num":1396},{"area_id":6,"name":"開発１５５公園","lat":38.4372816,"long":141.2672096,"status":0.0,"note":null,"address":"石巻市蛇田字新下前沼１３６番地内","row_num":1397},{"area_id":6,"name":"開発５１９号公園","lat":38.438697,"long":141.2736906,"status":0.0,"note":null,"address":"石巻市蛇田字新埣寺５４番地内","row_num":1398},{"area_id":6,"name":"恵み野自然公園南側柵","lat":38.443929,"long":141.2659632,"status":1.0,"note":null,"address":"石巻市恵み野５丁目地内","row_num":1399},{"area_id":6,"name":"蛇田小学校東側フェンス","lat":38.4451224,"long":141.2790893,"status":0.0,"note":null,"address":"石巻市蛇田字上中埣９７番地１","row_num":1400},{"area_id":6,"name":"蛇田保育所北側フェンス","lat":38.4447897,"long":141.2731214,"status":0.0,"note":null,"address":"石巻市蛇田字新金沼４０６番地１","row_num":1401},{"area_id":6,"name":"恵み野中央公園西側","lat":38.4420398,"long":141.2686298,"status":0.0,"note":null,"address":"石巻市恵み野４丁目２番地８","row_num":1402},{"area_id":6,"name":"蛇田中央公園南側フェンス","lat":38.4511253,"long":141.2774373,"status":0.0,"note":null,"address":"石巻市向陽町４丁目７番地内","row_num":1403},{"area_id":6,"name":"向陽コミュニティセンター正門脇フェンス","lat":38.4517861,"long":141.2791834,"status":1.0,"note":null,"address":"石巻市向陽町４丁目９番１１号","row_num":1404},{"area_id":6,"name":"蛇田団地北児童公園西側柵","lat":38.4500402,"long":141.2813785,"status":1.0,"note":null,"address":"石巻市向陽町２丁目１５番","row_num":1405},{"area_id":6,"name":"向陽町東緑地","lat":38.4506793,"long":141.2818384,"status":0.0,"note":null,"address":"石巻市向陽町２丁目１番地内","row_num":1406},{"area_id":6,"name":"蛇田新下堀公園南側","lat":38.4501583,"long":141.2749877,"status":0.0,"note":null,"address":"石巻市向陽町５丁目８番","row_num":1407},{"area_id":6,"name":"蛇田浄水場入口側フェンス","lat":38.4501612,"long":141.2839895,"status":0.0,"note":null,"address":"石巻市蛇田字新上沼８１番地","row_num":1408},{"area_id":6,"name":"わかば北公園北側柵","lat":38.4562873,"long":141.2807656,"status":1.0,"note":null,"address":"石巻市わかば２丁目１４番地内","row_num":1409},{"area_id":6,"name":"新境町公園北側柵","lat":38.4460665,"long":141.2872109,"status":0.0,"note":null,"address":"石巻市新境町１丁目７番地","row_num":1410},{"area_id":6,"name":"西境谷地公園柵","lat":38.4474845,"long":141.2880547,"status":0.0,"note":null,"address":"石巻市蛇田字西境谷地１０４番地","row_num":1411},{"area_id":6,"name":"あけぼの北中央公園","lat":38.4573397,"long":141.2770161,"status":0.0,"note":null,"address":"石巻市あけぼの北１丁目１４番地内","row_num":1412},{"area_id":6,"name":"のぞみ野中央公園","lat":38.4477892,"long":141.2590913,"status":0.0,"note":null,"address":"石巻市のぞみ野２丁目４７番地","row_num":1413},{"area_id":6,"name":"のぞみ野西公園","lat":38.4444251,"long":141.2574113,"status":0.0,"note":null,"address":"石巻市のぞみ野５丁目２９番地","row_num":1414},{"area_id":6,"name":"のぞみ野東公園","lat":38.4460164,"long":141.2621634,"status":0.0,"note":null,"address":"石巻市のぞみ野２丁目３３番地","row_num":1415},{"area_id":6,"name":"のぞみ野南公園","lat":38.4434183,"long":141.2623955,"status":0.0,"note":null,"address":"石巻市のぞみ野１丁目１２番地","row_num":1416},{"area_id":6,"name":"のぞみ野北公園","lat":38.4471278,"long":141.257109,"status":0.0,"note":null,"address":"石巻市のぞみ野４丁目３７番地","row_num":1417},{"area_id":6,"name":"蛇田中学校体育館フェンス","lat":38.4465564,"long":141.2644288,"status":0.0,"note":null,"address":"石巻市茜平５丁目３番１号","row_num":1418},{"area_id":6,"name":"あゆみ野通り公園","lat":38.4389839,"long":141.2586423,"status":0.0,"note":null,"address":"石巻市あゆみ野４丁目３５番地","row_num":1419},{"area_id":6,"name":"あゆみ野公園西側","lat":38.441645,"long":141.260086,"status":0.0,"note":null,"address":"石巻市あゆみ野５丁目４番地","row_num":1420},{"area_id":6,"name":"あゆみ野駅前公園","lat":38.4361759,"long":141.2587479,"status":1.0,"note":null,"address":"石巻市あゆみ野４丁目２１番地","row_num":1421},{"area_id":6,"name":"あゆみ野東公園","lat":38.4383127,"long":141.2618236,"status":0.0,"note":null,"address":"石巻市あゆみ野１丁目１３番地","row_num":1422},{"area_id":6,"name":"市営新西前沼第二復興住宅３号棟東側","lat":38.4371328,"long":141.2638942,"status":0.0,"note":null,"address":"石巻市あゆみ野１丁目１番地","row_num":1423},{"area_id":6,"name":"個人宅前道路敷","lat":38.3545233,"long":141.4446104,"status":0.0,"note":null,"address":"石巻市福貴浦字福貴屋敷３１-１番地先","row_num":1424},{"area_id":6,"name":"個人所有空き地フェンス","lat":38.3507451,"long":141.4207653,"status":0.0,"note":null,"address":"石巻市狐崎浜字狐崎屋敷２８番地先","row_num":1425},{"area_id":6,"name":"旧東浜小学校フェンス前","lat":38.3638079,"long":141.4343911,"status":0.0,"note":null,"address":"石巻市牧浜字竹浜道２２番地２","row_num":1426},{"area_id":6,"name":"市営竹浜復興住宅地先空き地","lat":38.361054,"long":141.4320952,"status":0.0,"note":null,"address":"石巻市竹浜字狐崎道８番地９","row_num":1427},{"area_id":6,"name":"侍浜漁港入口前空き地","lat":38.3832265,"long":141.4341424,"status":0.0,"note":null,"address":"石巻市侍浜字侍浜１４番地先","row_num":1428},{"area_id":6,"name":"荻浜支所入口","lat":38.3774159,"long":141.4514067,"status":0.0,"note":null,"address":"石巻市荻浜字白浜山７番地２","row_num":1429},{"area_id":6,"name":"風越公園","lat":38.4046976,"long":141.4051527,"status":0.0,"note":null,"address":"石巻市折浜字風越２６番地内","row_num":1430},{"area_id":6,"name":"個人宅ブロック塀","lat":38.4282208,"long":141.350502,"status":0.0,"note":null,"address":"石巻市渡波字西ヶ崎３番地","row_num":1431},{"area_id":6,"name":"鹿松公園北側柵","lat":38.4269751,"long":141.362003,"status":0.0,"note":null,"address":"石巻市新成１丁目５番","row_num":1432},{"area_id":6,"name":"さくら町西公園","lat":38.4226025,"long":141.3547637,"status":0.0,"note":null,"address":"石巻市さくら町２丁目地内","row_num":1433},{"area_id":6,"name":"さくら町北公園","lat":38.4245391,"long":141.3580494,"status":1.0,"note":null,"address":"石巻市さくら町３丁目２６番地","row_num":1434},{"area_id":6,"name":"旧新千刈ちびっこ広場北側フェンス","lat":38.4221286,"long":141.351092,"status":0.0,"note":null,"address":"石巻市渡波字根岸前２３９番地","row_num":1435},{"area_id":6,"name":"黄金浜会館空地","lat":38.419028,"long":141.3546945,"status":0.0,"note":null,"address":"石巻市渡波字黄金浜１０８番地１","row_num":1436},{"area_id":6,"name":"市営浜松町復興住宅敷地内緑地","lat":38.4165707,"long":141.3587168,"status":0.0,"note":null,"address":"石巻市浜松町５番地５","row_num":1437},{"area_id":6,"name":"市営黄金浜第一復興住宅敷地内","lat":38.4193026,"long":141.3566278,"status":1.0,"note":null,"address":"石巻市渡波字黄金浜１６０番地","row_num":1438},{"area_id":6,"name":"小竹浜バス停横空き地","lat":38.3856126,"long":141.3803261,"status":0.0,"note":null,"address":"石巻市小竹浜字小竹６６番地２","row_num":1439},{"area_id":6,"name":"宮城水産高等学校北側フェンス","lat":38.4205701,"long":141.3687786,"status":0.0,"note":null,"address":"石巻市宇田川町１番地２４","row_num":1440},{"area_id":6,"name":"渡波小学校校庭国道沿い","lat":38.4184165,"long":141.3636725,"status":0.0,"note":null,"address":"石巻市渡波町１丁目５番２２号","row_num":1441},{"area_id":6,"name":"渡波支所南側フェンス","lat":38.4170181,"long":141.3668909,"status":0.0,"note":null,"address":"石巻市渡波町２丁目６番３１号","row_num":1442},{"area_id":6,"name":"サンファントンネル入口交差点道路敷","lat":38.4137423,"long":141.3770345,"status":0.0,"note":null,"address":"石巻市渡波字神明３０番地１１","row_num":1443},{"area_id":6,"name":"渡波駅前トイレ脇緑地","lat":38.4198766,"long":141.3655947,"status":0.0,"note":null,"address":"石巻市渡波町１丁目７番地内","row_num":1444},{"area_id":6,"name":"さくら町南公園柵","lat":38.4228672,"long":141.3624624,"status":0.0,"note":null,"address":"石巻市さくら町５丁目２５番地","row_num":1445},{"area_id":6,"name":"さくら町東公園東側植栽","lat":38.4235641,"long":141.3579287,"status":0.0,"note":null,"address":"石巻市さくら町５丁目３３番地","row_num":1446},{"area_id":6,"name":"垂水三丁目公園西側柵","lat":38.4281107,"long":141.3710839,"status":0.0,"note":null,"address":"石巻市垂水町３丁目９番地２","row_num":1447},{"area_id":6,"name":"万石浦中学校北側フェンス","lat":38.4245322,"long":141.3719895,"status":0.0,"note":null,"address":"石巻市流留字七勺２１番地","row_num":1448},{"area_id":6,"name":"県営石巻渡波住宅公園","lat":38.4231564,"long":141.3763741,"status":0.0,"note":null,"address":"石巻市流留字沖２１番地１７３","row_num":1449},{"area_id":6,"name":"流留ちびっこ広場北側フェンス","lat":38.4268276,"long":141.3734959,"status":0.0,"note":null,"address":"石巻市流留字七勺４７番地１","row_num":1450},{"area_id":6,"name":"市営万石浦住宅集会所敷地内","lat":38.4264198,"long":141.3750896,"status":0.0,"note":null,"address":"石巻市流留字七勺９番地１","row_num":1451},{"area_id":6,"name":"個人宅前畑","lat":38.4369024,"long":141.3861642,"status":0.0,"note":null,"address":"石巻市沢田字折立入２番地","row_num":1452},{"area_id":6,"name":"個人所有地","lat":38.4394477,"long":141.3971419,"status":0.0,"note":null,"address":"石巻市沢田字志の畑１０７番地５","row_num":1453},{"area_id":6,"name":"個人宅敷地","lat":38.4307503,"long":141.3778786,"status":0.0,"note":null,"address":"石巻市流留字町４１番地","row_num":1454},{"area_id":6,"name":"㈱伊藤製鐵所グラウンド前フェンス","lat":38.4669341,"long":141.3108004,"status":0.0,"note":null,"address":"石巻市南境字金沢前３７番地５２","row_num":1455},{"area_id":6,"name":"ルネッサンス館西側道路沿い","lat":38.4625308,"long":141.3076113,"status":0.0,"note":null,"address":"石巻市開成１番地３５地先","row_num":1456},{"area_id":6,"name":"セイホクパーク石巻北側フェンス","lat":38.4566801,"long":141.3096495,"status":0.0,"note":null,"address":"石巻市南境字新小堤１８番地","row_num":1457},{"area_id":6,"name":"セイホクパーク石巻フットボールフィールド第１北側フェンス","lat":38.4566801,"long":141.3096495,"status":0.0,"note":null,"address":"石巻市南境字新小堤１８番地","row_num":1458},{"area_id":6,"name":"セイホクパーク石巻こども広場のびのびエリア側駐車場フェンス","lat":38.4566801,"long":141.3096495,"status":0.0,"note":null,"address":"石巻市南境字新小堤１８番地","row_num":1459},{"area_id":6,"name":"総合運動公園バス停留所付近フェンス","lat":38.4578647,"long":141.3052602,"status":0.0,"note":null,"address":"石巻市南境新小堤２５番地地先","row_num":1460},{"area_id":6,"name":"モギ家電販売様向い空地","lat":38.4534754,"long":141.3166061,"status":0.0,"note":null,"address":"石巻市大瓜字棚橋２４番地","row_num":1461},{"area_id":6,"name":"個人宅ブロック塀","lat":38.4529017,"long":141.3246975,"status":0.0,"note":null,"address":"石巻市大瓜字内亀山１３１番地１","row_num":1462},{"area_id":6,"name":"井内会館正面空き地","lat":38.444004,"long":141.3309223,"status":0.0,"note":null,"address":"石巻市大瓜字井内９２番地","row_num":1463},{"area_id":6,"name":"稲井支所東側フェンス","lat":38.4464695,"long":141.3355501,"status":0.0,"note":null,"address":"石巻市新栄１丁目２５番地７","row_num":1464},{"area_id":6,"name":"新栄西公園東側フェンス","lat":38.4460178,"long":141.3317682,"status":0.0,"note":null,"address":"石巻市新栄１丁目３番地","row_num":1465},{"area_id":6,"name":"陸前稲井駅前自転車置き場","lat":38.445233,"long":141.3347433,"status":0.0,"note":null,"address":"石巻市井内字二番８０番地１","row_num":1466},{"area_id":6,"name":"新栄東公園","lat":38.4490956,"long":141.3366247,"status":0.0,"note":null,"address":"石巻市新栄２丁目１６番地内","row_num":1467},{"area_id":6,"name":"個人所有畑","lat":38.457594,"long":141.3297238,"status":0.0,"note":null,"address":"石巻市大瓜字内八津６１番地","row_num":1468},{"area_id":6,"name":"大瓜入生活センター前","lat":38.4620461,"long":141.335994,"status":0.0,"note":null,"address":"石巻市大瓜字鷲巣１３０番地","row_num":1469},{"area_id":6,"name":"高木西部ゴミ集積所脇緑地","lat":38.4691828,"long":141.3557871,"status":0.0,"note":null,"address":"石巻市高木字二番","row_num":1470},{"area_id":6,"name":"鶴岡商店脇空き地","lat":38.4729049,"long":141.3584347,"status":0.0,"note":null,"address":"石巻市高木字岡田２６番地１","row_num":1471},{"area_id":6,"name":"水沼西生活センター脇畑地","lat":38.4819304,"long":141.3745246,"status":0.0,"note":null,"address":"石巻市水沼字横路４番地３","row_num":1472},{"area_id":6,"name":"亀山畑地区ゴミ集積所脇緑地","lat":38.4802058,"long":141.3811551,"status":0.0,"note":null,"address":"石巻市水沼字亀山畑７番地先","row_num":1473},{"area_id":6,"name":"旧真野小学校南側道路敷","lat":38.4718972,"long":141.3771325,"status":0.0,"note":null,"address":"石巻市真野字馬場前７７番地","row_num":1474},{"area_id":6,"name":"個人所有空き地","lat":38.471415,"long":141.3836585,"status":0.0,"note":null,"address":"石巻市真野字内原１５０番地２","row_num":1475},{"area_id":6,"name":"小島生活センター西側敷地奥","lat":38.460096,"long":141.3646122,"status":0.0,"note":null,"address":"石巻市真野字小島１３０番地４","row_num":1476},{"area_id":6,"name":"旧稲井幼稚園南側水路沿い","lat":38.4479312,"long":141.354392,"status":0.0,"note":null,"address":"石巻市真野字八の坪１１６番地２","row_num":1477},{"area_id":6,"name":"裏沢田ちびっこ広場フェンス","lat":38.4415108,"long":141.3739698,"status":0.0,"note":null,"address":"石巻市沢田字台４番地","row_num":1478},{"area_id":6,"name":"越田地区ごみ集積所脇道路敷","lat":38.4512008,"long":141.3744377,"status":0.0,"note":null,"address":"石巻市沼津字越田８番地１先","row_num":1479},{"area_id":6,"name":"河北総合センター入口脇フェンス","lat":38.5168817,"long":141.309794,"status":0.0,"note":null,"address":"石巻市成田字小塚裏畑５４番地","row_num":1480},{"area_id":6,"name":"総合支所前ロータリー敷地","lat":38.5159296,"long":141.3143529,"status":0.0,"note":null,"address":"石巻市相野谷字旧会所前３２番地６","row_num":1481},{"area_id":6,"name":"飯野川バス待合所敷地","lat":38.5137132,"long":141.3158471,"status":0.0,"note":null,"address":"石巻市相野谷字飯野川町２０８番地１","row_num":1482},{"area_id":6,"name":"飯小旧かしわ農園地内","lat":38.5163024,"long":141.3197499,"status":0.0,"note":null,"address":"石巻市相野谷字今泉前３８番地３０","row_num":1483},{"area_id":6,"name":"個人宅斜め向い畑地","lat":38.5195984,"long":141.3230208,"status":0.0,"note":null,"address":"石巻市相野谷字五味前上８番地","row_num":1484},{"area_id":6,"name":"個人宅道路向い雑種地","lat":38.5223101,"long":141.3196544,"status":0.0,"note":null,"address":"石巻市相野谷字日影前１０６番地１","row_num":1485},{"area_id":6,"name":"山崎集会所向い道路敷","lat":38.5288609,"long":141.314335,"status":0.0,"note":null,"address":"石巻市相野谷字山崎前５７番地１地先","row_num":1486},{"area_id":6,"name":"個人宅前","lat":38.5367617,"long":141.3291619,"status":0.0,"note":null,"address":"石巻市中島字和泉沢畑二番１１６番地道路向かい","row_num":1487},{"area_id":6,"name":"個人宅前","lat":38.5407374,"long":141.3402038,"status":0.0,"note":null,"address":"石巻市中島字清水田畑１２２番地","row_num":1488},{"area_id":6,"name":"中野林業センター道路向い雑種地","lat":38.5311888,"long":141.3463183,"status":0.0,"note":null,"address":"石巻市中野字相野田７５番地１","row_num":1489},{"area_id":6,"name":"個人宅道路向い雑種地","lat":38.5296708,"long":141.3532814,"status":0.0,"note":null,"address":"石巻市中野字龍源寺山１６０番地１","row_num":1490},{"area_id":6,"name":"皿貝班消防ポンプ置場脇","lat":38.5541528,"long":141.3463656,"status":0.0,"note":null,"address":"石巻市皿貝字馬場３４番地６","row_num":1491},{"area_id":6,"name":"個人宅道路向い雑種地","lat":38.5478402,"long":141.3492802,"status":0.0,"note":null,"address":"石巻市皿貝字郷田５０番地５","row_num":1492},{"area_id":6,"name":"個人宅脇歩道敷地","lat":38.5384906,"long":141.3706982,"status":0.0,"note":null,"address":"石巻市馬鞍字土手下６０番地２地先","row_num":1493},{"area_id":6,"name":"馬鞍老人憩の家敷地","lat":38.5555697,"long":141.3695648,"status":0.0,"note":null,"address":"石巻市馬鞍字百目木１３番地","row_num":1494},{"area_id":6,"name":"五十五人生活センター敷地","lat":38.5013847,"long":141.26224,"status":0.0,"note":null,"address":"石巻市小船越字大縄場６７番地２","row_num":1495},{"area_id":6,"name":"個人所有畑地","lat":38.4990687,"long":141.26749,"status":0.0,"note":null,"address":"石巻市小船越字一番一江１８番地１","row_num":1496},{"area_id":6,"name":"個人所有畑地","lat":38.5053654,"long":141.2571217,"status":0.0,"note":null,"address":"石巻市小船越字四番一江１２６番地１","row_num":1497},{"area_id":6,"name":"個人宅脇雑種地","lat":38.4936948,"long":141.2807347,"status":0.0,"note":null,"address":"石巻市小船越字堤下８９番地","row_num":1498},{"area_id":6,"name":"個人宅向い道路敷","lat":38.5038338,"long":141.2837803,"status":0.0,"note":null,"address":"石巻市小船越字後３５番地地先","row_num":1499},{"area_id":6,"name":"小船越字江向道路用地","lat":38.4965065,"long":141.2890132,"status":0.0,"note":null,"address":"石巻市小船越字江向１１７","row_num":1500},{"area_id":6,"name":"JA大谷地支店R45入口付近道路敷","lat":38.5020668,"long":141.2990766,"status":0.0,"note":null,"address":"石巻市小船越字山畑４３３番地４","row_num":1501},{"area_id":6,"name":"追波川河川運動公園テニスコート東側緑地帯","lat":38.508317,"long":141.308931,"status":0.0,"note":null,"address":"石巻市小船越字山畑２２５番地２地先","row_num":1502},{"area_id":6,"name":"道の駅 上品の郷トイレ西側","lat":38.5010965,"long":141.2954826,"status":0.0,"note":null,"address":"石巻市小船越字二子北下１番地３","row_num":1503},{"area_id":6,"name":"河北川の上上納住宅道路向い畑地","lat":38.5123444,"long":141.3037661,"status":0.0,"note":null,"address":"石巻市小船越字矢倉３４番地１","row_num":1504},{"area_id":6,"name":"元後谷地排水機場前","lat":38.5164503,"long":141.3027127,"status":0.0,"note":null,"address":"石巻市小船越字谷地６番地１","row_num":1505},{"area_id":6,"name":"個人所有畑地","lat":38.5136486,"long":141.2909925,"status":0.0,"note":null,"address":"石巻市小船越字中門４６番地２","row_num":1506},{"area_id":6,"name":"境会館敷地","lat":38.526429,"long":141.3034366,"status":0.0,"note":null,"address":"石巻市成田字境前１９９番地２","row_num":1507},{"area_id":6,"name":"吉野老人憩の家道路向い畑地","lat":38.5256469,"long":141.2994689,"status":0.0,"note":null,"address":"石巻市飯野字袖吉野３番地１","row_num":1508},{"area_id":6,"name":"個人宅道路向い雑種地","lat":38.5252038,"long":141.2932396,"status":0.0,"note":null,"address":"石巻市飯野字内吉野１３２番地１","row_num":1509},{"area_id":6,"name":"本地老人憩の家敷地","lat":38.5342535,"long":141.2913088,"status":0.0,"note":null,"address":"石巻市飯野字宮前４１番地","row_num":1510},{"area_id":6,"name":"新田交流会館脇児童公園フェンス","lat":38.5295252,"long":141.2753049,"status":0.0,"note":null,"address":"石巻市飯野字浦谷地沖６９番地１","row_num":1511},{"area_id":6,"name":"個人宅前掲示板脇","lat":38.525065,"long":141.2884034,"status":0.0,"note":null,"address":"石巻市飯野字宮下南１０８番地２地先","row_num":1512},{"area_id":6,"name":"二子東町内会集会所敷地","lat":38.498593,"long":141.2979928,"status":0.0,"note":null,"address":"石巻市二子三丁目３番地２４","row_num":1513},{"area_id":6,"name":"二子西町内会集会所敷地","lat":38.4981343,"long":141.2948031,"status":0.0,"note":null,"address":"石巻市二子二丁目１５番地１１","row_num":1514},{"area_id":6,"name":"二子南町内会集会所敷地","lat":38.496847,"long":141.2949853,"status":0.0,"note":null,"address":"石巻市二子一丁目１０番地１８","row_num":1515},{"area_id":6,"name":"北境老人憩の家東側道路敷","lat":38.4707253,"long":141.310947,"status":0.0,"note":null,"address":"石巻市北境字上待井１番地先","row_num":1516},{"area_id":6,"name":"東福田農事集会所脇道路敷","lat":38.4870851,"long":141.313332,"status":0.0,"note":null,"address":"石巻市東福田字小谷地１７０番地１地先","row_num":1517},{"area_id":6,"name":"個人宅道路向い道路敷","lat":38.4826106,"long":141.3239495,"status":0.0,"note":null,"address":"石巻市東福田字岡谷地2番地先","row_num":1518},{"area_id":6,"name":"個人宅前道路敷","lat":38.4916753,"long":141.3173213,"status":0.0,"note":null,"address":"石巻市大森字新大土１０番１地先","row_num":1519},{"area_id":6,"name":"尾崎バス停留所脇道路敷","lat":38.4994102,"long":141.3213642,"status":0.0,"note":null,"address":"石巻市大森字大平３番地１","row_num":1520},{"area_id":6,"name":"辻堂地区県道石巻河北線道路敷","lat":38.5056695,"long":141.3122682,"status":0.0,"note":null,"address":"石巻市大森字新町頭１１番地３前","row_num":1521},{"area_id":6,"name":"三輪田上区親林交流館入口先道路敷","lat":38.5050657,"long":141.3236147,"status":0.0,"note":null,"address":"石巻市三輪田字堀ノ内115番地地先","row_num":1522},{"area_id":6,"name":"大森公民館脇雑種地","lat":38.496975,"long":141.3210134,"status":0.0,"note":null,"address":"石巻市大森字内田４３２番地３","row_num":1523},{"area_id":6,"name":"個人宅道路向かい道路敷地","lat":38.5058578,"long":141.3423235,"status":0.0,"note":null,"address":"石巻市三輪田字中区前東22番地","row_num":1524},{"area_id":6,"name":"個人宅前道路敷地","lat":38.5192334,"long":141.34457,"status":0.0,"note":null,"address":"石巻市三輪田字仲里前１２２番地地先","row_num":1525},{"area_id":6,"name":"三輪田赤柴バス停前空地","lat":38.520578,"long":141.351339,"status":0.0,"note":null,"address":"石巻市三輪田字梅木１０３番地","row_num":1526},{"area_id":6,"name":"三輪田竹ノ迫バス停付近市道路肩","lat":38.509149,"long":141.3352873,"status":0.0,"note":null,"address":"石巻市三輪田字竹ノ迫五百刈１０番地１地先","row_num":1527},{"area_id":6,"name":"個人宅前道路敷","lat":38.5281134,"long":141.3748434,"status":0.0,"note":null,"address":"石巻市福地字堤上１１２番地２地先","row_num":1528},{"area_id":6,"name":"八幡神社前敷地","lat":38.5356181,"long":141.3864652,"status":0.0,"note":null,"address":"石巻市福地字町８６番地１","row_num":1529},{"area_id":6,"name":"大川保育所跡地フェンス","lat":38.5340301,"long":141.3843105,"status":0.0,"note":null,"address":"石巻市福地字町１４９番地1","row_num":1530},{"area_id":6,"name":"福地防災倉庫脇道路敷","lat":38.5239303,"long":141.3724884,"status":0.0,"note":null,"address":"石巻市福地字前田１０８番地","row_num":1531},{"area_id":6,"name":"谷地ゲートボール場・公園敷地","lat":38.5371439187,"long":141.4025489815,"status":0.0,"note":null,"address":"石巻市福地字國土１３２番地８１","row_num":1532},{"area_id":6,"name":"個人宅前畑地","lat":38.5160674,"long":141.4076582,"status":0.0,"note":null,"address":"石巻市針岡字向田上道１１８番地","row_num":1533},{"area_id":6,"name":"個人宅向い防火水槽脇雑種地","lat":38.5280482,"long":141.4244369,"status":0.0,"note":null,"address":"石巻市針岡字芦早５４番地１","row_num":1534},{"area_id":6,"name":"入釜谷バス停留所脇道路敷","lat":38.5430033,"long":141.4303852,"status":0.0,"note":null,"address":"石巻市釜谷字西宮山１０６番地２地先","row_num":1535},{"area_id":6,"name":"立浜地区番屋脇法面","lat":38.506037,"long":141.517182,"status":0.0,"note":null,"address":"石巻市雄勝町立浜字立浜２７番地３","row_num":1536},{"area_id":6,"name":"雄心苑入口市有地","lat":38.5121134,"long":141.5025721,"status":0.0,"note":null,"address":"石巻市雄勝町小島字和田１２３番地","row_num":1537},{"area_id":6,"name":"雄勝中央団地会館","lat":38.5201071,"long":141.4666215,"status":0.0,"note":null,"address":"石巻市雄勝町雄勝字下雄勝１２番地２９","row_num":1538},{"area_id":6,"name":"旧雄勝中学校敷地（百万本植樹付近）","lat":38.5111035,"long":141.459444,"status":0.0,"note":null,"address":"石巻市雄勝町雄勝字寺４番地３","row_num":1539},{"area_id":6,"name":"原地区消防ポンプ置場","lat":38.4990877,"long":141.446187,"status":0.0,"note":null,"address":"石巻市雄勝町雄勝字原５番地９","row_num":1540},{"area_id":6,"name":"名振コミュニティセンター入口","lat":38.5303655,"long":141.4968861,"status":1.0,"note":null,"address":"石巻市雄勝町名振字東４５番地１","row_num":1541},{"area_id":6,"name":"市道船越大浜線道路敷船越入口三叉路付近","lat":38.5317486,"long":141.5139041,"status":0.0,"note":null,"address":"石巻市雄勝町船越字天王山３３５番地１地先(国有林)","row_num":1542},{"area_id":6,"name":"荒地区集会所敷地内","lat":38.5278779,"long":141.5274188,"status":0.0,"note":null,"address":"石巻市雄勝町船越字荒２０４番地","row_num":1543},{"area_id":6,"name":"水浜地区入口Ｙ路地正面","lat":38.5054299,"long":141.4874684,"status":0.0,"note":null,"address":"石巻市雄勝町水浜字小浜３０番地６","row_num":1544},{"area_id":6,"name":"旧水浜漁村センター向い市有地","lat":38.4996788,"long":141.4869223,"status":0.0,"note":null,"address":"石巻市雄勝町水浜字水浜４６番地６","row_num":1545},{"area_id":6,"name":"水浜漁村センター向い市有地","lat":38.5015396,"long":141.4853398,"status":0.0,"note":null,"address":"石巻市雄勝町水浜字水浜１０５番地８","row_num":1546},{"area_id":6,"name":"波板地区入口陸橋下付近","lat":38.4902143,"long":141.4852193,"status":0.0,"note":null,"address":"石巻市雄勝町分浜字波板３３番地２","row_num":1547},{"area_id":6,"name":"国道３９８号分浜地区入口","lat":38.4973291,"long":141.4887738,"status":0.0,"note":null,"address":"石巻市雄勝町分浜字分浜１１７番地２","row_num":1548},{"area_id":6,"name":"大須集会所敷地内","lat":38.521037,"long":141.5402436,"status":0.0,"note":null,"address":"石巻市雄勝町大須字船隠１番地２","row_num":1549},{"area_id":6,"name":"旧大須中学校入口前市有地","lat":38.5151044,"long":141.530213,"status":0.0,"note":null,"address":"石巻市雄勝町大須字舘森５番地地先(公道)","row_num":1550},{"area_id":6,"name":"旧大須小学校入口前市有地","lat":38.5122087,"long":141.5362207,"status":0.0,"note":null,"address":"石巻市雄勝町大須字大須２５１番地２","row_num":1551},{"area_id":6,"name":"熊沢地区入口道路敷","lat":38.503673,"long":141.53477,"status":0.0,"note":null,"address":"石巻市雄勝町熊沢字大畑２番地４","row_num":1552},{"area_id":6,"name":"羽坂漁港入口","lat":38.4961887,"long":141.5332985,"status":1.0,"note":null,"address":"石巻市雄勝町桑浜字羽坂３４番地２","row_num":1553},{"area_id":6,"name":"羽坂老人憩の家前市有地","lat":38.4956672,"long":141.5307769,"status":1.0,"note":null,"address":"石巻市雄勝町桑浜字羽坂４１９番地","row_num":1554},{"area_id":6,"name":"桑浜地区入口道路敷","lat":38.4977774,"long":141.5248816,"status":1.0,"note":null,"address":"石巻市雄勝町桑浜字桑浜６５番地８","row_num":1555},{"area_id":6,"name":"新田公会堂","lat":38.461778,"long":141.1965206,"status":0.0,"note":null,"address":"石巻市広渕字新田１８番地２","row_num":1556},{"area_id":6,"name":"雁北集会所表","lat":38.471435,"long":141.1909841,"status":0.0,"note":null,"address":"石巻市広渕字牛頭５番地１先","row_num":1557},{"area_id":6,"name":"河南学校給食センターフェンス","lat":38.4719553,"long":141.2060705,"status":0.0,"note":null,"address":"石巻市広渕字町北７５番地１","row_num":1558},{"area_id":6,"name":"個人宅所有地","lat":38.471572,"long":141.2099372,"status":1.0,"note":null,"address":"石巻市広渕字町４７番地","row_num":1559},{"area_id":6,"name":"個人宅前所有地","lat":38.4738078,"long":141.2175926,"status":0.0,"note":null,"address":"石巻市広渕字馬場屋敷５１番地３","row_num":1560},{"area_id":6,"name":"砂押会館フェンス","lat":38.4727944,"long":141.2245035,"status":0.0,"note":null,"address":"石巻市広渕字柏木前１３５番地","row_num":1561},{"area_id":6,"name":"個人宅前畑","lat":38.4747066,"long":141.2148355,"status":0.0,"note":null,"address":"石巻市広渕字舘前１２番地１先","row_num":1562},{"area_id":6,"name":"柏木ふれあいセンターフェンス","lat":38.4772678,"long":141.2234969,"status":0.0,"note":null,"address":"石巻市広渕字砂四１番地１","row_num":1563},{"area_id":6,"name":"個人宅前","lat":38.4659771,"long":141.239937,"status":0.0,"note":null,"address":"石巻市須江字山崎９２番地先","row_num":1564},{"area_id":6,"name":"西雲寺駐車場西側","lat":38.4790582,"long":141.2383567,"status":1.0,"note":null,"address":"石巻市須江字新寺前２番地","row_num":1565},{"area_id":6,"name":"河南山根中埣転作推進集落センター前フェンス","lat":38.4567606,"long":141.2478889,"status":0.0,"note":null,"address":"石巻市須江字沢尻２０番地２","row_num":1566},{"area_id":6,"name":"しらさぎ台コミュニティーセンターフェンス","lat":38.4656171,"long":141.2414494,"status":1.0,"note":null,"address":"石巻市須江字しらさぎ台３丁目３４番地","row_num":1567},{"area_id":6,"name":"しらさぎ台２号公園","lat":38.4684158,"long":141.2402057,"status":1.0,"note":null,"address":"石巻市須江字しらさぎ台３丁目４１番地","row_num":1568},{"area_id":6,"name":"しらさぎ台３号公園","lat":38.464356,"long":141.244833,"status":0.0,"note":null,"address":"石巻市須江字しらさぎ台３丁目４６番地","row_num":1569},{"area_id":6,"name":"河南須江農村定住センターフェンス","lat":38.4755945,"long":141.2401906,"status":0.0,"note":null,"address":"石巻市須江字沢田前３番地","row_num":1570},{"area_id":6,"name":"防火水槽Ｄ－２１敷地内","lat":38.470582,"long":141.2534145,"status":0.0,"note":null,"address":"石巻市須江字正太郎１４５番地３","row_num":1571},{"area_id":6,"name":"糠塚生活センター表","lat":38.4925382,"long":141.2390219,"status":0.0,"note":null,"address":"石巻市須江字糠塚４７番地１","row_num":1572},{"area_id":6,"name":"個人宅所有地","lat":38.4973807,"long":141.2381862,"status":0.0,"note":null,"address":"石巻市須江字古土手１番地２","row_num":1573},{"area_id":6,"name":"個人宅所有ハウス前","lat":38.487385,"long":141.2758329,"status":0.0,"note":null,"address":"石巻市鹿又字新内田９２番地１先","row_num":1574},{"area_id":6,"name":"鹿又小学校前フェンス","lat":38.4818486,"long":141.2800461,"status":0.0,"note":null,"address":"石巻市鹿又字矢袋屋敷合３１番地","row_num":1575},{"area_id":6,"name":"谷地中老人憩の家表","lat":38.4871738,"long":141.2862964,"status":0.0,"note":null,"address":"石巻市鹿又字観音裏１３７番地１","row_num":1576},{"area_id":6,"name":"曽波神多目的研修センターフェンス","lat":38.4679498,"long":141.289315,"status":0.0,"note":null,"address":"石巻市鹿又字曽波神前１５１番地","row_num":1577},{"area_id":6,"name":"本町コミュニティーセンター表","lat":38.4881294,"long":141.2932469,"status":0.0,"note":null,"address":"石巻市鹿又字伊勢前８４番地２","row_num":1578},{"area_id":6,"name":"個人宅表","lat":38.4829316,"long":141.294591,"status":0.0,"note":null,"address":"石巻市鹿又字大巻前３７番地","row_num":1579},{"area_id":6,"name":"梅木ふれあいセンターフェンス","lat":38.4936101,"long":141.2617038,"status":0.0,"note":null,"address":"石巻市鹿又字梅木屋敷９６番地","row_num":1580},{"area_id":6,"name":"個人所有地","lat":38.4850659,"long":141.2524871,"status":0.0,"note":null,"address":"石巻市鹿又字扇平１４０番地３","row_num":1581},{"area_id":6,"name":"笈入あすなろ館表","lat":38.5194707,"long":141.2240663,"status":0.0,"note":null,"address":"石巻市和渕字中通１５５番地１","row_num":1582},{"area_id":6,"name":"河南農村環境改善センター前","lat":38.4986049,"long":141.2304567,"status":0.0,"note":null,"address":"石巻市和渕字笈入前１番地１","row_num":1583},{"area_id":6,"name":"個人宅表","lat":38.5333716,"long":141.213767,"status":0.0,"note":null,"address":"石巻市和渕字北和渕二番５１番地","row_num":1584},{"area_id":6,"name":"和渕地区コミュニティーセンター表","lat":38.5261617,"long":141.2216938,"status":0.0,"note":null,"address":"石巻市和渕字清水７５番地","row_num":1585},{"area_id":6,"name":"和渕保育所フェンス","lat":38.5250634,"long":141.2240874,"status":0.0,"note":null,"address":"石巻市和渕字日照５番地","row_num":1586},{"area_id":6,"name":"和渕農村公園フェンス","lat":38.5194707,"long":141.2240663,"status":0.0,"note":null,"address":"石巻市和渕字牡丹窪山６５番地１","row_num":1587},{"area_id":6,"name":"個人宅所有地道路向","lat":38.5220605,"long":141.1968785,"status":0.0,"note":null,"address":"石巻市前谷地字新山崎前１４５番地２先","row_num":1588},{"area_id":6,"name":"定川会館フエンス","lat":38.5266815,"long":141.1867269,"status":0.0,"note":null,"address":"石巻市前谷地字沖西２２６番地２","row_num":1589},{"area_id":6,"name":"前谷地小学校フェンス横","lat":38.5197893,"long":141.1907004,"status":0.0,"note":null,"address":"石巻市前谷地字沖埣１２５番地","row_num":1590},{"area_id":6,"name":"ＪＡいしのまき河南資材倉庫北側空き地","lat":38.5160411,"long":141.1958071,"status":0.0,"note":null,"address":"石巻市前谷地字新横沼１９２番地１","row_num":1591},{"area_id":6,"name":"仮設赤羽根団地跡地","lat":38.5077681,"long":141.1987733,"status":0.0,"note":null,"address":"石巻市前谷地字沼下１５番地１","row_num":1592},{"area_id":6,"name":"河南総合支所庁舎前","lat":38.5096259,"long":141.1901141,"status":1.0,"note":null,"address":"石巻市前谷地字黒沢前７番地","row_num":1593},{"area_id":6,"name":"個人宅塀","lat":38.5109614,"long":141.1789619,"status":0.0,"note":null,"address":"石巻市前谷地字大和田前４番地２","row_num":1594},{"area_id":6,"name":"根方山老人憩の家表","lat":38.515691,"long":141.1762983,"status":0.0,"note":null,"address":"石巻市前谷地字根方山５番地５","row_num":1595},{"area_id":6,"name":"個人宅塀","lat":38.5009201,"long":141.1913899,"status":0.0,"note":null,"address":"石巻市北村字前山６１番地","row_num":1596},{"area_id":6,"name":"国道108号線から遊楽館入口左側花壇","lat":38.4938987,"long":141.1991613,"status":0.0,"note":null,"address":"石巻市北村字大溜池９７番地２地先（道）","row_num":1597},{"area_id":6,"name":"俵庭ふれあいセンター表","lat":38.4842018,"long":141.2020056,"status":0.0,"note":null,"address":"石巻市北村字新俵庭１３番地１","row_num":1598},{"area_id":6,"name":"表沢農村公園","lat":38.4819939,"long":141.1937255,"status":0.0,"note":null,"address":"石巻市北村字幕ケ崎５２番地","row_num":1599},{"area_id":6,"name":"箱清水老人憩の家表","lat":38.4988733,"long":141.1867986,"status":0.0,"note":null,"address":"石巻市北村字関田３番地","row_num":1600},{"area_id":6,"name":"青木多目的研修センター表","lat":38.4833732,"long":141.1789031,"status":0.0,"note":null,"address":"石巻市北村字新大日６番地１","row_num":1601},{"area_id":6,"name":"大沢堤西側Ｔ字路","lat":38.5078874,"long":141.1673304,"status":0.0,"note":null,"address":"石巻市北村字大沢堤下４１番地２先","row_num":1602},{"area_id":6,"name":"旭光館跡地フェンス","lat":38.4839422,"long":141.1768512,"status":0.0,"note":null,"address":"石巻市北村字軽井沢前６３番地１","row_num":1603},{"area_id":6,"name":"大番所生活改善センターフェンス","lat":38.4791851,"long":141.1688687,"status":0.0,"note":null,"address":"石巻市北村字久米田７９番地１","row_num":1604},{"area_id":6,"name":"個人宅塀","lat":38.4731432,"long":141.1657331,"status":0.0,"note":null,"address":"石巻市北村字鳥ノ巣三１番地７","row_num":1605},{"area_id":6,"name":"高須賀上ごみ集積所脇","lat":38.5235776,"long":141.2352953,"status":0.0,"note":null,"address":"石巻市桃生町高須賀字内田４４番地５","row_num":1606},{"area_id":6,"name":"個人所有空き地","lat":38.510287,"long":141.2402938,"status":0.0,"note":null,"address":"石巻市桃生町高須賀字下畑６８番地","row_num":1607},{"area_id":6,"name":"個人所有県道前空き地","lat":38.5283828,"long":141.2295842,"status":0.0,"note":null,"address":"石巻市桃生町神取字山畑１５５番地３","row_num":1608},{"area_id":6,"name":"高須賀字萩臥地区県道路肩","lat":38.5028642,"long":141.2492536,"status":0.0,"note":null,"address":"石巻市桃生町高須賀字萩臥６番地１２付近","row_num":1609},{"area_id":6,"name":"高須賀定住センター入口交差点市道路肩","lat":38.517844,"long":141.246378,"status":0.0,"note":null,"address":"石巻市桃生町高須賀字新元田７４番地","row_num":1610},{"area_id":6,"name":"㈱タカジョー前交差点市道路肩","lat":38.5235776,"long":141.2352953,"status":0.0,"note":null,"address":"石巻市桃生町高須賀字内田５１番地１","row_num":1611},{"area_id":6,"name":"神取字川前地区県道路肩","lat":38.5277307,"long":141.2289959,"status":0.0,"note":null,"address":"石巻市桃生町神取字川前１６番地２付近","row_num":1612},{"area_id":6,"name":"桃神運送駐車場","lat":38.5324593,"long":141.235931,"status":0.0,"note":null,"address":"石巻市桃生町神取字山下４１番地１","row_num":1613},{"area_id":6,"name":"㈱草新舎付近交差点(ゼブラゾーン側)","lat":38.5354183,"long":141.2377458,"status":0.0,"note":null,"address":"石巻市桃生町神取字町浦２７番地３付近","row_num":1614},{"area_id":6,"name":"せんだんの杜ものう県道向かい畑","lat":38.5406066,"long":141.2376026,"status":0.0,"note":null,"address":"石巻市桃生町給人町字西町１６４番地１","row_num":1615},{"area_id":6,"name":"うしちゃんファーム向かい空地","lat":38.5301685,"long":141.2293419,"status":0.0,"note":null,"address":"石巻市桃生町神取字山畑１０５番地","row_num":1616},{"area_id":6,"name":"アグリサービス高勝向かい市道路肩","lat":38.5309356,"long":141.2357145,"status":0.0,"note":null,"address":"石巻市桃生町神取字鹿島１２２番地１","row_num":1617},{"area_id":6,"name":"（株）倉元製作所桃生工場跡フェンス前市道","lat":38.5434204,"long":141.241442,"status":0.0,"note":null,"address":"石巻市桃生町給人町上侭田１７番地２","row_num":1618},{"area_id":6,"name":"一里塚跡標柱隣り","lat":38.5454499,"long":141.237844,"status":0.0,"note":null,"address":"石巻市桃生町給人町字東町６０番地","row_num":1619},{"area_id":6,"name":"個人宅前","lat":38.5467695,"long":141.239463,"status":0.0,"note":null,"address":"石巻市桃生町新田字東町５５番地２","row_num":1620},{"area_id":6,"name":"ウジエスーパー桃生店向かい空き地","lat":38.560451,"long":141.2449241,"status":0.0,"note":null,"address":"石巻市桃生町中津山字江下１８０番地１","row_num":1621},{"area_id":6,"name":"中津山班消防詰所フェンス","lat":38.5632974,"long":141.2453071,"status":0.0,"note":null,"address":"石巻市桃生町中津山字内八木１１１番地６","row_num":1622},{"area_id":6,"name":"中津山教員住宅","lat":38.5674868,"long":141.2452186,"status":0.0,"note":null,"address":"石巻市桃生町中津山字中津山８番地１","row_num":1623},{"area_id":6,"name":"個人所有県道前空き地","lat":38.5727773,"long":141.2491862,"status":0.0,"note":null,"address":"石巻市桃生町寺崎字松木畑３番地","row_num":1624},{"area_id":6,"name":"寺崎字八木ごみ集積所脇","lat":38.5769756,"long":141.2518187,"status":0.0,"note":null,"address":"石巻市桃生町寺崎字八木１番地５地先","row_num":1625},{"area_id":6,"name":"ジャスミン通り　市有地","lat":38.5565886,"long":141.238734,"status":0.0,"note":null,"address":"石巻市桃生町中津山字下四軒６２番地１","row_num":1626},{"area_id":6,"name":"若宮八幡神社前ごみ集積所脇","lat":38.5587523,"long":141.2597245,"status":0.0,"note":null,"address":"石巻市桃生町城内字宮前６０番地１","row_num":1627},{"area_id":6,"name":"桃生豊里インター出入口 県道交差点西側","lat":38.5741215,"long":141.2518855,"status":0.0,"note":null,"address":"石巻市桃生町寺崎字新柴先５１番地","row_num":1628},{"area_id":6,"name":"牛田生活センター","lat":38.5794195,"long":141.2643712,"status":0.0,"note":null,"address":"石巻市桃生町牛田字雷１０９番地１","row_num":1629},{"area_id":6,"name":"八雲神社南側フェンス","lat":38.5929655,"long":141.2702751,"status":0.0,"note":null,"address":"石巻市桃生町倉埣字人家３７番地","row_num":1630},{"area_id":6,"name":"個人宅前市道路肩","lat":38.6036428,"long":141.2773521,"status":0.0,"note":null,"address":"石巻市桃生町倉埣字四分一２８番地地先","row_num":1631},{"area_id":6,"name":"個人宅向かい空き地","lat":38.5856707,"long":141.2836332,"status":0.0,"note":null,"address":"石巻市桃生町永井字大堤５番地１","row_num":1632},{"area_id":6,"name":"個人宅脇空き地","lat":38.5805367,"long":141.2653407,"status":1.0,"note":null,"address":"石巻市桃生町牛田字館前１３番地２","row_num":1633},{"area_id":6,"name":"昆布沼南側交差点","lat":38.5883841,"long":141.2739871,"status":1.0,"note":null,"address":"石巻市桃生町倉埣字森笠１８番地１","row_num":1634},{"area_id":6,"name":"脇谷閘門 船着場前県道","lat":38.5975767,"long":141.285338,"status":1.0,"note":null,"address":"石巻市桃生町脇谷字上の山６０番地５","row_num":1635},{"area_id":6,"name":"個人宅脇空き地","lat":38.5652045,"long":141.3068349,"status":0.0,"note":null,"address":"石巻市桃生町樫崎字山田２３４番地１地先","row_num":1636},{"area_id":6,"name":"永井児童遊園前市道路肩","lat":38.5787892,"long":141.2789049,"status":0.0,"note":null,"address":"石巻市桃生町永井字観音下２６番地１地先","row_num":1637},{"area_id":6,"name":"個人所有県道交差点空き地","lat":38.5687329,"long":141.2749398,"status":0.0,"note":null,"address":"石巻市桃生町樫崎字高附２７番地１","row_num":1638},{"area_id":6,"name":"個人宅前空き地","lat":38.5646769,"long":141.2883166,"status":0.0,"note":null,"address":"石巻市桃生町樫崎字取久美１０番地","row_num":1639},{"area_id":6,"name":"個人所有地","lat":38.5589265,"long":141.2741646,"status":0.0,"note":null,"address":"石巻市桃生町太田字新谷田２２９番地","row_num":1640},{"area_id":6,"name":"永井八幡ごみ集積所脇","lat":38.5796262,"long":141.2777515,"status":0.0,"note":null,"address":"石巻市桃生町永井字八幡１１番地１付近","row_num":1641},{"area_id":6,"name":"ＪＡいしのまき北部農機センター前県道","lat":38.5650723,"long":141.2744164,"status":0.0,"note":null,"address":"石巻市桃生町樫崎字新南崎１５９番地","row_num":1642},{"area_id":6,"name":"九郎沢入口県道路肩","lat":38.5614299,"long":141.2820438,"status":0.0,"note":null,"address":"石巻市桃生町太田字千刈１０８番地","row_num":1643},{"area_id":6,"name":"個人ハウス前","lat":38.5521011,"long":141.2751494,"status":0.0,"note":null,"address":"石巻市桃生町太田字細谷１９５番地１","row_num":1644},{"area_id":6,"name":"個人宅前空き地","lat":38.5541194,"long":141.2640772,"status":0.0,"note":null,"address":"石巻市桃生町太田字袖沢９３番地１","row_num":1645},{"area_id":6,"name":"個人宅前市道路肩","lat":38.5490147,"long":141.2695585,"status":0.0,"note":null,"address":"石巻市桃生町太田字薬田４２番地５地先","row_num":1646},{"area_id":6,"name":"個人所有市道脇空き地","lat":38.5373915,"long":141.2688566,"status":0.0,"note":null,"address":"石巻市桃生町太田字峯畑３６番地２","row_num":1647},{"area_id":6,"name":"個人所有県道沿い畑","lat":38.549523,"long":141.2847258,"status":0.0,"note":null,"address":"石巻市桃生町太田字中下７０番地２","row_num":1648},{"area_id":6,"name":"薬田班消防詰所前(袖沢会館)","lat":38.5541194,"long":141.2640772,"status":0.0,"note":null,"address":"石巻市桃生町太田字袖沢９１番地２","row_num":1649},{"area_id":6,"name":"釣具のおおとり向かい防火水槽脇","lat":38.5452276,"long":141.2664414,"status":0.0,"note":null,"address":"石巻市桃生町太田字五百刈１５番地先","row_num":1650},{"area_id":6,"name":"宗全山集会所前","lat":38.5438812,"long":141.2776527,"status":0.0,"note":null,"address":"石巻市桃生町太田字万才山３番地","row_num":1651},{"area_id":6,"name":"個人宅付近","lat":38.5466532,"long":141.385813,"status":0.0,"note":null,"address":"石巻市北上町橋浦字曽呂美２４４番地３","row_num":1652},{"area_id":6,"name":"愛宕神社付近県道標識柱付近","lat":38.5448272,"long":141.4021418,"status":0.0,"note":null,"address":"石巻市北上町橋浦字上大須６５５番地２地先","row_num":1653},{"area_id":6,"name":"川原田商店跡地（栄屋食堂向かい）","lat":38.5484877,"long":141.4089568,"status":0.0,"note":null,"address":"石巻市北上町橋浦字大須７４番地１","row_num":1654},{"area_id":6,"name":"佐藤リース資材置き場付近","lat":38.5539833,"long":141.4031712,"status":0.0,"note":null,"address":"石巻市北上町長尾字東前７４番地地先","row_num":1655},{"area_id":6,"name":"釜谷崎地区防集団地内","lat":38.5582342,"long":141.4122513,"status":0.0,"note":null,"address":"石巻市北上町女川字上待井４３番地２１地先","row_num":1656},{"area_id":6,"name":"個人宅付近（県道路側帯部）","lat":38.5668504,"long":141.4059982,"status":0.0,"note":null,"address":"石巻市北上町女川字南３２番地１地先","row_num":1657},{"area_id":6,"name":"個人宅付近（市道歩道花壇部）","lat":38.5694804,"long":141.408588,"status":0.0,"note":null,"address":"石巻市北上町女川字中田３３番地２地先","row_num":1658},{"area_id":6,"name":"個人宅付近","lat":38.5728434,"long":141.4035769,"status":0.0,"note":null,"address":"石巻市北上町女川字要害12番地６","row_num":1659},{"area_id":6,"name":"にっこりサンパーク内","lat":38.567463,"long":141.4258612,"status":0.0,"note":null,"address":"石巻市北上町十三浜字小田９３番地４","row_num":1660},{"area_id":6,"name":"にっこり地区防集団地内","lat":38.5701234,"long":141.4212362,"status":0.0,"note":null,"address":"石巻市北上町十三浜字小田１１８番地２０２","row_num":1661},{"area_id":6,"name":"吉浜公民館跡地向かい","lat":38.5756023,"long":141.4397031,"status":0.0,"note":null,"address":"石巻市北上町十三浜字吉浜１４番地","row_num":1662},{"area_id":6,"name":"月浜・吉浜防集団地入り口付近","lat":38.5748121,"long":141.4500924,"status":0.0,"note":null,"address":"石巻市北上町十三浜字月浜１０８番地２地先","row_num":1663},{"area_id":6,"name":"白浜・長塩谷防集団地内","lat":38.5978643,"long":141.4635161,"status":0.0,"note":null,"address":"石巻市北上町十三浜字長塩谷８番地６","row_num":1664},{"area_id":6,"name":"小室地区防集団地内","lat":38.5899334,"long":141.490895,"status":1.0,"note":null,"address":"石巻市北上町十三浜字上ノ山７番地７","row_num":1665},{"area_id":6,"name":"大室地区防集団地内","lat":38.5942916,"long":141.4943464,"status":0.0,"note":null,"address":"石巻市北上町十三浜字大室１０番地３９","row_num":1666},{"area_id":6,"name":"相川コミュニティセンター向かい(国道路側帯部)","lat":38.5970609,"long":141.4985191,"status":0.0,"note":null,"address":"石巻市北上町十三浜字猪の沢５７番地４","row_num":1667},{"area_id":6,"name":"小泊地区防集団地内","lat":38.600019,"long":141.5002115,"status":0.0,"note":null,"address":"石巻市北上町十三浜字小泊５３番地１","row_num":1668},{"area_id":6,"name":"相川保育所入口付近","lat":38.6061248,"long":141.5011158,"status":1.0,"note":null,"address":"石巻市北上町十三浜字崎山１７８番地２","row_num":1669},{"area_id":6,"name":"浪田公園付近","lat":38.6083276,"long":141.5127337,"status":0.0,"note":null,"address":"石巻市北上町十三浜字浪田６８番地４","row_num":1670},{"area_id":6,"name":"大指林業者生活センター向かい","lat":38.6072438,"long":141.5188458,"status":0.0,"note":null,"address":"石巻市北上町十三浜字松ノ坂４３番地１地先","row_num":1671},{"area_id":6,"name":"大指山居地内","lat":38.6129342,"long":141.5205675,"status":0.0,"note":null,"address":"石巻市北上町十三浜字山居３５番地３地先","row_num":1672},{"area_id":6,"name":"小滝西條石油店付近（畑）","lat":38.6220142,"long":141.522579,"status":0.0,"note":null,"address":"石巻市北上町十三浜字小滝１０１番地１地先","row_num":1673},{"area_id":6,"name":"旧牡鹿公民館前バス停脇","lat":38.3015792,"long":141.5091213,"status":1.0,"note":null,"address":"石巻市鮎川浜湊川６３番地","row_num":1674},{"area_id":6,"name":"鮎川集会所脇","lat":38.2980341,"long":141.5119633,"status":0.0,"note":null,"address":"石巻市鮎川浜寺前１４番地４","row_num":1675},{"area_id":6,"name":"清崎入口Ｔ字路鮎小下","lat":38.2953296,"long":141.498827,"status":0.0,"note":null,"address":"石巻市鮎川浜清崎山４番地先","row_num":1676},{"area_id":6,"name":"鮎川浜金山バス停前","lat":38.3153372,"long":141.5092696,"status":0.0,"note":null,"address":"石巻市鮎川浜四ツ小谷１７番地","row_num":1677},{"area_id":6,"name":"鮎川浜熊野児玉邸向い","lat":38.2998834,"long":141.5113368,"status":0.0,"note":null,"address":"石巻市鮎川浜熊野７番地３","row_num":1678},{"area_id":6,"name":"寺山地区入口","lat":38.3087813,"long":141.4908521,"status":0.0,"note":null,"address":"石巻市十八成浜寺山１番地２地先","row_num":1679},{"area_id":6,"name":"十八成浜防災集団移転団地入口","lat":38.3100926,"long":141.4934746,"status":0.0,"note":null,"address":"石巻市十八成浜十八成１１３番地","row_num":1680},{"area_id":6,"name":"十八成浜小沢バス停向い","lat":38.307159,"long":141.4989538,"status":1.0,"note":null,"address":"石巻市十八成浜大嵐山４番２５２脇","row_num":1681},{"area_id":6,"name":"宮城県漁業協同組合網地島支所跡地","lat":38.2553557,"long":141.4941637,"status":0.0,"note":null,"address":"石巻市長渡浜長渡６３番地","row_num":1682},{"area_id":6,"name":"牡鹿消防団長渡分団詰所前","lat":38.2534723,"long":141.4945604,"status":0.0,"note":null,"address":"石巻市長渡浜大金１番地２","row_num":1683},{"area_id":6,"name":"網小医院バス停前","lat":38.2661671,"long":141.4778838,"status":0.0,"note":null,"address":"石巻市長渡浜杉１３番地３地先","row_num":1684},{"area_id":6,"name":"個人宅Ｙ字路付近","lat":38.2704319,"long":141.4602792,"status":0.0,"note":null,"address":"石巻市網地浜粟ヶ崎１９番１１地先","row_num":1685},{"area_id":6,"name":"個人所有空き地前","lat":38.273198,"long":141.4681572,"status":0.0,"note":null,"address":"石巻市網地浜髪剃坂１０６番地７地先","row_num":1686},{"area_id":6,"name":"旧網地島漁業協同組合網地支所前","lat":38.272904,"long":141.4601112,"status":0.0,"note":null,"address":"石巻市網地浜網地４９番地先","row_num":1687},{"area_id":6,"name":"新山浜バス停","lat":38.3303242,"long":141.5214673,"status":0.0,"note":null,"address":"石巻市新山浜入浜１番地地先","row_num":1688},{"area_id":6,"name":"小渕南防災集団移転団地県道脇","lat":38.3223742,"long":141.4775034,"status":0.0,"note":null,"address":"石巻市小渕浜南１番地１","row_num":1689},{"area_id":6,"name":"給分防災集団移転団地入口向い","lat":38.3272891,"long":141.4735187,"status":1.0,"note":null,"address":"石巻市給分浜給分２１番地３","row_num":1690},{"area_id":6,"name":"ファミリーマート牡鹿店向い","lat":38.3248461,"long":141.4807647,"status":0.0,"note":null,"address":"石巻市給分浜羽黒下２１番地１地先","row_num":1691},{"area_id":6,"name":"大原出張所入口","lat":38.3340907,"long":141.4744203,"status":1.0,"note":null,"address":"石巻市大原浜字町１６番地１","row_num":1692},{"area_id":6,"name":"小網倉防災集団移転団地公園","lat":38.351446,"long":141.462404,"status":1.0,"note":null,"address":"石巻市小網倉安藤沢９番地３０","row_num":1693},{"area_id":6,"name":"大原防災集団移転団地入口","lat":38.3374725,"long":141.4767357,"status":0.0,"note":null,"address":"石巻市大原浜大草山２１番地地先","row_num":1694},{"area_id":6,"name":"表浜漁港","lat":38.3229616,"long":141.4692679,"status":0.0,"note":null,"address":"石巻市小渕浜カント２９番地先","row_num":1695},{"area_id":6,"name":"清水田県道脇","lat":38.3401258,"long":141.4649415,"status":1.0,"note":null,"address":"石巻市清水田浜イロミ３３番地１地先","row_num":1696},{"area_id":6,"name":"泊浜防災集団移転団地入口","lat":38.3558973,"long":141.5180364,"status":0.0,"note":null,"address":"石巻市泊浜台１１番地３地先","row_num":1697},{"area_id":6,"name":"泊漁港入口","lat":38.344858,"long":141.5236285,"status":1.0,"note":null,"address":"石巻市泊浜泊９５番地地先","row_num":1698},{"area_id":6,"name":"個人宅敷地脇","lat":38.3567561,"long":141.4852471,"status":0.0,"note":null,"address":"石巻市谷川浜川原２番地１","row_num":1699},{"area_id":6,"name":"大谷川防災集団移転団地内","lat":38.3754749,"long":141.4799632,"status":1.0,"note":null,"address":"石巻市大谷川浜小浜山５１番地内","row_num":1700},{"area_id":6,"name":"鮫浦防災集団移転第一団地入口","lat":38.3809511,"long":141.4854646,"status":1.0,"note":null,"address":"石巻市鮫浦細田８４番地","row_num":1701},{"area_id":6,"name":"前網－寄磯浜林道入口","lat":38.3907475,"long":141.5167244,"status":1.0,"note":null,"address":"石巻市前網浜田鳥３番地７","row_num":1702},{"area_id":6,"name":"前網浜第一防災集団移転団地向かい","lat":38.3926188,"long":141.5082634,"status":1.0,"note":null,"address":"石巻市前網浜オソヒ沢山１番地３７道路向かい","row_num":1703},{"area_id":6,"name":"寄磯地区入口","lat":38.3905476,"long":141.53542,"status":1.0,"note":null,"address":"石巻市寄磯浜前浜１２３番地","row_num":1704},{"area_id":16,"name":"栄町街区公園","lat":38.4202665,"long":141.2106345,"status":1.0,"note":null,"address":"東松島市矢本字栄町７４番地","row_num":3290},{"area_id":16,"name":"七十七銀行矢本支店駐車場フェンス","lat":38.4194358,"long":141.2120398,"status":0.0,"note":null,"address":"東松島市矢本字上新沼１４番地１","row_num":3291},{"area_id":16,"name":"上町地区コミュニティ供用施設（上町分館）市道沿フェンス","lat":38.4195331,"long":141.2099059,"status":1.0,"note":null,"address":"東松島市矢本字河戸８番地","row_num":3292},{"area_id":16,"name":"上町地区集会所西側フェンス","lat":38.4212623,"long":141.2112672,"status":0.0,"note":null,"address":"東松島市矢本字寿町２５番地","row_num":3293},{"area_id":16,"name":"住宅ブロック塀","lat":38.4228508,"long":141.2130192,"status":0.0,"note":null,"address":"東松島市矢本字河戸４０番地２","row_num":3294},{"area_id":16,"name":"東松島市立矢本西小学校南側フェンス","lat":38.4218896,"long":141.2027284,"status":1.0,"note":null,"address":"東松島市矢本字四反走６３番地","row_num":3295},{"area_id":16,"name":"宮城県東松島高校西側フェンス","lat":38.4237989,"long":141.211616,"status":1.0,"note":null,"address":"東松島市矢本字上河戸１６番地","row_num":3296},{"area_id":16,"name":"市営小松南住宅集会所","lat":38.4293865,"long":141.2022915,"status":0.0,"note":null,"address":"東松島市小松字谷地１７０番地１","row_num":3297},{"area_id":16,"name":"東松島市民体育館フェンス","lat":38.4269831,"long":141.2073883,"status":1.0,"note":null,"address":"東松島市小松字上浮足１６４番地","row_num":3298},{"area_id":16,"name":"道地地区コミュニティ供用施設フェンス","lat":38.4152177,"long":141.1952387,"status":0.0,"note":null,"address":"東松島市矢本字三間堀１４番地","row_num":3299},{"area_id":16,"name":"東松島市矢本西市民センターフェンス","lat":38.4239866,"long":141.2016678,"status":1.0,"note":null,"address":"東松島市小松字向田１９８番地１","row_num":3300},{"area_id":16,"name":"立沼生活センター（立沼農村公園）フェンス","lat":38.4102236,"long":141.2066752,"status":0.0,"note":null,"address":"東松島市矢本字立沼２６番地２","row_num":3301},{"area_id":16,"name":"東松島市立矢本東小学校北側フェンス","lat":38.4259295,"long":141.2134671,"status":0.0,"note":null,"address":"東松島市矢本字大溜１２６番地１","row_num":3302},{"area_id":16,"name":"若葉公園南側フェンス（小松字若葉地内）","lat":38.428888,"long":141.2093172,"status":0.0,"note":null,"address":"東松島市小松字若葉４番地１１","row_num":3303},{"area_id":16,"name":"東松島市役所北側フェンス","lat":38.4261574,"long":141.2102376,"status":0.0,"note":null,"address":"東松島市矢本字上河戸３６番地１","row_num":3304},{"area_id":16,"name":"東松島市地域福祉交流プラザフェンス","lat":38.4275014,"long":141.2149988,"status":1.0,"note":null,"address":"東松島市矢本字大溜８１番地","row_num":3305},{"area_id":16,"name":"東松島市役所南側","lat":38.4261574,"long":141.2102376,"status":1.0,"note":null,"address":"東松島市矢本字上河戸３６番地１","row_num":3306},{"area_id":16,"name":"あおい西集会所フェンス","lat":38.4282787,"long":141.2183352,"status":1.0,"note":null,"address":"東松島市あおい一丁目１０番地２","row_num":3307},{"area_id":16,"name":"あおい二丁目公園フェンス","lat":38.4298915,"long":141.2221348,"status":1.0,"note":null,"address":"東松島市あおい二丁目５番地５","row_num":3308},{"area_id":16,"name":"住宅ブロック塀","lat":38.4212327,"long":141.2181909,"status":1.0,"note":null,"address":"東松島市矢本字大林２２番地","row_num":3309},{"area_id":16,"name":"下町地区コミュニティ供用施設フェンス","lat":38.4236746,"long":141.2188058,"status":0.0,"note":null,"address":"東松島市矢本字町浦１５４番地","row_num":3310},{"area_id":16,"name":"住宅東側フェンス","lat":38.4232367,"long":141.2196057,"status":0.0,"note":null,"address":"東松島市矢本字北浦４８９番地１","row_num":3311},{"area_id":16,"name":"下浦公園フェンス","lat":38.4272078,"long":141.222089,"status":0.0,"note":null,"address":"東松島市矢本字下浦２５８番地２","row_num":3312},{"area_id":16,"name":"つながる家フェンス","lat":38.4277755,"long":141.2228924,"status":0.0,"note":null,"address":"東松島市矢本字下浦１９６番地１","row_num":3313},{"area_id":16,"name":"下街道雨水調整池フェンス","lat":38.4190753,"long":141.2185879,"status":0.0,"note":null,"address":"東松島市矢本字南浦１２４番地","row_num":3314},{"area_id":16,"name":"関の内公園フェンス","lat":38.4217372,"long":141.2239004,"status":0.0,"note":null,"address":"東松島市矢本字関の内地内","row_num":3315},{"area_id":16,"name":"ウッディーゴルフスクエアー矢本東側空地","lat":38.4198382,"long":141.2250299,"status":0.0,"note":null,"address":"東松島市矢本字蜂谷浦１４５番地２","row_num":3316},{"area_id":16,"name":"関の内地区コミュニティ供用施設フェンス","lat":38.4240218,"long":141.2254375,"status":0.0,"note":null,"address":"東松島市矢本字関の内５５番地５","row_num":3317},{"area_id":16,"name":"旧加藤医院ブロック塀","lat":38.4237317,"long":141.2233876,"status":1.0,"note":null,"address":"東松島市矢本字関の内４１番地","row_num":3318},{"area_id":16,"name":"住宅ブロック塀","lat":38.4107841,"long":141.1905342,"status":0.0,"note":null,"address":"東松島市矢本字太子前８４番地２","row_num":3319},{"area_id":16,"name":"住宅ブロック塀","lat":38.4021487,"long":141.1821906,"status":0.0,"note":null,"address":"東松島市矢本字穴尻８番地","row_num":3320},{"area_id":16,"name":"住宅東側市道フェンス","lat":38.4081105,"long":141.1882097,"status":0.0,"note":null,"address":"東松島市矢本字蛭坪２１６番地先","row_num":3321},{"area_id":16,"name":"鹿妻地区コミュニティ供用施設フェンス","lat":38.4038808,"long":141.1880665,"status":0.0,"note":null,"address":"東松島市矢本字鹿石前１１６番地１","row_num":3322},{"area_id":16,"name":"住宅前県道脇空地","lat":38.4226211,"long":141.1865993,"status":0.0,"note":null,"address":"東松島市小松字明神下５２番地１","row_num":3323},{"area_id":16,"name":"小松地区コミュニティ供用施設向フェンス","lat":38.4325267,"long":141.195496,"status":0.0,"note":null,"address":"東松島市小松字沢田前５５番地１先","row_num":3324},{"area_id":16,"name":"住宅前県道ガードパイプ","lat":38.431259,"long":141.1920735,"status":0.0,"note":null,"address":"東松島市小松字上前柳１６番地１先","row_num":3325},{"area_id":16,"name":"住宅ブロック塀","lat":38.4335297,"long":141.1967587,"status":0.0,"note":null,"address":"東松島市小松字沖砂利前８番地５","row_num":3326},{"area_id":16,"name":"住宅ブロック塀","lat":38.437385,"long":141.1963681,"status":0.0,"note":null,"address":"東松島市小松字塚田１３３番地２","row_num":3327},{"area_id":16,"name":"手招集会所南側フェンス","lat":38.4418019,"long":141.1968327,"status":0.0,"note":null,"address":"東松島市小松字堰の内２","row_num":3328},{"area_id":16,"name":"住宅ブロック塀","lat":38.4348941,"long":141.2074278,"status":0.0,"note":null,"address":"東松島市小松字沖砂利前４０９番地","row_num":3329},{"area_id":16,"name":"ＪＡ青果物出荷センターフェンス","lat":38.4379143,"long":141.2127426,"status":0.0,"note":null,"address":"東松島市小松字中砂利田１番地１","row_num":3330},{"area_id":16,"name":"市営五味倉住宅フェンス","lat":38.4337514,"long":141.2222822,"status":0.0,"note":null,"address":"東松島市大曲字前畑５７番地２","row_num":3331},{"area_id":16,"name":"住宅ブロック塀","lat":38.4360626,"long":141.2227501,"status":0.0,"note":null,"address":"東松島市大曲字前畑８１番地７","row_num":3332},{"area_id":16,"name":"農村婦人の家（谷地分館）フェンス","lat":38.437549,"long":141.2156598,"status":0.0,"note":null,"address":"東松島市小松字中砂利田２９番地２","row_num":3333},{"area_id":16,"name":"大曲地区コミュニティ供用施設フェンス","lat":38.4268645,"long":141.2328423,"status":0.0,"note":null,"address":"東松島市大曲字筒場６５番地１","row_num":3334},{"area_id":16,"name":"住宅ブロック塀","lat":38.427272,"long":141.2314373,"status":0.0,"note":null,"address":"東松島市大曲字筒場６６番地１","row_num":3335},{"area_id":16,"name":"住宅フェンス","lat":38.4257757,"long":141.229708,"status":1.0,"note":null,"address":"東松島市大曲字堺堀１２４番地","row_num":3336},{"area_id":16,"name":"住宅ブロック塀","lat":38.4285478,"long":141.2325755,"status":0.0,"note":null,"address":"東松島市大曲字筒場８６番地１","row_num":3337},{"area_id":16,"name":"東北パイプターン工業株式会社資材置場フェンス（(有)北村運輸本社営業所前）","lat":38.4285788,"long":141.2274631,"status":0.0,"note":null,"address":"東松島市大曲字堰の内南３０番地９８","row_num":3338},{"area_id":16,"name":"大野電子開発㈱フェンス","lat":38.4270928,"long":141.2266685,"status":1.0,"note":null,"address":"東松島市大曲字堰の内南３０番地３９","row_num":3339},{"area_id":16,"name":"住宅ブロック塀","lat":38.4268789,"long":141.2383326,"status":0.0,"note":null,"address":"東松島市大曲字寺沼１８番地２","row_num":3340},{"area_id":16,"name":"東松島市立大曲小学校入口フェンス","lat":38.4255811,"long":141.2351317,"status":1.0,"note":null,"address":"東松島市大曲字寺前５番地２","row_num":3341},{"area_id":16,"name":"横沼コミュニティ供用施設東側フェンス","lat":38.4246728,"long":141.2339091,"status":1.0,"note":null,"address":"東松島市大曲字堺堀１９５番地４","row_num":3342},{"area_id":16,"name":"ミニ公園№25フェンス","lat":38.4228345,"long":141.2320639,"status":0.0,"note":null,"address":"東松島市大曲字堺堀１３５番地３７","row_num":3343},{"area_id":16,"name":"ミニ公園№29フェンス","lat":38.4231155,"long":141.2344635,"status":0.0,"note":null,"address":"東松島市大曲字堺堀２０３番地８","row_num":3344},{"area_id":16,"name":"寺前公園フェンス","lat":38.4254975,"long":141.2374735,"status":0.0,"note":null,"address":"東松島市大曲字上納南５番地","row_num":3345},{"area_id":16,"name":"上区生活センターフェンス","lat":38.4484499,"long":141.2079827,"status":0.0,"note":null,"address":"東松島市赤井字星場３１２番地１９","row_num":3346},{"area_id":16,"name":"東松島市立赤井小学校フェンス","lat":38.4465542,"long":141.2269383,"status":0.0,"note":null,"address":"東松島市赤井字中二号１１番地１","row_num":3347},{"area_id":16,"name":"北赤井コミュニティ供用施設フェンス","lat":38.4485969,"long":141.2231503,"status":0.0,"note":null,"address":"東松島市赤井字寺６７番地２","row_num":3348},{"area_id":16,"name":"住宅北側市道法面","lat":38.4480949,"long":141.2168343,"status":0.0,"note":null,"address":"東松島市赤井字本谷１０番地先","row_num":3349},{"area_id":16,"name":"下区生活センター前フェンス","lat":38.4488163,"long":141.2343225,"status":0.0,"note":null,"address":"東松島市赤井字舘前２５９番地３","row_num":3350},{"area_id":16,"name":"住宅ブロック塀","lat":38.4468323,"long":141.231983,"status":0.0,"note":null,"address":"東松島市赤井字舘前２２９番地１","row_num":3351},{"area_id":16,"name":"市営川前住宅北側空地","lat":38.4370813,"long":141.2384328,"status":0.0,"note":null,"address":"東松島市赤井字川前三番１６９番地１３","row_num":3352},{"area_id":16,"name":"川南公園フェンス","lat":38.4337311,"long":141.2313057,"status":0.0,"note":null,"address":"東松島市赤井字南新町７番地内","row_num":3353},{"area_id":16,"name":"赤井地区体育館フェンス","lat":38.4339119,"long":141.2354973,"status":0.0,"note":null,"address":"東松島市赤井字川前四番１００番地７","row_num":3354},{"area_id":16,"name":"陸前赤井駅自転車駐輪場フェンス","lat":38.4324165,"long":141.2384663,"status":1.0,"note":null,"address":"東松島市赤井字川前一１３番地１８","row_num":3355},{"area_id":16,"name":"南赤井公園フェンス","lat":38.434374,"long":141.237617,"status":0.0,"note":null,"address":"東松島市赤井字川前三番１５２番地１","row_num":3356},{"area_id":16,"name":"東松島市赤井市民センターフェンス","lat":38.4423933,"long":141.2318956,"status":0.0,"note":null,"address":"東松島市赤井字川前三１８９番地１","row_num":3357},{"area_id":16,"name":"東松島市立矢本第二中学校入口フェンス","lat":38.4317041,"long":141.2401489,"status":0.0,"note":null,"address":"東松島市赤井字川前一１６番地１","row_num":3358},{"area_id":16,"name":"東松島市立矢本第二中学校南側フェンス","lat":38.4317041,"long":141.2401489,"status":1.0,"note":null,"address":"東松島市赤井字川前一１６番地１","row_num":3359},{"area_id":16,"name":"川前公園フェンス","lat":38.4320339,"long":141.2429232,"status":null,"note":null,"address":"東松島市赤井字新川前２０番地２","row_num":3360},{"area_id":16,"name":"川前ふれあい公園フェンス","lat":38.4314611,"long":141.2408245,"status":0.0,"note":null,"address":"東松島市赤井字新川前２４番地９","row_num":3361},{"area_id":16,"name":"東松島市立赤井南小学校フェンス","lat":38.4339029,"long":141.2426814,"status":1.0,"note":null,"address":"東松島市赤井字川前一１０７番地","row_num":3362},{"area_id":16,"name":"住宅ブロック塀","lat":38.4303002,"long":141.2544119,"status":0.0,"note":null,"address":"東松島市赤井字鷲塚４５番地","row_num":3363},{"area_id":16,"name":"市営柳の目東住宅調整池フェンス","lat":38.434627,"long":141.2568742,"status":0.0,"note":null,"address":"東松島市赤井字南一１５８番地７５","row_num":3364},{"area_id":16,"name":"有明公園東側フェンス","lat":38.4362086,"long":141.2436636,"status":0.0,"note":null,"address":"東松島市赤井字有明９番地１０","row_num":3365},{"area_id":16,"name":"日産プリンス宮城石巻港インター店前交差点南東側ガードパイプ","lat":38.4390751,"long":141.255801,"status":0.0,"note":null,"address":"東松島市赤井字南二３１番地３","row_num":3366},{"area_id":16,"name":"久保土橋西側有明調整池前市道フェンス","lat":38.4349818,"long":141.2445927,"status":0.0,"note":null,"address":"東松島市赤井字有明地内","row_num":3367},{"area_id":16,"name":"柳の目西地区公園西側フェンス","lat":38.4346688,"long":141.2533493,"status":0.0,"note":null,"address":"東松島市赤井字南一７６番地１０５","row_num":3368},{"area_id":16,"name":"緑ケ丘三丁目市歩道ガードパイプ（さつき苑北西側）","lat":38.4395368,"long":141.1733579,"status":0.0,"note":null,"address":"東松島市大塩字緑ケ丘三丁目地内","row_num":3369},{"area_id":16,"name":"グリーンタウン北側調整池","lat":38.4441403,"long":141.1733805,"status":0.0,"note":null,"address":"東松島市大塩字緑ケ丘二丁目１番地１","row_num":3370},{"area_id":16,"name":"住宅ブロック塀","lat":38.4420406,"long":141.1665776,"status":0.0,"note":null,"address":"東松島市大塩字天神堂５８番地","row_num":3371},{"area_id":16,"name":"㈱橋本道路資材置場フェンス","lat":38.4344762,"long":141.1699918,"status":0.0,"note":null,"address":"東松島市大塩字緑ケ丘四丁目５番地６","row_num":3372},{"area_id":16,"name":"塩入農村公園フェンス","lat":38.4482068,"long":141.1886493,"status":0.0,"note":null,"address":"東松島市大塩字南１９番地４","row_num":3373},{"area_id":16,"name":"住宅前県道ガードパイプ","lat":38.4503877,"long":141.1836937,"status":0.0,"note":null,"address":"東松島市大塩字五台２３番地２","row_num":3374},{"area_id":16,"name":"塩入担い手センターフェンス","lat":38.4485206,"long":141.1886544,"status":0.0,"note":null,"address":"東松島市大塩字南１９番地１","row_num":3375},{"area_id":16,"name":"いしのまき農業協同組合鳴瀬支所入口フェンス","lat":38.3995998,"long":141.1645323,"status":1.0,"note":null,"address":"東松島市小野字新宮前１５番地１","row_num":3376},{"area_id":16,"name":"住宅前県道ガードパイプ","lat":38.4039346,"long":141.156483,"status":0.0,"note":null,"address":"東松島市小野字町裏２番地１","row_num":3377},{"area_id":16,"name":"県歩道ガードパイプ（日本ウェルネス宮城高校南西側）","lat":38.4089712,"long":141.1509432,"status":0.0,"note":null,"address":"東松島市小野字裏丁１番地１１先","row_num":3378},{"area_id":16,"name":"市道小野町線沿い住宅前石蔵","lat":38.4039346,"long":141.156483,"status":1.0,"note":null,"address":"東松島市小野字町裏７５番地","row_num":3379},{"area_id":16,"name":"東松島大橋交差点東側ガードパイプ","lat":38.4153386,"long":141.1458125,"status":1.0,"note":null,"address":"東松島市高松字日照沢２２番地５","row_num":3380},{"area_id":16,"name":"住宅脇空地","lat":38.4201234,"long":141.1431637,"status":1.0,"note":null,"address":"東松島市新田字新田前５０番地８","row_num":3381},{"area_id":16,"name":"旧十階松バス待合所隣","lat":38.423539,"long":141.1354894,"status":0.0,"note":null,"address":"東松島市西福田字岩崎１３３番地１","row_num":3382},{"area_id":16,"name":"西福田下ポンプ置場隣","lat":38.4274126,"long":141.1285318,"status":0.0,"note":null,"address":"東松島市西福田字寺前７７番地３","row_num":3383},{"area_id":16,"name":"住宅前交差点","lat":38.4266901,"long":141.1279256,"status":1.0,"note":null,"address":"東松島市西福田字古堂４７番地２","row_num":3384},{"area_id":16,"name":"住宅隣防火水槽フェンス","lat":38.4326158,"long":141.1246897,"status":0.0,"note":null,"address":"東松島市西福田字関下６２番地","row_num":3385},{"area_id":16,"name":"西福田上生活センター前","lat":38.4330589,"long":141.1268205,"status":0.0,"note":null,"address":"東松島市西福田字筒ノ山７０番地２","row_num":3386},{"area_id":16,"name":"住宅入口空地","lat":38.4409442,"long":141.1354105,"status":0.0,"note":null,"address":"東松島市西福田字御浦７８番地４","row_num":3387},{"area_id":16,"name":"住宅向空地","lat":38.4100736,"long":141.1136161,"status":0.0,"note":null,"address":"東松島市上下堤字平崎前２７番地１","row_num":3388},{"area_id":16,"name":"住宅東隣市道法面","lat":38.4066721,"long":141.1148857,"status":0.0,"note":null,"address":"東松島市上下堤字内谷地９５番地","row_num":3389},{"area_id":16,"name":"住宅前","lat":38.4092924,"long":141.115337,"status":0.0,"note":null,"address":"東松島市上下堤字平崎前６０番地","row_num":3390},{"area_id":16,"name":"川下集会所北側フェンス","lat":38.4130346,"long":141.1408233,"status":0.0,"note":null,"address":"東松島市川下字内響１３１番地９４","row_num":3391},{"area_id":16,"name":"陸前小野駅前駐輪場","lat":38.3964832,"long":141.1747963,"status":1.0,"note":null,"address":"東松島市牛網字上江戸原３７番地３","row_num":3392},{"area_id":16,"name":"牛網地区コミュニティ供用施設向","lat":38.3943229,"long":141.1793266,"status":0.0,"note":null,"address":"東松島市牛網字下四十八１９番地４","row_num":3393},{"area_id":16,"name":"牛網風の子公園フェンス","lat":38.3982766,"long":141.1749398,"status":0.0,"note":null,"address":"東松島市牛網字駅前一丁目１４番地","row_num":3394},{"area_id":16,"name":"小野駅前南集会所","lat":38.396125,"long":141.1690056,"status":0.0,"note":null,"address":"東松島市牛網字駅前二丁目３４番地１","row_num":3395},{"area_id":16,"name":"牛網防災調整池フェンス","lat":38.3992038,"long":141.179775,"status":0.0,"note":null,"address":"東松島市牛網字駅前東６番地２４","row_num":3396},{"area_id":16,"name":"東松島市立宮野森小学校脇ガードパイプ","lat":38.3779641,"long":141.1504592,"status":0.0,"note":null,"address":"東松島市野蒜ケ丘二丁目１番地１","row_num":3397},{"area_id":16,"name":"野蒜駅北側市道法面","lat":38.3794798,"long":141.1555489,"status":1.0,"note":null,"address":"東松島市野蒜ケ丘一丁目１０４番地","row_num":3398},{"area_id":16,"name":"住宅北側空地","lat":38.3729549,"long":141.1440227,"status":0.0,"note":null,"address":"東松島市新東名一丁目１５番地５","row_num":3399},{"area_id":16,"name":"野蒜第３雨水ポンプ場フェンス","lat":38.3728098,"long":141.1530949,"status":0.0,"note":null,"address":"東松島市野蒜字北赤崎４２番地１","row_num":3400},{"area_id":16,"name":"中下自治公民館前","lat":38.3872428,"long":141.1534542,"status":0.0,"note":null,"address":"東松島市野蒜字山岸８０番地３","row_num":3401},{"area_id":16,"name":"大塚自治公民館前","lat":38.3823824,"long":141.1305566,"status":0.0,"note":null,"address":"東松島市大塚字大塚２","row_num":3402},{"area_id":16,"name":"一本松公園内フェンス","lat":38.3704745,"long":141.1451619,"status":0.0,"note":null,"address":"東松島市新東名三丁目５番地４","row_num":3403},{"area_id":16,"name":"東松島市立鳴瀬未来中学校西側法面","lat":38.3871384,"long":141.1478768,"status":0.0,"note":null,"address":"東松島市野蒜字上野蒜２３２番地","row_num":3404},{"area_id":16,"name":"浅井自治公民館前フェンス","lat":38.3964498,"long":141.1454408,"status":0.0,"note":null,"address":"東松島市浅井字下館６９番地","row_num":3405},{"area_id":16,"name":"宮城県漁業協同組合宮戸西部支所 裏","lat":38.3381061,"long":141.1485548,"status":0.0,"note":null,"address":"東松島市宮戸字里８１番地１１","row_num":3406},{"area_id":16,"name":"東松島宮戸地区復興再生多目的施設","lat":38.3430283,"long":141.1500713,"status":0.0,"note":null,"address":"東松島市宮戸字川原５番地１","row_num":3407},{"area_id":16,"name":"月浜集会所フェンス","lat":38.3271662,"long":141.1566963,"status":0.0,"note":null,"address":"東松島市宮戸字月浜一丁目２番地","row_num":3408},{"area_id":16,"name":"住宅北空地","lat":38.3372666,"long":141.165782,"status":0.0,"note":null,"address":"東松島市宮戸字鹿島一丁目３番地３５","row_num":3409},{"area_id":16,"name":"大浜台団地市道法面","lat":38.3323647,"long":141.1549828,"status":0.0,"note":null,"address":"東松島市宮戸大浜台７番地１９","row_num":3410},{"area_id":38,"name":"1　石森商店株式会社冷凍工場前","lat":38.4353674,"long":141.4123476,"status":1.0,"note":null,"address":"女川町浦宿浜字三郎浜59番地","row_num":5159},{"area_id":38,"name":"2　町民バス安住バス停留所付近","lat":38.4371596,"long":141.4061442,"status":1.0,"note":null,"address":"女川町浦宿浜字安住16番地2","row_num":5160},{"area_id":38,"name":"3　針浜集会所前","lat":38.4270135,"long":141.4229992,"status":1.0,"note":null,"address":"女川町針浜字針浜305番地2","row_num":5161},{"area_id":38,"name":"４　セブンイレブン宮城女川店脇","lat":38.437096,"long":141.4255068,"status":1.0,"note":null,"address":"女川町浦宿浜字浜田64番地1","row_num":5162},{"area_id":38,"name":"５　旧女川町立第一小学校入口","lat":38.4379664,"long":141.4281343,"status":1.0,"note":null,"address":"女川町浦宿浜字小屋ノ口143番地1","row_num":5163},{"area_id":38,"name":"６　コバルトライン入口","lat":38.4380664,"long":141.4321896,"status":1.0,"note":null,"address":"女川町浦宿浜字十二神60番地7付近","row_num":5164},{"area_id":38,"name":"７　女川高等学園校門脇","lat":38.4389454,"long":141.4321662,"status":1.0,"note":null,"address":"女川町浦宿浜字十二神102番地","row_num":5165},{"area_id":38,"name":"1　旭が丘区北東入口","lat":38.4362152,"long":141.4310022,"status":0.0,"note":null,"address":"女川町旭が丘一丁目61番地","row_num":5166},{"area_id":38,"name":"2　旭が丘区一丁目児童公園","lat":38.4362152,"long":141.4310022,"status":0.0,"note":null,"address":"女川町旭が丘一丁目3番地6","row_num":5167},{"area_id":38,"name":"3　旭が丘区北西入口","lat":38.4362152,"long":141.4310022,"status":1.0,"note":null,"address":"女川町旭が丘一丁目47番地","row_num":5168},{"area_id":38,"name":"4　旭が丘集会所前","lat":38.435023,"long":141.43143,"status":1.0,"note":null,"address":"女川町旭が丘二丁目9番地1","row_num":5169},{"area_id":38,"name":"5　旭が丘区二丁目児童公園","lat":38.4343927,"long":141.4307351,"status":1.0,"note":null,"address":"女川町旭が丘二丁目18番地","row_num":5170},{"area_id":38,"name":"1　町営荒立住宅","lat":38.4396075,"long":141.4375387,"status":1.0,"note":null,"address":"女川町鷲神浜字荒立201番地1","row_num":5171},{"area_id":38,"name":"2　荒立西地区ゴミ集積所脇","lat":38.4391329,"long":141.4361278,"status":1.0,"note":null,"address":"女川町鷲神浜字荒立110番地1","row_num":5172},{"area_id":38,"name":"3　旧女川町立第一保育所前歩道","lat":38.4382234,"long":141.439077,"status":1.0,"note":null,"address":"女川町鷲神浜字荒立35番地1","row_num":5173},{"area_id":38,"name":"4　旧町営内山住宅入口","lat":38.4342803,"long":141.4444655,"status":0.0,"note":null,"address":"女川町内山15番地","row_num":5174},{"area_id":38,"name":"5　町営桜ケ丘東住宅入口","lat":38.439679,"long":141.4432033,"status":0.0,"note":null,"address":"女川町鷲神一丁目1番地1","row_num":5175},{"area_id":38,"name":"6　町営小乗住宅入口","lat":38.4384411,"long":141.4544503,"status":0.0,"note":null,"address":"女川町小乗二丁目46番地","row_num":5176},{"area_id":38,"name":"7　町営高白浜住宅ゴミ集積所脇","lat":38.4293302,"long":141.4612322,"status":0.0,"note":null,"address":"女川町高白浜字崎山16番地2","row_num":5177},{"area_id":38,"name":"1　横浦区北側入口","lat":38.4131693,"long":141.4638489,"status":0.0,"note":null,"address":"女川町横浦字名不知40番地4","row_num":5178},{"area_id":38,"name":"2　野々浜集会所前","lat":38.3887098,"long":141.4627428,"status":0.0,"note":null,"address":"女川町野々浜字野々浜102番地2","row_num":5179},{"area_id":38,"name":"3　飯子浜区西側入口","lat":38.3976142,"long":141.4784529,"status":1.0,"note":null,"address":"女川町飯子浜字飯子215番地49","row_num":5180},{"area_id":38,"name":"4　塚浜区南側入口","lat":38.4072817,"long":141.4929549,"status":0.0,"note":null,"address":"女川町塚浜字塚浜15番地19","row_num":5181},{"area_id":38,"name":"5　東北電力小屋取第二寮入口","lat":38.406735,"long":141.4998988,"status":0.0,"note":null,"address":"女川町塚浜字竹ノ尻3番地1","row_num":5182},{"area_id":38,"name":"1　女川町庁舎西側入口","lat":38.4454347,"long":141.4431535,"status":0.0,"note":null,"address":"女川町女川一丁目1番地1","row_num":5183},{"area_id":38,"name":"２　町営運動公園住宅前","lat":38.4501144,"long":141.4410805,"status":1.0,"note":null,"address":"女川町女川浜字大原520番地","row_num":5184},{"area_id":38,"name":"３　清水区道路沿い","lat":38.4539581,"long":141.4442307,"status":0.0,"note":null,"address":"女川町清水二丁目40番地","row_num":5185},{"area_id":38,"name":"４　町営女川住宅前","lat":38.4474495,"long":141.4376611,"status":1.0,"note":null,"address":"女川町大原20番地","row_num":5186},{"area_id":38,"name":"５　女川町庁舎東側入口","lat":38.4454347,"long":141.4431535,"status":1.0,"note":null,"address":"女川町女川一丁目1番地1","row_num":5187},{"area_id":38,"name":"６　江島船着場前","lat":38.3972597,"long":141.590939,"status":0.0,"note":null,"address":"女川町江島字江島96番地2","row_num":5188},{"area_id":38,"name":"1　宮ケ崎区国道398号沿い空地","lat":38.4491452,"long":141.4591504,"status":0.0,"note":null,"address":"女川町石浜字高森212番地","row_num":5189},{"area_id":38,"name":"2　宮ケ崎集会所前","lat":38.4486482,"long":141.4538511,"status":0.0,"note":null,"address":"女川町宮ケ崎字宮ケ崎121番地1","row_num":5190},{"area_id":38,"name":"3　町営宮ケ崎住宅側ゴミ集積所脇","lat":38.447181,"long":141.452611,"status":0.0,"note":null,"address":"女川町宮ケ崎字宮ケ崎124番地","row_num":5191},{"area_id":38,"name":"4　石浜集会所前","lat":38.4481898,"long":141.462082,"status":0.0,"note":null,"address":"女川町石浜一丁目1番地1","row_num":5192},{"area_id":38,"name":"5　石浜区崎山側入口","lat":38.4473729,"long":141.4613406,"status":0.0,"note":null,"address":"女川町石浜二丁目７番地","row_num":5193},{"area_id":38,"name":"1　町営桐ケ崎住宅入口","lat":38.4427589,"long":141.4780255,"status":1.0,"note":null,"address":"女川町桐ケ崎字桐ケ崎91番地26","row_num":5194},{"area_id":38,"name":"2　竹浦区南側団地入口","lat":38.4433466,"long":141.4870453,"status":0.0,"note":null,"address":"女川町竹浦字月浜75番地25","row_num":5195},{"area_id":38,"name":"3　尾浦集会所前","lat":38.4496332,"long":141.4892249,"status":0.0,"note":null,"address":"女川町尾浦字尾浦50番地67","row_num":5196},{"area_id":38,"name":"4　御前浜集会所前","lat":38.4771128,"long":141.4632689,"status":0.0,"note":null,"address":"女川町御前浜字大原道8番地21","row_num":5197},{"area_id":38,"name":"5　町営指ケ浜住宅入口","lat":38.4710545,"long":141.4816064,"status":1.0,"note":null,"address":"女川町指ケ浜字指ケ浜2番地13","row_num":5198},{"area_id":38,"name":"6　町営出島住宅入口","lat":38.4470916408,"long":141.5220102258,"status":0.0,"note":null,"address":"女川町出島字高森山1番地65","row_num":5199},{"area_id":38,"name":"7　町民バス寺間海岸バス停留所付近","lat":38.4416447,"long":141.5241718,"status":0.0,"note":null,"address":"女川町出島字別当浜2番地1","row_num":5200}]