[{"area_id":8,"name":"九条集会所　前","lat":38.8975949,"long":141.5545734,"status":0.0,"note":null,"address":"気仙沼市九条４０７－１２","row_num":1822},{"area_id":8,"name":"気仙沼高等学校　香久留ヶ原会館前　フェンス","lat":38.8948943,"long":141.5584205,"status":0.0,"note":null,"address":"気仙沼市常楽１３０","row_num":1823},{"area_id":8,"name":"個人宅　前　野立","lat":38.8961901,"long":141.5538767,"status":0.0,"note":null,"address":"気仙沼市九条４０３","row_num":1824},{"area_id":8,"name":"九条小学校 校庭　南側　フェンス","lat":38.8938941,"long":141.5531812,"status":0.0,"note":null,"address":"気仙沼市九条３２７","row_num":1825},{"area_id":8,"name":"羽黒神社　入口　市道","lat":38.8960857,"long":141.5505753,"status":0.0,"note":null,"address":"気仙沼市後九条２４８　地先","row_num":1826},{"area_id":8,"name":"田中記念公園　鉄柵","lat":38.8905234,"long":141.558042,"status":0.0,"note":null,"address":"気仙沼市田中前三丁目３","row_num":1827},{"area_id":8,"name":"元条南中学校　北側　土手","lat":38.8893447,"long":141.5608652,"status":0.0,"note":null,"address":"気仙沼市田中前四丁目８","row_num":1828},{"area_id":8,"name":"反松公園　東側　道路沿い　土手","lat":38.8874558,"long":141.5559693,"status":0.0,"note":null,"address":"気仙沼市上田中二丁目９","row_num":1829},{"area_id":8,"name":"神山公園　西側","lat":38.8918436,"long":141.5670984,"status":1.0,"note":null,"address":"気仙沼市神山８－１","row_num":1830},{"area_id":8,"name":"田谷公園　東側","lat":38.8957228,"long":141.5656538,"status":0.0,"note":null,"address":"気仙沼市田谷１４－１","row_num":1831},{"area_id":8,"name":"中谷地公園　鉄柵","lat":38.8951232,"long":141.5690095,"status":1.0,"note":null,"address":"気仙沼市本郷２０－１","row_num":1832},{"area_id":8,"name":"サンスールアパート裏手　緑地","lat":38.9007206,"long":141.5587759,"status":1.0,"note":null,"address":"気仙沼市四反田１１８－１","row_num":1833},{"area_id":8,"name":"舘山コミュニティーセンター　入口　植込み","lat":38.9029713,"long":141.5605378,"status":1.0,"note":null,"address":"気仙沼市舘山一丁目１ー４３　地先","row_num":1834},{"area_id":8,"name":"新鮮館　駐車場　北側　フェンス","lat":38.9019202,"long":141.5543911,"status":1.0,"note":null,"address":"気仙沼市四反田１５６","row_num":1835},{"area_id":8,"name":"舘山二丁目駐車場隣　市道","lat":38.9066501,"long":141.5546088,"status":1.0,"note":null,"address":"気仙沼市舘山二丁目１０５","row_num":1836},{"area_id":8,"name":"駅前コミュニティセンター西側　空地","lat":38.9079702,"long":141.5618824,"status":1.0,"note":null,"address":"気仙沼市古町一丁目２－１５　地先","row_num":1837},{"area_id":8,"name":"古町四区自治会館　軒下","lat":38.9094472,"long":141.5607898,"status":1.0,"note":null,"address":"気仙沼市古町二丁目１－１１","row_num":1838},{"area_id":8,"name":"個人宅（富士薬品気仙沼営業所隣）　道路向い","lat":38.9126874,"long":141.5521028,"status":1.0,"note":null,"address":"気仙沼市古町四丁目３－７（個人宅）","row_num":1839},{"area_id":8,"name":"福美町PTA倉庫　向い","lat":38.9089146,"long":141.5656842,"status":1.0,"note":null,"address":"気仙沼市福美町１　地内","row_num":1840},{"area_id":8,"name":"気仙沼小学校　校舎東側　植込み","lat":38.902935,"long":141.5712506,"status":1.0,"note":null,"address":"気仙沼市笹が陣３－１","row_num":1841},{"area_id":8,"name":"市役所前 市道 ワンテン庁舎 市道側 フェンス","lat":38.9076276,"long":141.5704157,"status":1.0,"note":null,"address":"気仙沼市八日町一丁目１－１０","row_num":1842},{"area_id":8,"name":"角星酒造工場　石塀","lat":38.9090853,"long":141.5754927,"status":1.0,"note":null,"address":"気仙沼市太田一丁目４－１０","row_num":1843},{"area_id":8,"name":"市民会館　西側　角　植込み","lat":38.9007761,"long":141.5728832,"status":1.0,"note":null,"address":"気仙沼市笹が陣４－２","row_num":1844},{"area_id":8,"name":"幸町住宅　道路沿い　植込み","lat":38.8984371,"long":141.5762741,"status":1.0,"note":null,"address":"気仙沼市幸町三丁目２－１","row_num":1845},{"area_id":8,"name":"南気仙沼水産加工事業協同組合　様　超低温冷蔵庫　向い","lat":38.8946771,"long":141.5806039,"status":1.0,"note":null,"address":"気仙沼市弁天町二丁目８１－５","row_num":1846},{"area_id":8,"name":"個人宅　裏　空地（善茶屋バス停付近）","lat":38.946306,"long":141.5734184,"status":1.0,"note":null,"address":"気仙沼市上東側２８６－１（個人宅）","row_num":1847},{"area_id":8,"name":"個人宅　道路向い","lat":38.9657279,"long":141.5633967,"status":1.0,"note":null,"address":"気仙沼市上東側根１９１－４（個人宅）","row_num":1848},{"area_id":8,"name":"鹿折金山入口バス停　前","lat":38.9747919,"long":141.5583817,"status":1.0,"note":null,"address":"気仙沼市上東側根１９","row_num":1849},{"area_id":8,"name":"個人宅前　畑","lat":38.9347996,"long":141.5814015,"status":1.0,"note":null,"address":"気仙沼市東中才１９６","row_num":1850},{"area_id":8,"name":"中央橋　西側　ごみ集積所　脇","lat":38.9355107,"long":141.5766131,"status":1.0,"note":null,"address":"気仙沼市西中才４５２","row_num":1851},{"area_id":8,"name":"鹿折小学校　南側フェンス　県道側","lat":38.922328,"long":141.5817472,"status":1.0,"note":null,"address":"気仙沼市西八幡町５４－１","row_num":1852},{"area_id":8,"name":"東陵高等学校入口　空地","lat":38.9244871,"long":141.5901265,"status":1.0,"note":null,"address":"気仙沼市東八幡前１４５－１","row_num":1853},{"area_id":8,"name":"錦町西公園　南側","lat":38.9140065,"long":141.5818551,"status":1.0,"note":null,"address":"気仙沼市錦町１丁目　地内","row_num":1854},{"area_id":8,"name":"鹿折公民館　西側　土手","lat":38.9178803,"long":141.582818,"status":1.0,"note":null,"address":"気仙沼市中みなと町５","row_num":1855},{"area_id":8,"name":"大浦防集団地入口　北側　県道敷","lat":38.9043786,"long":141.5921622,"status":1.0,"note":null,"address":"気仙沼市浪板３７２-６","row_num":1856},{"area_id":8,"name":"梶ケ浦ふれあいセンター付近　市道法面","lat":38.907641,"long":141.5703316,"status":0.0,"note":null,"address":"気仙沼市二の浜１９１－２４　地先","row_num":1857},{"area_id":8,"name":"小々汐コミュニティーセンター　脇　土手","lat":38.8899924,"long":141.6009204,"status":1.0,"note":null,"address":"気仙沼市小々汐９１－４７","row_num":1858},{"area_id":8,"name":"個人宅　前　畑","lat":38.8864599,"long":141.5748157,"status":1.0,"note":null,"address":"気仙沼市赤岩舘森３４－１","row_num":1859},{"area_id":8,"name":"松岩小学校　東側　フェンス","lat":38.8785685,"long":141.5724969,"status":0.0,"note":null,"address":"気仙沼市松崎五駄鱈５","row_num":1860},{"area_id":8,"name":"赤岩港水産加工団地入口付近　市道法面","lat":38.8869563,"long":141.5789904,"status":1.0,"note":null,"address":"気仙沼市赤岩港３３７－１　地先","row_num":1861},{"area_id":8,"name":"松岩公民館　西側　フェンス","lat":38.8790411,"long":141.5763679,"status":0.0,"note":null,"address":"気仙沼市松崎浦田１４３－１","row_num":1862},{"area_id":8,"name":"市営赤岩住宅跡地","lat":38.8804543,"long":141.569016,"status":0.0,"note":null,"address":"気仙沼市赤岩泥ノ木３０","row_num":1863},{"area_id":8,"name":"前浜精義会館　軒下","lat":38.8804135,"long":141.5865854,"status":1.0,"note":null,"address":"気仙沼市松崎前浜１３９－８","row_num":1864},{"area_id":8,"name":"松岩中学校前バス停　市道","lat":38.8736233,"long":141.5547304,"status":0.0,"note":null,"address":"気仙沼市松崎柳沢１８０","row_num":1865},{"area_id":8,"name":"牧沢団地　入口　市道","lat":38.8812031,"long":141.553337,"status":0.0,"note":null,"address":"気仙沼市赤岩牧沢　地内","row_num":1866},{"area_id":8,"name":"杉ノ沢鉄塔付近緑地帯（コミュニティーセンター市道向い）","lat":38.907641,"long":141.5703316,"status":0.0,"note":null,"address":"気仙沼市杉の沢８－１４","row_num":1867},{"area_id":8,"name":"気仙沼市総合体育館　入口付近　法面","lat":38.8817152,"long":141.5535716,"status":0.0,"note":null,"address":"気仙沼市赤岩牧沢４４－１８０","row_num":1868},{"area_id":8,"name":"畠昭ハイツ　前　土手（市道）","lat":38.8712427,"long":141.5740407,"status":0.0,"note":null,"address":"気仙沼市松崎高谷１４３－１","row_num":1869},{"area_id":8,"name":"鶴巻コミュニティセンター入口　市道側法面","lat":38.8683332,"long":141.5627762,"status":0.0,"note":null,"address":"気仙沼市松崎鶴巻１６４－３４","row_num":1870},{"area_id":8,"name":"面瀬小学校　プール　北側フェンス","lat":38.8669298,"long":141.5730658,"status":0.0,"note":null,"address":"気仙沼市松崎下赤田５８","row_num":1871},{"area_id":8,"name":"個人宅　前　畑","lat":38.8655859,"long":141.5448688,"status":0.0,"note":null,"address":"気仙沼市松崎猫渕１０６－２","row_num":1872},{"area_id":8,"name":"金取バス停付近　土手","lat":38.8573484,"long":141.5396842,"status":0.0,"note":null,"address":"気仙沼市松崎下金取７３","row_num":1873},{"area_id":8,"name":"大石倉自治会館　前　県道","lat":38.8779565,"long":141.5374783,"status":0.0,"note":null,"address":"気仙沼市赤岩大滝７０　地先","row_num":1874},{"area_id":8,"name":"個人宅　裏　空地","lat":38.8586024,"long":141.5227971,"status":0.0,"note":null,"address":"気仙沼市赤岩四十二４３","row_num":1875},{"area_id":8,"name":"竹の里（カフェ桃李の花）　南側　土手","lat":38.9035233,"long":141.5485194,"status":1.0,"note":null,"address":"気仙沼市茗荷沢３－２","row_num":1876},{"area_id":8,"name":"気仙沼市社会福祉協議会　フェンス","lat":38.9092039,"long":141.5496983,"status":1.0,"note":null,"address":"気仙沼市東新城二丁目１－２","row_num":1877},{"area_id":8,"name":"国道284号　大林バス停　背後地","lat":38.912402,"long":141.5365171,"status":0.0,"note":null,"address":"気仙沼市大林１１７－１","row_num":1878},{"area_id":8,"name":"個人宅　入口　土手","lat":38.9220313,"long":141.5437583,"status":1.0,"note":null,"address":"気仙沼市内松川４　地先","row_num":1879},{"area_id":8,"name":"佐々木産業　北側　フェンス","lat":38.9042403,"long":141.5402762,"status":1.0,"note":null,"address":"気仙沼市茗荷沢２１６－４","row_num":1880},{"area_id":8,"name":"前木郵便局付近　土手","lat":38.9168416,"long":141.503162,"status":0.0,"note":null,"address":"気仙沼市川崎尻４８－１","row_num":1881},{"area_id":8,"name":"旧落合小学校　入口　土手","lat":38.9129909,"long":141.496176,"status":0.0,"note":null,"address":"気仙沼市象ケ鼻３５","row_num":1882},{"area_id":8,"name":"下廿一会館　前　市道","lat":38.9042886,"long":141.4963686,"status":0.0,"note":null,"address":"気仙沼市落合２４３","row_num":1883},{"area_id":8,"name":"上廿一会館　脇　ごみ集積所付近　市道","lat":38.9000984,"long":141.485428,"status":0.0,"note":null,"address":"気仙沼市小芦２５５－１　地先","row_num":1884},{"area_id":8,"name":"個人宅　向い　市道","lat":38.9178186,"long":141.4972455,"status":1.0,"note":null,"address":"気仙沼市磯沢７７（個人宅）","row_num":1885},{"area_id":8,"name":"八瀬地域郷土文化保存伝承館　軒下","lat":38.9475423,"long":141.5322895,"status":1.0,"note":null,"address":"気仙沼市早稲谷１４１","row_num":1886},{"area_id":8,"name":"個人宅（東北大学観測所看板）向い　空地","lat":38.9608981,"long":141.5218347,"status":1.0,"note":null,"address":"気仙沼市芳ノ口９－１","row_num":1887},{"area_id":8,"name":"個人宅前　法面","lat":38.9246122,"long":141.5191978,"status":0.0,"note":null,"address":"気仙沼市下八瀬９９－５　地先","row_num":1888},{"area_id":8,"name":"台バス停　前　市道","lat":38.9392647,"long":141.5114408,"status":1.0,"note":null,"address":"気仙沼市台　地内","row_num":1889},{"area_id":8,"name":"個人宅　入口　畑　土手","lat":38.8467562,"long":141.5773821,"status":1.0,"note":null,"address":"気仙沼市長磯後沢４０","row_num":1890},{"area_id":8,"name":"階上大谷土地改良区事務所 前  土手","lat":38.8374884,"long":141.5740793,"status":1.0,"note":null,"address":"気仙沼市長磯原ノ沢１１－１","row_num":1891},{"area_id":8,"name":"長磯浜北住宅　南側　ごみ集積所　脇","lat":38.8420145,"long":141.5853302,"status":1.0,"note":null,"address":"気仙沼市長磯七半沢３　地内","row_num":1892},{"area_id":8,"name":"最知駅入口交差点付近ごみ集積所　脇","lat":38.8537747,"long":141.580249,"status":0.0,"note":null,"address":"気仙沼市最知北最知８－１　　地先","row_num":1893},{"area_id":8,"name":"階上公民館　駐車場　フェンス","lat":38.8401051,"long":141.5805177,"status":1.0,"note":null,"address":"気仙沼市長磯船原２０","row_num":1894},{"area_id":8,"name":"波路上自治会館　駐車場　東側","lat":38.8346709,"long":141.5797365,"status":1.0,"note":null,"address":"気仙沼市波路上後原３９　地内","row_num":1895},{"area_id":8,"name":"岩月バス停　後ろ　畑","lat":38.8652582,"long":141.5825069,"status":0.0,"note":null,"address":"気仙沼市岩月千岩田１１０ 地先","row_num":1896},{"area_id":8,"name":"面瀬中学校南側交差点　市道","lat":38.858355,"long":141.5751636,"status":0.0,"note":null,"address":"気仙沼市岩月星谷１６４－１","row_num":1897},{"area_id":8,"name":"青葉が丘団地　入口　土手","lat":38.8636257,"long":141.55898,"status":0.0,"note":null,"address":"気仙沼市岩月箒沢５６－６","row_num":1898},{"area_id":8,"name":"大島開発総合センター前","lat":38.8471668,"long":141.6199212,"status":1.0,"note":null,"address":"気仙沼市中山１１５－４","row_num":1899},{"area_id":8,"name":"駒形バス停（個人宅　前） 土手","lat":38.841341,"long":141.6201492,"status":1.0,"note":null,"address":"気仙沼市駒形１３２（個人宅）","row_num":1900},{"area_id":8,"name":"要害バス停付近","lat":38.8476018,"long":141.6163821,"status":1.0,"note":null,"address":"気仙沼市要害７６","row_num":1901},{"area_id":8,"name":"三作浜バス停（個人宅　脇） 空地","lat":38.8416126,"long":141.625484,"status":1.0,"note":null,"address":"気仙沼市三作浜２２－１（個人宅）","row_num":1902},{"area_id":8,"name":"大島公民館　駐車場フェンス","lat":38.8554655,"long":141.6160496,"status":1.0,"note":null,"address":"気仙沼市高井４０","row_num":1903},{"area_id":8,"name":"コイン洗車場　向い　県道","lat":38.8641109,"long":141.6214532,"status":1.0,"note":null,"address":"気仙沼市外畑７９","row_num":1904},{"area_id":8,"name":"個人宅　土手","lat":38.856391,"long":141.620504,"status":1.0,"note":null,"address":"気仙沼市長崎１４８","row_num":1905},{"area_id":8,"name":"個人宅　入口　空地","lat":38.8626851,"long":141.6101003,"status":1.0,"note":null,"address":"気仙沼市田尻７８","row_num":1906},{"area_id":8,"name":"浦の浜自治会館向い　県道緑地","lat":38.8675751,"long":141.6169277,"status":1.0,"note":null,"address":"気仙沼市浦の浜８９－１　地先","row_num":1907},{"area_id":8,"name":"大立浜バス停  前","lat":38.8625968,"long":141.6691687,"status":1.0,"note":null,"address":"気仙沼市唐桑町崎浜１３－５","row_num":1908},{"area_id":8,"name":"長浜バス停　前","lat":38.8642189,"long":141.6633167,"status":1.0,"note":null,"address":"気仙沼市唐桑町崎浜２６１－１","row_num":1909},{"area_id":8,"name":"津本バス停　前","lat":38.8664121,"long":141.6612979,"status":1.0,"note":null,"address":"気仙沼市唐桑町津本３９－１","row_num":1910},{"area_id":8,"name":"個人宅　前","lat":38.8680808,"long":141.6650104,"status":1.0,"note":null,"address":"気仙沼市唐桑町神の倉２４０（個人宅）","row_num":1911},{"area_id":8,"name":"大日神社　前","lat":38.8708035,"long":141.6615189,"status":1.0,"note":null,"address":"気仙沼市唐桑町津本２－２","row_num":1912},{"area_id":8,"name":"個人宅道路向い　県道敷","lat":38.8734755,"long":141.6613213,"status":1.0,"note":null,"address":"気仙沼市唐桑町神の倉３３－４（個人宅）","row_num":1913},{"area_id":8,"name":"松圃バス停  前","lat":38.8749826,"long":141.6592608,"status":1.0,"note":null,"address":"気仙沼市唐桑町松圃１３１－１","row_num":1914},{"area_id":8,"name":"中井小学校前バス停","lat":38.8806697,"long":141.6601055,"status":1.0,"note":null,"address":"気仙沼市唐桑町中井１３４－１","row_num":1915},{"area_id":8,"name":"個人宅　前","lat":38.8798131,"long":141.656601,"status":1.0,"note":null,"address":"気仙沼市唐桑町中井１７０－１","row_num":1916},{"area_id":8,"name":"中井公民館　前","lat":38.8819239,"long":141.656547,"status":1.0,"note":null,"address":"気仙沼市唐桑町中井９２－１","row_num":1917},{"area_id":8,"name":"個人宅　前","lat":38.8851921,"long":141.6601384,"status":1.0,"note":null,"address":"気仙沼市唐桑町欠浜３４（個人宅）","row_num":1918},{"area_id":8,"name":"小鯖集会所　土手","lat":38.883526,"long":141.6517845,"status":1.0,"note":null,"address":"気仙沼市唐桑町上小鯖１３４-６","row_num":1919},{"area_id":8,"name":"個人宅　前","lat":38.8977068,"long":141.6414585,"status":1.0,"note":null,"address":"気仙沼市唐桑町宿浦３３６－６","row_num":1920},{"area_id":8,"name":"個人宅北側交差点付近","lat":38.8930298,"long":141.6397831,"status":1.0,"note":null,"address":"気仙沼市唐桑町鮪立２６９－１　地先","row_num":1921},{"area_id":8,"name":"元ローソン向い　県道沿い（宿自治会花壇脇）","lat":38.9050639,"long":141.6486082,"status":1.0,"note":null,"address":"気仙沼市唐桑町馬場１０７－２","row_num":1922},{"area_id":8,"name":"明戸大橋東側旧道（デマンドバス停宿８－７）","lat":38.8994657,"long":141.6394144,"status":1.0,"note":null,"address":"気仙沼市唐桑町宿浦１１４－１０","row_num":1923},{"area_id":8,"name":"舞根第２防集団地内　ごみ集積所　脇","lat":38.9110707,"long":141.6184313,"status":1.0,"note":null,"address":"気仙沼市唐桑町東舞根１０７-３０","row_num":1924},{"area_id":8,"name":"舞根集会所　土手","lat":38.9056156,"long":141.6334764,"status":1.0,"note":null,"address":"気仙沼市唐桑町浦１３１－５","row_num":1925},{"area_id":8,"name":"半造入口バス停　前","lat":38.8929417,"long":141.650936,"status":1.0,"note":null,"address":"気仙沼市唐桑町中１２１","row_num":1926},{"area_id":8,"name":"丸藤旅館脇　畑","lat":38.8925487,"long":141.6596985,"status":1.0,"note":null,"address":"気仙沼市唐桑町小長根２０４－１","row_num":1927},{"area_id":8,"name":"賽の神バス停　前","lat":38.8982035,"long":141.6496258,"status":1.0,"note":null,"address":"気仙沼市唐桑町北中６４－１９","row_num":1928},{"area_id":8,"name":"石浜バス停　前","lat":38.9124338,"long":141.6462313,"status":1.0,"note":null,"address":"気仙沼市唐桑町石浜５０－１","row_num":1929},{"area_id":8,"name":"高石浜バス停　前","lat":38.9187942,"long":141.6473905,"status":1.0,"note":null,"address":"気仙沼市唐桑町高石浜１９２－１","row_num":1930},{"area_id":8,"name":"福祉の里バス停　前","lat":38.9186485,"long":141.6437883,"status":1.0,"note":null,"address":"気仙沼市唐桑町高石浜２８２－８","row_num":1931},{"area_id":8,"name":"只越公衆トイレ　手前　空地","lat":38.9258636,"long":141.6206608,"status":1.0,"note":null,"address":"気仙沼市唐桑町只越９１－３　地先","row_num":1932},{"area_id":8,"name":"只越防集団地（咲山団地）法面","lat":38.9334416,"long":141.6374486,"status":1.0,"note":null,"address":"気仙沼市唐桑町堂角４５－４１　地先","row_num":1933},{"area_id":8,"name":"新田前バス停　脇　空地","lat":38.9484537,"long":141.6190097,"status":1.0,"note":null,"address":"気仙沼市唐桑町舘１７５－１","row_num":1934},{"area_id":8,"name":"大沢水道ポンプ場　北側　土手","lat":38.9599872,"long":141.6298769,"status":1.0,"note":null,"address":"気仙沼市唐桑町港１５１番１　地内","row_num":1935},{"area_id":8,"name":"小田国道入口","lat":38.9407306,"long":141.6380709,"status":1.0,"note":null,"address":"気仙沼市唐桑町小田８７－９","row_num":1936},{"area_id":8,"name":"蔵内仮設住宅跡地付近　ごみ集積所脇","lat":38.749092,"long":141.5237681,"status":1.0,"note":null,"address":"気仙沼市本吉町蔵内１５－１　地先","row_num":1937},{"area_id":8,"name":"浜区多目的集会場　法面","lat":38.7588549,"long":141.5275499,"status":1.0,"note":null,"address":"気仙沼市本吉町今朝磯５８","row_num":1938},{"area_id":8,"name":"市道｢旧国道菅の沢線」起点付近","lat":38.7601733,"long":141.5120677,"status":1.0,"note":null,"address":"気仙沼市本吉町菅の沢９３－４　地先","row_num":1939},{"area_id":8,"name":"小泉地区防集団地入口　土手　（グリーンロード沿い）","lat":38.7535834,"long":141.4990727,"status":0.0,"note":null,"address":"気仙沼市本吉町外尾１７９－２　地先","row_num":1940},{"area_id":8,"name":"小泉公民館　北側　法面","lat":38.7663721,"long":141.5073125,"status":1.0,"note":null,"address":"気仙沼市本吉町平貝２９－１","row_num":1941},{"area_id":8,"name":"在区コミュニティセンター　入口　土手","lat":38.7764624,"long":141.5039146,"status":1.0,"note":null,"address":"気仙沼市本吉町卯名沢１０５－４　地先","row_num":1942},{"area_id":8,"name":"幣掛ふれあい会館　入口　西側","lat":38.7775069,"long":141.4863966,"status":0.0,"note":null,"address":"気仙沼市本吉町幣掛１９２－３","row_num":1943},{"area_id":8,"name":"金山入口バス停付近","lat":38.781707,"long":141.4605849,"status":1.0,"note":null,"address":"気仙沼市本吉町寺要害５７－３","row_num":1944},{"area_id":8,"name":"須賀神社　入口付近","lat":38.7761615,"long":141.4457014,"status":1.0,"note":null,"address":"気仙沼市本吉町馬籠町３５－２","row_num":1945},{"area_id":8,"name":"個人宅道路向い　空地","lat":38.777744,"long":141.4319404,"status":1.0,"note":null,"address":"気仙沼市本吉町上野７５－１（個人宅）","row_num":1946},{"area_id":8,"name":"大柴バス停　脇","lat":38.7634523,"long":141.4196334,"status":1.0,"note":null,"address":"気仙沼市本吉町大柴３６－３","row_num":1947},{"area_id":8,"name":"漆原コミュニティセンター　向い","lat":38.7863548,"long":141.4583428,"status":0.0,"note":null,"address":"気仙沼市本吉町漆原１１－１　地先","row_num":1948},{"area_id":8,"name":"旧松ヶ沢振興会館　脇","lat":38.7822897,"long":141.4806493,"status":1.0,"note":null,"address":"気仙沼市本吉町猪の鼻２３７－２","row_num":1949},{"area_id":8,"name":"猪の鼻橋付近","lat":38.7853008,"long":141.4805282,"status":1.0,"note":null,"address":"気仙沼市本吉町猪の鼻１３６－６","row_num":1950},{"area_id":8,"name":"岩渕商店様　向い","lat":38.7903181,"long":141.4893937,"status":1.0,"note":null,"address":"気仙沼市本吉町岳の下１６９－１","row_num":1951},{"area_id":8,"name":"津谷小学校　南門　フェンス","lat":38.7904149,"long":141.5071516,"status":1.0,"note":null,"address":"気仙沼市本吉町津谷松岡１２６","row_num":1952},{"area_id":8,"name":"はまなす文化タウン前駐車場","lat":38.794415,"long":141.501475,"status":1.0,"note":null,"address":"気仙沼市本吉町津谷新明戸１３６","row_num":1953},{"area_id":8,"name":"本吉総合支所　下側　草地","lat":38.7940303,"long":141.5042755,"status":1.0,"note":null,"address":"気仙沼市本吉町津谷舘岡２－１","row_num":1954},{"area_id":8,"name":"下川内多目的集会場付近","lat":38.8112041,"long":141.4924812,"status":1.0,"note":null,"address":"気仙沼市本吉町東川内１６４－１","row_num":1955},{"area_id":8,"name":"吸上バス停付近","lat":38.7928319,"long":141.5155832,"status":1.0,"note":null,"address":"気仙沼市本吉町津谷長根７３－１","row_num":1956},{"area_id":8,"name":"風越コミュニティセンター沿い市道","lat":38.7902803,"long":141.5165358,"status":1.0,"note":null,"address":"気仙沼市本吉町風越２３－１","row_num":1957},{"area_id":8,"name":"大沢生活改善センター脇","lat":38.7946284,"long":141.5204078,"status":1.0,"note":null,"address":"気仙沼市本吉町大沢９８－２","row_num":1958},{"area_id":8,"name":"(株)ガイアートＴＫ作業所入口付近　ゴミ集積所脇","lat":38.7869506,"long":141.5088951,"status":1.0,"note":null,"address":"気仙沼市本吉町登米沢　９－７　地先","row_num":1959},{"area_id":8,"name":"平山バス停付近","lat":38.8376883,"long":141.4711728,"status":0.0,"note":null,"address":"気仙沼市本吉町上川内９９－１","row_num":1960},{"area_id":8,"name":"個人宅　前　県道","lat":38.8143209,"long":141.4749816,"status":0.0,"note":null,"address":"気仙沼市本吉町中川内１１０－１　地先","row_num":1961},{"area_id":8,"name":"坊の倉地区農林漁家婦人活動施設　前","lat":38.8077971,"long":141.5045813,"status":1.0,"note":null,"address":"気仙沼市本吉町坊の倉１５２－４","row_num":1962},{"area_id":8,"name":"狼の巣多目的集会場付近　土手","lat":38.8157598,"long":141.5033472,"status":0.0,"note":null,"address":"気仙沼市本吉町坊の倉２５８","row_num":1963},{"area_id":8,"name":"個人宅道路向い","lat":38.8010907,"long":141.5113065,"status":0.0,"note":null,"address":"気仙沼市本吉町大椚１６２（個人宅）","row_num":1964},{"area_id":8,"name":"林の沢振興会館　前　駐車場","lat":38.7989622,"long":141.517279,"status":0.0,"note":null,"address":"気仙沼市本吉町林の沢４５－１３","row_num":1965},{"area_id":8,"name":"個人宅　入口","lat":38.8033467,"long":141.5325922,"status":1.0,"note":null,"address":"気仙沼市本吉町高９２（個人宅）","row_num":1966},{"area_id":8,"name":"清凉院　東側入口　手前　空地","lat":38.8101407,"long":141.5389597,"status":1.0,"note":null,"address":"気仙沼市本吉町府中５９－５","row_num":1967},{"area_id":8,"name":"日門バス停　背後地","lat":38.8083078,"long":141.5524717,"status":1.0,"note":null,"address":"気仙沼市本吉町山谷４７－４","row_num":1968},{"area_id":8,"name":"とよさとガーデン様　横　緑地","lat":38.8142683,"long":141.5608312,"status":1.0,"note":null,"address":"気仙沼市本吉町九多丸２５－１　地先","row_num":1969},{"area_id":8,"name":"個人宅前　市道　法面","lat":38.8039473,"long":141.5547714,"status":1.0,"note":null,"address":"気仙沼市本吉町天ヶ沢１２２－１　地先","row_num":1970},{"area_id":8,"name":"寺谷コミュニティセンター　前","lat":38.8198468,"long":141.562377,"status":1.0,"note":null,"address":"気仙沼市本吉町寺谷２１－４","row_num":1971},{"area_id":8,"name":"大谷郵便局国道向い　市有地（被災宅地）","lat":38.8164792,"long":141.5729933,"status":1.0,"note":null,"address":"気仙沼市本吉町大谷３１３－８","row_num":1972},{"area_id":8,"name":"ＮＴＴ東日本宮城支店　大谷電話交換所向い","lat":38.8197657,"long":141.5709137,"status":1.0,"note":null,"address":"気仙沼市本吉町野々下８１－８","row_num":1973},{"area_id":8,"name":"臼真倉庫　様　南側　空地","lat":38.8314239,"long":141.5628409,"status":0.0,"note":null,"address":"気仙沼市本吉町直伝２－１","row_num":1974},{"area_id":8,"name":"上郷地区コミュニティセンター　前","lat":38.8379297,"long":141.5550803,"status":0.0,"note":null,"address":"気仙沼市本吉町石川原１０７－９６","row_num":1975},{"area_id":8,"name":"はまなす台住宅団地付近　市道","lat":38.8249533,"long":141.5688735,"status":0.0,"note":null,"address":"気仙沼市本吉町長根２３１－５","row_num":1976},{"area_id":8,"name":"大谷西防集団地　ゴミ集積所脇","lat":38.8229556,"long":141.5685426,"status":0.0,"note":null,"address":"気仙沼市本吉町長根１８６－３７","row_num":1977},{"area_id":39,"name":"荒町ふれあいセンター敷地","lat":38.6449424,"long":141.4126933,"status":0.0,"note":null,"address":"南三陸町戸倉字町２７－２","row_num":5201},{"area_id":39,"name":"西戸地区集会所付近","lat":38.6399891,"long":141.4235197,"status":0.0,"note":null,"address":"南三陸町戸倉字日向３９－１付近","row_num":5202},{"area_id":39,"name":"沖田地区集会所","lat":38.6376943,"long":141.4421939,"status":0.0,"note":null,"address":"南三陸町戸倉字沖田５３－７９","row_num":5203},{"area_id":39,"name":"戸倉公民館","lat":38.6424431,"long":141.4427154,"status":0.0,"note":null,"address":"南三陸町戸倉字沖田６９","row_num":5204},{"area_id":39,"name":"水戸辺町道下り口ゴミ集積所付近","lat":38.6403518,"long":141.4544474,"status":0.0,"note":null,"address":"南三陸町戸倉字水戸辺９５－１","row_num":5205},{"area_id":39,"name":"松崎団地上り口付近","lat":38.6455556,"long":141.4641028,"status":0.0,"note":null,"address":"南三陸町戸倉字戸倉３２－２９","row_num":5206},{"area_id":39,"name":"波伝谷団地緑地広場前","lat":38.6423846,"long":141.472666,"status":0.0,"note":null,"address":"南三陸町戸倉字波伝谷１８６－１３","row_num":5207},{"area_id":39,"name":"合羽沢団地上り口付近","lat":38.6411358,"long":141.4817715,"status":0.0,"note":null,"address":"南三陸町戸倉字合羽沢１１－３","row_num":5208},{"area_id":39,"name":"津の宮原団地緑地","lat":38.6412283,"long":141.4843247,"status":0.0,"note":null,"address":"南三陸町戸倉字津の宮２２－１４","row_num":5209},{"area_id":39,"name":"滝浜墓地入口付近法面","lat":38.6320207,"long":141.4936546,"status":0.0,"note":null,"address":"南三陸町戸倉字滝浜８９－１付近","row_num":5210},{"area_id":39,"name":"保呂羽神社付近防潮堤南側","lat":38.6357322,"long":141.5017362,"status":0.0,"note":null,"address":"南三陸町戸倉字藤浜７３－１","row_num":5211},{"area_id":39,"name":"国道３９８号待避所","lat":38.6357569,"long":141.5121486,"status":0.0,"note":null,"address":"南三陸町戸倉字小細谷３－１付近","row_num":5212},{"area_id":39,"name":"長清水団地上り口付近","lat":38.6329433,"long":141.5158946,"status":1.0,"note":null,"address":"南三陸町戸倉字小細谷６２－９","row_num":5213},{"area_id":39,"name":"神割崎入口","lat":38.6308355,"long":141.5173294,"status":1.0,"note":null,"address":"南三陸町戸倉字太田４－３","row_num":5214},{"area_id":39,"name":"三陸建業脇法面","lat":38.6666895,"long":141.4429653,"status":0.0,"note":null,"address":"南三陸町志津川字林８０－６","row_num":5215},{"area_id":39,"name":"遠藤組手前路肩","lat":38.6700862,"long":141.4397567,"status":0.0,"note":null,"address":"南三陸町志津川字大久保１６８","row_num":5216},{"area_id":39,"name":"町道保呂毛線・農道保呂毛線交差点付近","lat":38.6740867,"long":141.4237616,"status":0.0,"note":null,"address":"南三陸町志津川字下保呂毛１７０－４","row_num":5217},{"area_id":39,"name":"中央行政区集会所前公園（東側）","lat":38.6856811,"long":141.4533472,"status":0.0,"note":null,"address":"南三陸町志津川字新井田３４－１４２","row_num":5218},{"area_id":39,"name":"中央団地西側公園向い緑地ゴミ集積所脇","lat":38.6856811,"long":141.4533472,"status":0.0,"note":null,"address":"南三陸町志津川字新井田３４－１７８","row_num":5219},{"area_id":39,"name":"志津川小学校入口法面","lat":38.683421,"long":141.449646,"status":0.0,"note":null,"address":"南三陸町志津川字城場７５ー２","row_num":5220},{"area_id":39,"name":"上の山都市緑地南側入口ブロック塀","lat":38.6798212,"long":141.4504607,"status":0.0,"note":null,"address":"南三陸町志津川字上の山１３－５","row_num":5221},{"area_id":39,"name":"町営志津川中央復興住宅集会所前広場","lat":38.6853965,"long":141.4478251,"status":0.0,"note":null,"address":"南三陸町志津川字新井田１６３","row_num":5222},{"area_id":39,"name":"漆房バス停脇","lat":38.6853171,"long":141.4185882,"status":0.0,"note":null,"address":"南三陸町入谷字大船沢３３８","row_num":5223},{"area_id":39,"name":"町道田尻畑線田尻畑路肩","lat":38.6819332,"long":141.4306619,"status":0.0,"note":null,"address":"南三陸町志津川字田尻畑２８－３","row_num":5224},{"area_id":39,"name":"志津川西班消防車庫前","lat":38.6765685,"long":141.4361595,"status":0.0,"note":null,"address":"南三陸町志津川字竹川原４７－１２","row_num":5225},{"area_id":39,"name":"志津川西団地（東工区）上り口法面","lat":38.6825955,"long":141.4383,"status":0.0,"note":null,"address":"南三陸町志津川字廻館８４－４０","row_num":5226},{"area_id":39,"name":"旭ヶ丘コミュニティセンター前","lat":38.6835313,"long":141.4382016,"status":0.0,"note":null,"address":"南三陸町志津川字廻館１５－７３","row_num":5227},{"area_id":39,"name":"宮城県志津川教職員宿舎前","lat":38.6844722,"long":141.4359829,"status":0.0,"note":null,"address":"南三陸町志津川字廻館１５－１７３","row_num":5228},{"area_id":39,"name":"志津川西団地（西工区）入口法面","lat":38.6846042,"long":141.4337619,"status":0.0,"note":null,"address":"南三陸町志津川字廻館７４－３６","row_num":5229},{"area_id":39,"name":"小森ふ化場入口付近","lat":38.692766,"long":141.4347632,"status":0.0,"note":null,"address":"南三陸町志津川字熊田１－２","row_num":5230},{"area_id":39,"name":"秋目川バス停脇","lat":38.7001341,"long":141.4302281,"status":0.0,"note":null,"address":"南三陸町志津川字秋目川２２－１１付近","row_num":5231},{"area_id":39,"name":"商工団地公園前","lat":38.6852364,"long":141.4637666,"status":0.0,"note":null,"address":"南三陸町志津川字沼田１５０－６１","row_num":5232},{"area_id":39,"name":"沼田ふれあいセンター後側公園","lat":38.6839932,"long":141.4615813,"status":0.0,"note":null,"address":"南三陸町志津川字天王山３８－１４５","row_num":5233},{"area_id":39,"name":"南三陸町総合体育館町道側法面","lat":38.6831661,"long":141.4635206,"status":0.0,"note":null,"address":"南三陸町志津川字沼田５６","row_num":5234},{"area_id":39,"name":"町営志津川東復興住宅Ｇ棟前駐車場","lat":38.6812732,"long":141.4585319,"status":0.0,"note":null,"address":"南三陸町志津川字天王山３８－７","row_num":5235},{"area_id":39,"name":"町営志津川東復興住宅J棟前","lat":38.6812732,"long":141.4585319,"status":2.0,"note":"間違え3番に貼られている","address":"南三陸町志津川字天王山３８－７","row_num":5236},{"area_id":39,"name":"袖浜班消防車庫南側","lat":38.6754451,"long":141.4674104,"status":0.0,"note":null,"address":"南三陸町志津川字袖浜１２２－１３","row_num":5237},{"area_id":39,"name":"平磯生活センター向い","lat":38.678044,"long":141.4702926,"status":0.0,"note":null,"address":"南三陸町志津川字袖浜２２９","row_num":5238},{"area_id":39,"name":"平磯防集団地入口法面","lat":38.6838255,"long":141.4711588,"status":0.0,"note":null,"address":"南三陸町志津川字深田７０－５","row_num":5239},{"area_id":39,"name":"大平磯下船揚場下り口付近","lat":38.6802227,"long":141.476904,"status":0.0,"note":null,"address":"南三陸町志津川字深田２６３－１","row_num":5240},{"area_id":39,"name":"荒砥コミュニティセンター入口法面","lat":38.6767623,"long":141.482684,"status":0.0,"note":null,"address":"南三陸町志津川字蒲の沢２２８－７","row_num":5241},{"area_id":39,"name":"荒砥防集団地上り口法面","lat":38.6820818,"long":141.4859831,"status":0.0,"note":null,"address":"南三陸町志津川字平貝２０－３","row_num":5242},{"area_id":39,"name":"全慶寺下","lat":38.6784096,"long":141.4887771,"status":0.0,"note":null,"address":"南三陸町志津川字北の又１１","row_num":5243},{"area_id":39,"name":"町道大上坊米広線大上坊法面","lat":38.704939,"long":141.4763673,"status":0.0,"note":null,"address":"南三陸町志津川字大上坊４３－１","row_num":5244},{"area_id":39,"name":"清水団地入口","lat":38.6950324,"long":141.4866397,"status":0.0,"note":null,"address":"南三陸町志津川字内井田２２－７","row_num":5245},{"area_id":39,"name":"清水地区集会所裏法面","lat":38.6927351,"long":141.4844127,"status":0.0,"note":null,"address":"南三陸町志津川字松井田５２－４２","row_num":5246},{"area_id":39,"name":"細浦班消防車庫前法面","lat":38.7012507,"long":141.4863012,"status":0.0,"note":null,"address":"南三陸町志津川字阿曽３２－１０","row_num":5247},{"area_id":39,"name":"細浦入口バス停前","lat":38.6957461,"long":141.4952528,"status":0.0,"note":null,"address":"南三陸町志津川字蛇王１６３－１","row_num":5248},{"area_id":39,"name":"西田・細浦団地","lat":38.6971062,"long":141.5008776,"status":0.0,"note":null,"address":"南三陸町志津川字西田１４９－１３","row_num":5249},{"area_id":39,"name":"町営入谷復興住宅集会所前","lat":38.693823,"long":141.4179739,"status":0.0,"note":null,"address":"南三陸町入谷字桜沢４３－６","row_num":5250},{"area_id":39,"name":"ひころの里駐車場","lat":38.6999251,"long":141.4218851,"status":0.0,"note":null,"address":"南三陸町入谷字桜沢４３０－１","row_num":5251},{"area_id":39,"name":"旧静久堂付近空地","lat":38.6973891,"long":141.4139407,"status":0.0,"note":null,"address":"南三陸町入谷字桜沢２４５－２","row_num":5252},{"area_id":39,"name":"町道鏡石岩沢線鏡石ゴミ集積所付近土手","lat":38.7018022,"long":141.407559,"status":0.0,"note":null,"address":"南三陸町入谷字鏡石２１８－２","row_num":5253},{"area_id":39,"name":"稲香園向い路肩","lat":38.7022246,"long":141.416031,"status":0.0,"note":null,"address":"南三陸町入谷字新中の町１８７","row_num":5254},{"area_id":39,"name":"岩沢生活センター前","lat":38.7042897,"long":141.4008891,"status":0.0,"note":null,"address":"南三陸町入谷字岩沢１６０－９","row_num":5255},{"area_id":39,"name":"龍門院付近土手","lat":38.7082982,"long":141.409373,"status":0.0,"note":null,"address":"南三陸町入谷字水口沢１９９－１","row_num":5256},{"area_id":39,"name":"四季の里（童子下生活センター）脇","lat":38.7089162,"long":141.4176378,"status":0.0,"note":null,"address":"南三陸町入谷字新童子下４１","row_num":5257},{"area_id":39,"name":"佐藤豆腐店斜め向い","lat":38.7252697,"long":141.4143674,"status":0.0,"note":null,"address":"南三陸町入谷字林際２０１－１","row_num":5258},{"area_id":39,"name":"残谷中継ポンプ場前","lat":38.7315025,"long":141.4303773,"status":0.0,"note":null,"address":"南三陸町入谷字山の神平３７－６","row_num":5259},{"area_id":39,"name":"石ノ平中継ポンプ場前","lat":38.7315025,"long":141.4303773,"status":0.0,"note":null,"address":"南三陸町入谷字山の神平１６１－４","row_num":5260},{"area_id":39,"name":"たら葉沢班消防車庫前","lat":38.7315025,"long":141.4303773,"status":0.0,"note":null,"address":"南三陸町入谷字山の神平１５２－９","row_num":5261},{"area_id":39,"name":"旧たら葉沢集会所前","lat":38.7096036,"long":141.3919562,"status":0.0,"note":null,"address":"南三陸町入谷字桵葉沢３９２－２","row_num":5262},{"area_id":39,"name":"清流会館前","lat":38.7108694,"long":141.4264127,"status":0.0,"note":null,"address":"南三陸町入谷字天神７－１","row_num":5263},{"area_id":39,"name":"横断１号線天神路肩","lat":38.7068021,"long":141.4292756,"status":0.0,"note":null,"address":"南三陸町入谷字天神１８８","row_num":5264},{"area_id":39,"name":"払川バス停脇","lat":38.735281,"long":141.4460311,"status":0.0,"note":null,"address":"南三陸町歌津字払川９５－２","row_num":5265},{"area_id":39,"name":"しも畑バス停脇","lat":38.729813,"long":141.4854899,"status":0.0,"note":null,"address":"南三陸町歌津字上沢１６７－２","row_num":5266},{"area_id":39,"name":"上沢部落集会所付近","lat":38.7267409,"long":141.4951939,"status":0.0,"note":null,"address":"南三陸町歌津字上沢３２－４","row_num":5267},{"area_id":39,"name":"町道樋の口線・町道石泉樋の口線交差点付近","lat":38.7452838,"long":141.4777068,"status":0.0,"note":null,"address":"南三陸町歌津字樋の口１３","row_num":5268},{"area_id":39,"name":"山庄建設資材置場付近","lat":38.7171502,"long":141.5098755,"status":0.0,"note":null,"address":"南三陸町歌津字田表１３－１","row_num":5269},{"area_id":39,"name":"道めき橋バス停脇","lat":38.7339606,"long":141.5080243,"status":0.0,"note":null,"address":"南三陸町歌津字石泉２－１６付近","row_num":5270},{"area_id":39,"name":"平方バス停手前交差点","lat":38.7278901,"long":141.5126734,"status":0.0,"note":null,"address":"南三陸町歌津字吉野沢６１－１８５","row_num":5271},{"area_id":39,"name":"吉野沢団地前バス停脇","lat":38.7274696,"long":141.5137253,"status":0.0,"note":null,"address":"南三陸町歌津字吉野沢６１－６３","row_num":5272},{"area_id":39,"name":"韮の浜農村公園入口","lat":38.6983448,"long":141.5095275,"status":0.0,"note":null,"address":"南三陸町歌津字平松４０－２付近","row_num":5273},{"area_id":39,"name":"韮の浜班消防車庫脇","lat":38.6998282,"long":141.5119441,"status":0.0,"note":null,"address":"南三陸町歌津字砂浜２９－１","row_num":5274},{"area_id":39,"name":"寄木・韮の浜地区集会所前","lat":38.7028455,"long":141.5129587,"status":0.0,"note":null,"address":"南三陸町歌津字寄木５３－４３","row_num":5275},{"area_id":39,"name":"ハマーレ歌津かもめ館脇","lat":38.7174521,"long":141.5214812,"status":0.0,"note":null,"address":"南三陸町歌津字伊里前１００－５","row_num":5276},{"area_id":39,"name":"町営伊里前住宅","lat":38.7196403,"long":141.5196198,"status":0.0,"note":null,"address":"南三陸町歌津字伊里前１５６","row_num":5277},{"area_id":39,"name":"町営伊里前復興住宅緑地","lat":38.7238858,"long":141.5164245,"status":0.0,"note":null,"address":"南三陸町歌津字伊里前３２５－４","row_num":5278},{"area_id":39,"name":"町営伊里前復興住宅Ｂ棟南側角法面","lat":38.7235296,"long":141.5163276,"status":0.0,"note":null,"address":"南三陸町歌津字伊里前３２５－３","row_num":5279},{"area_id":39,"name":"枡沢復興住宅入口手前","lat":38.7223412,"long":141.5347023,"status":0.0,"note":null,"address":"南三陸町歌津字枡沢８５－１","row_num":5280},{"area_id":39,"name":"歌津総合支所","lat":38.7198193,"long":141.5333269,"status":0.0,"note":null,"address":"南三陸町歌津字管の浜６０","row_num":5281},{"area_id":39,"name":"館浜団地入口丁字路法面","lat":38.7107416,"long":141.5405212,"status":0.0,"note":null,"address":"南三陸町歌津字館浜１０６－２","row_num":5282},{"area_id":39,"name":"稲渕班ポンプ置場向い法面","lat":38.7107416,"long":141.5405212,"status":0.0,"note":null,"address":"南三陸町歌津字館浜１６９－２","row_num":5283},{"area_id":39,"name":"泊浜生活センター付近","lat":38.7003544,"long":141.562861,"status":0.0,"note":null,"address":"南三陸町歌津字番所７９","row_num":5284},{"area_id":39,"name":"泊浜団地上手入口付近","lat":38.707799,"long":141.5627166,"status":0.0,"note":null,"address":"南三陸町歌津字田の頭７９－４","row_num":5285},{"area_id":39,"name":"馬場・中山団地入口付近","lat":38.714716,"long":141.556205,"status":0.0,"note":null,"address":"南三陸町歌津字大沼１７－６","row_num":5286},{"area_id":39,"name":"名足こども園入口","lat":38.7240301,"long":141.545017,"status":0.0,"note":null,"address":"南三陸町歌津字小長柴６７－３","row_num":5287},{"area_id":39,"name":"災害公営名足住宅バス停","lat":38.7269855,"long":141.5556265,"status":0.0,"note":null,"address":"南三陸町歌津字北の沢８３－５","row_num":5288},{"area_id":39,"name":"名足バス停","lat":38.727427,"long":141.5587072,"status":0.0,"note":null,"address":"南三陸町歌津字北の沢１１２－９","row_num":5289},{"area_id":39,"name":"石浜集会所入口付近","lat":38.7321906,"long":141.5607692,"status":0.0,"note":null,"address":"南三陸町歌津字石浜９９－２","row_num":5290},{"area_id":39,"name":"旧田茂川仮設住宅入口脇","lat":38.7344896,"long":141.5541256,"status":0.0,"note":null,"address":"南三陸町歌津字田茂川２６３－７","row_num":5291},{"area_id":39,"name":"田の浦地区集会所","lat":38.7337762,"long":141.5380724,"status":0.0,"note":null,"address":"南三陸町歌津字田の浦１５５－９","row_num":5292},{"area_id":39,"name":"港地区長羽団地上り口付近","lat":38.7374323,"long":141.5319156,"status":0.0,"note":null,"address":"南三陸町歌津字港２６８－４","row_num":5293},{"area_id":39,"name":"町道旧国道港線長羽ゴミ集積所付近法面","lat":38.7341472,"long":141.533529,"status":0.0,"note":null,"address":"南三陸町歌津字長羽７４－１","row_num":5294},{"area_id":39,"name":"港親義会館後","lat":38.7416622,"long":141.5296173,"status":0.0,"note":null,"address":"南三陸町歌津字中野９１－１０","row_num":5295}]