[{"area_id":8,"name":"九条集会所　前","lat":38.8975949,"long":141.5545734,"status":0,"note":null},{"area_id":8,"name":"気仙沼高等学校　香久留ヶ原会館前　フェンス","lat":38.8948943,"long":141.5584205,"status":0,"note":null},{"area_id":8,"name":"個人宅　前　野立","lat":38.8961901,"long":141.5538767,"status":0,"note":null},{"area_id":8,"name":"九条小学校 校庭　南側　フェンス","lat":38.8938941,"long":141.5531812,"status":0,"note":null},{"area_id":8,"name":"羽黒神社　入口　市道","lat":38.8960857,"long":141.5505753,"status":0,"note":null},{"area_id":8,"name":"田中記念公園　鉄柵","lat":38.8905234,"long":141.558042,"status":0,"note":null},{"area_id":8,"name":"元条南中学校　北側　土手","lat":38.8893447,"long":141.5608652,"status":0,"note":null},{"area_id":8,"name":"反松公園　東側　道路沿い　土手","lat":38.8874558,"long":141.5559693,"status":0,"note":null},{"area_id":8,"name":"神山公園　西側","lat":35.7759488,"long":139.531316,"status":0,"note":null},{"area_id":8,"name":"田谷公園　東側","lat":38.8957228,"long":141.5656538,"status":0,"note":null},{"area_id":8,"name":"中谷地公園　鉄柵","lat":37.3889439,"long":140.3277117,"status":0,"note":null},{"area_id":8,"name":"サンスールアパート裏手　緑地","lat":38.9007206,"long":141.5587759,"status":0,"note":null},{"area_id":8,"name":"舘山コミュニティーセンター　入口　植込み","lat":38.9029713,"long":141.5605378,"status":0,"note":null},{"area_id":8,"name":"新鮮館　駐車場　北側　フェンス","lat":38.9019202,"long":141.5543911,"status":0,"note":null},{"area_id":8,"name":"舘山二丁目駐車場隣　市道","lat":38.9066501,"long":141.5546088,"status":0,"note":null},{"area_id":8,"name":"駅前コミュニティセンター西側　空地","lat":38.9079702,"long":141.5618824,"status":0,"note":null},{"area_id":8,"name":"古町四区自治会館　軒下","lat":38.9094472,"long":141.5607898,"status":0,"note":null},{"area_id":8,"name":"個人宅（富士薬品気仙沼営業所隣）　道路向い","lat":38.9126874,"long":141.5521028,"status":0,"note":null},{"area_id":8,"name":"福美町PTA倉庫　向い","lat":38.9089146,"long":141.5656842,"status":0,"note":null},{"area_id":8,"name":"気仙沼小学校　校舎東側　植込み","lat":38.902935,"long":141.5712506,"status":0,"note":null},{"area_id":8,"name":"市役所前 市道 ワンテン庁舎 市道側 フェンス","lat":38.9076276,"long":141.5704157,"status":0,"note":null},{"area_id":8,"name":"角星酒造工場　石塀","lat":38.9090853,"long":141.5754927,"status":0,"note":null},{"area_id":8,"name":"市民会館　西側　角　植込み","lat":38.9007761,"long":141.5728832,"status":0,"note":null},{"area_id":8,"name":"幸町住宅　道路沿い　植込み","lat":38.8984371,"long":141.5762741,"status":0,"note":null},{"area_id":8,"name":"南気仙沼水産加工事業協同組合　様　超低温冷蔵庫　向い","lat":38.8946771,"long":141.5806039,"status":0,"note":null},{"area_id":8,"name":"個人宅　裏　空地（善茶屋バス停付近）","lat":38.946306,"long":141.5734184,"status":0,"note":null},{"area_id":8,"name":"個人宅　道路向い","lat":38.9657279,"long":141.5633967,"status":0,"note":null},{"area_id":8,"name":"鹿折金山入口バス停　前","lat":38.9747919,"long":141.5583817,"status":0,"note":null},{"area_id":8,"name":"個人宅前　畑","lat":38.9347996,"long":141.5814015,"status":0,"note":null},{"area_id":8,"name":"中央橋　西側　ごみ集積所　脇","lat":38.9355107,"long":141.5766131,"status":0,"note":null},{"area_id":8,"name":"鹿折小学校　南側フェンス　県道側","lat":38.922328,"long":141.5817472,"status":0,"note":null},{"area_id":8,"name":"東陵高等学校入口　空地","lat":38.9244871,"long":141.5901265,"status":0,"note":null},{"area_id":8,"name":"錦町西公園　南側","lat":38.9140065,"long":141.5818551,"status":0,"note":null},{"area_id":8,"name":"鹿折公民館　西側　土手","lat":38.9178803,"long":141.582818,"status":0,"note":null},{"area_id":8,"name":"大浦防集団地入口　北側　県道敷","lat":38.9043786,"long":141.5921622,"status":0,"note":null},{"area_id":8,"name":"梶ケ浦ふれあいセンター付近　市道法面","lat":38.907641,"long":141.5703316,"status":0,"note":null},{"area_id":8,"name":"小々汐コミュニティーセンター　脇　土手","lat":38.8899924,"long":141.6009204,"status":0,"note":null},{"area_id":8,"name":"個人宅　前　畑","lat":38.8864599,"long":141.5748157,"status":0,"note":null},{"area_id":8,"name":"松岩小学校　東側　フェンス","lat":38.8785685,"long":141.5724969,"status":0,"note":null},{"area_id":8,"name":"赤岩港水産加工団地入口付近　市道法面","lat":38.8869563,"long":141.5789904,"status":0,"note":null},{"area_id":8,"name":"松岩公民館　西側　フェンス","lat":38.8790411,"long":141.5763679,"status":0,"note":null},{"area_id":8,"name":"市営赤岩住宅跡地","lat":38.8804543,"long":141.569016,"status":0,"note":null},{"area_id":8,"name":"前浜精義会館　軒下","lat":38.8804135,"long":141.5865854,"status":0,"note":null},{"area_id":8,"name":"松岩中学校前バス停　市道","lat":38.8736233,"long":141.5547304,"status":0,"note":null},{"area_id":8,"name":"牧沢団地　入口　市道","lat":38.8812031,"long":141.553337,"status":0,"note":null},{"area_id":8,"name":"杉ノ沢鉄塔付近緑地帯（コミュニティーセンター市道向い）","lat":38.907641,"long":141.5703316,"status":0,"note":null},{"area_id":8,"name":"気仙沼市総合体育館　入口付近　法面","lat":38.8817152,"long":141.5535716,"status":0,"note":null},{"area_id":8,"name":"畠昭ハイツ　前　土手（市道）","lat":38.8712427,"long":141.5740407,"status":0,"note":null},{"area_id":8,"name":"鶴巻コミュニティセンター入口　市道側法面","lat":38.8683332,"long":141.5627762,"status":0,"note":null},{"area_id":8,"name":"面瀬小学校　プール　北側フェンス","lat":38.8669298,"long":141.5730658,"status":0,"note":null},{"area_id":8,"name":"個人宅　前　畑","lat":38.8655859,"long":141.5448688,"status":0,"note":null},{"area_id":8,"name":"金取バス停付近　土手","lat":38.8573484,"long":141.5396842,"status":0,"note":null},{"area_id":8,"name":"大石倉自治会館　前　県道","lat":38.8779565,"long":141.5374783,"status":0,"note":null},{"area_id":8,"name":"個人宅　裏　空地","lat":38.8586024,"long":141.5227971,"status":0,"note":null},{"area_id":8,"name":"竹の里（カフェ桃李の花）　南側　土手","lat":38.9035233,"long":141.5485194,"status":0,"note":null},{"area_id":8,"name":"気仙沼市社会福祉協議会　フェンス","lat":38.9092039,"long":141.5496983,"status":0,"note":null},{"area_id":8,"name":"国道284号　大林バス停　背後地","lat":38.912402,"long":141.5365171,"status":0,"note":null},{"area_id":8,"name":"個人宅　入口　土手","lat":38.9220313,"long":141.5437583,"status":0,"note":null},{"area_id":8,"name":"佐々木産業　北側　フェンス","lat":38.9042403,"long":141.5402762,"status":0,"note":null},{"area_id":8,"name":"前木郵便局付近　土手","lat":38.9168416,"long":141.503162,"status":0,"note":null},{"area_id":8,"name":"旧落合小学校　入口　土手","lat":38.9129909,"long":141.496176,"status":0,"note":null},{"area_id":8,"name":"下廿一会館　前　市道","lat":38.9042886,"long":141.4963686,"status":0,"note":null},{"area_id":8,"name":"上廿一会館　脇　ごみ集積所付近　市道","lat":38.9000984,"long":141.485428,"status":0,"note":null},{"area_id":8,"name":"個人宅　向い　市道","lat":38.9178186,"long":141.4972455,"status":0,"note":null},{"area_id":8,"name":"八瀬地域郷土文化保存伝承館　軒下","lat":38.9475423,"long":141.5322895,"status":0,"note":null},{"area_id":8,"name":"個人宅（東北大学観測所看板）向い　空地","lat":38.9608981,"long":141.5218347,"status":0,"note":null},{"area_id":8,"name":"個人宅前　法面","lat":38.9246122,"long":141.5191978,"status":0,"note":null},{"area_id":8,"name":"台バス停　前　市道","lat":38.9392647,"long":141.5114408,"status":0,"note":null},{"area_id":8,"name":"個人宅　入口　畑　土手","lat":38.8467562,"long":141.5773821,"status":0,"note":null},{"area_id":8,"name":"階上大谷土地改良区事務所 前  土手","lat":38.8374884,"long":141.5740793,"status":0,"note":null},{"area_id":8,"name":"長磯浜北住宅　南側　ごみ集積所　脇","lat":38.8420145,"long":141.5853302,"status":0,"note":null},{"area_id":8,"name":"最知駅入口交差点付近ごみ集積所　脇","lat":38.8537747,"long":141.580249,"status":0,"note":null},{"area_id":8,"name":"階上公民館　駐車場　フェンス","lat":38.8401051,"long":141.5805177,"status":0,"note":null},{"area_id":8,"name":"波路上自治会館　駐車場　東側","lat":38.8346709,"long":141.5797365,"status":0,"note":null},{"area_id":8,"name":"岩月バス停　後ろ　畑","lat":38.8652582,"long":141.5825069,"status":0,"note":null},{"area_id":8,"name":"面瀬中学校南側交差点　市道","lat":38.858355,"long":141.5751636,"status":0,"note":null},{"area_id":8,"name":"青葉が丘団地　入口　土手","lat":38.8636257,"long":141.55898,"status":0,"note":null},{"area_id":8,"name":"大島開発総合センター前","lat":38.8471668,"long":141.6199212,"status":0,"note":null},{"area_id":8,"name":"駒形バス停（個人宅　前） 土手","lat":38.841341,"long":141.6201492,"status":0,"note":null},{"area_id":8,"name":"要害バス停付近","lat":38.8476018,"long":141.6163821,"status":0,"note":null},{"area_id":8,"name":"三作浜バス停（個人宅　脇） 空地","lat":38.8416126,"long":141.625484,"status":0,"note":null},{"area_id":8,"name":"大島公民館　駐車場フェンス","lat":38.8554655,"long":141.6160496,"status":0,"note":null},{"area_id":8,"name":"コイン洗車場　向い　県道","lat":38.8641109,"long":141.6214532,"status":0,"note":null},{"area_id":8,"name":"個人宅　土手","lat":38.856391,"long":141.620504,"status":0,"note":null},{"area_id":8,"name":"個人宅　入口　空地","lat":38.8626851,"long":141.6101003,"status":0,"note":null},{"area_id":8,"name":"浦の浜自治会館向い　県道緑地","lat":38.8675751,"long":141.6169277,"status":0,"note":null},{"area_id":8,"name":"大立浜バス停  前","lat":38.8625968,"long":141.6691687,"status":0,"note":null},{"area_id":8,"name":"長浜バス停　前","lat":38.8642189,"long":141.6633167,"status":0,"note":null},{"area_id":8,"name":"津本バス停　前","lat":38.8664121,"long":141.6612979,"status":0,"note":null},{"area_id":8,"name":"個人宅　前","lat":38.8680808,"long":141.6650104,"status":0,"note":null},{"area_id":8,"name":"大日神社　前","lat":38.8708035,"long":141.6615189,"status":0,"note":null},{"area_id":8,"name":"個人宅道路向い　県道敷","lat":38.8734755,"long":141.6613213,"status":0,"note":null},{"area_id":8,"name":"松圃バス停  前","lat":38.8749826,"long":141.6592608,"status":0,"note":null},{"area_id":8,"name":"中井小学校前バス停","lat":38.8806697,"long":141.6601055,"status":0,"note":null},{"area_id":8,"name":"個人宅　前","lat":38.8798131,"long":141.656601,"status":0,"note":null},{"area_id":8,"name":"中井公民館　前","lat":38.8819239,"long":141.656547,"status":0,"note":null},{"area_id":8,"name":"個人宅　前","lat":38.8851921,"long":141.6601384,"status":0,"note":null},{"area_id":8,"name":"小鯖集会所　土手","lat":38.883526,"long":141.6517845,"status":0,"note":null},{"area_id":8,"name":"個人宅　前","lat":38.8977068,"long":141.6414585,"status":0,"note":null},{"area_id":8,"name":"個人宅北側交差点付近","lat":38.8930298,"long":141.6397831,"status":0,"note":null},{"area_id":8,"name":"元ローソン向い　県道沿い（宿自治会花壇脇）","lat":38.9050639,"long":141.6486082,"status":0,"note":null},{"area_id":8,"name":"明戸大橋東側旧道（デマンドバス停宿８－７）","lat":38.8994657,"long":141.6394144,"status":0,"note":null},{"area_id":8,"name":"舞根第２防集団地内　ごみ集積所　脇","lat":38.9110707,"long":141.6184313,"status":0,"note":null},{"area_id":8,"name":"舞根集会所　土手","lat":38.9056156,"long":141.6334764,"status":0,"note":null},{"area_id":8,"name":"半造入口バス停　前","lat":38.8929417,"long":141.650936,"status":0,"note":null},{"area_id":8,"name":"丸藤旅館脇　畑","lat":38.8925487,"long":141.6596985,"status":0,"note":null},{"area_id":8,"name":"賽の神バス停　前","lat":38.8982035,"long":141.6496258,"status":0,"note":null},{"area_id":8,"name":"石浜バス停　前","lat":38.9124338,"long":141.6462313,"status":0,"note":null},{"area_id":8,"name":"高石浜バス停　前","lat":38.9187942,"long":141.6473905,"status":0,"note":null},{"area_id":8,"name":"福祉の里バス停　前","lat":38.9186485,"long":141.6437883,"status":0,"note":null},{"area_id":8,"name":"只越公衆トイレ　手前　空地","lat":38.9258636,"long":141.6206608,"status":0,"note":null},{"area_id":8,"name":"只越防集団地（咲山団地）法面","lat":38.9334416,"long":141.6374486,"status":0,"note":null},{"area_id":8,"name":"新田前バス停　脇　空地","lat":38.9484537,"long":141.6190097,"status":0,"note":null},{"area_id":8,"name":"大沢水道ポンプ場　北側　土手","lat":38.9599872,"long":141.6298769,"status":0,"note":null},{"area_id":8,"name":"小田国道入口","lat":38.9407306,"long":141.6380709,"status":0,"note":null},{"area_id":8,"name":"蔵内仮設住宅跡地付近　ごみ集積所脇","lat":38.749092,"long":141.5237681,"status":0,"note":null},{"area_id":8,"name":"浜区多目的集会場　法面","lat":38.7588549,"long":141.5275499,"status":0,"note":null},{"area_id":8,"name":"市道｢旧国道菅の沢線」起点付近","lat":38.7601733,"long":141.5120677,"status":0,"note":null},{"area_id":8,"name":"小泉地区防集団地入口　土手　（グリーンロード沿い）","lat":38.7535834,"long":141.4990727,"status":0,"note":null},{"area_id":8,"name":"小泉公民館　北側　法面","lat":38.7663721,"long":141.5073125,"status":0,"note":null},{"area_id":8,"name":"在区コミュニティセンター　入口　土手","lat":38.7764624,"long":141.5039146,"status":0,"note":null},{"area_id":8,"name":"幣掛ふれあい会館　入口　西側","lat":38.7775069,"long":141.4863966,"status":0,"note":null},{"area_id":8,"name":"金山入口バス停付近","lat":38.781707,"long":141.4605849,"status":0,"note":null},{"area_id":8,"name":"須賀神社　入口付近","lat":38.7761615,"long":141.4457014,"status":0,"note":null},{"area_id":8,"name":"個人宅道路向い　空地","lat":38.777744,"long":141.4319404,"status":0,"note":null},{"area_id":8,"name":"大柴バス停　脇","lat":38.7634523,"long":141.4196334,"status":0,"note":null},{"area_id":8,"name":"漆原コミュニティセンター　向い","lat":38.7863548,"long":141.4583428,"status":0,"note":null},{"area_id":8,"name":"旧松ヶ沢振興会館　脇","lat":38.7822897,"long":141.4806493,"status":0,"note":null},{"area_id":8,"name":"猪の鼻橋付近","lat":38.7853008,"long":141.4805282,"status":0,"note":null},{"area_id":8,"name":"岩渕商店様　向い","lat":38.7903181,"long":141.4893937,"status":0,"note":null},{"area_id":8,"name":"津谷小学校　南門　フェンス","lat":38.7904149,"long":141.5071516,"status":0,"note":null},{"area_id":8,"name":"はまなす文化タウン前駐車場","lat":38.794415,"long":141.501475,"status":0,"note":null},{"area_id":8,"name":"本吉総合支所　下側　草地","lat":38.7940303,"long":141.5042755,"status":0,"note":null},{"area_id":8,"name":"下川内多目的集会場付近","lat":38.8112041,"long":141.4924812,"status":0,"note":null},{"area_id":8,"name":"吸上バス停付近","lat":38.7928319,"long":141.5155832,"status":0,"note":null},{"area_id":8,"name":"風越コミュニティセンター沿い市道","lat":38.7902803,"long":141.5165358,"status":0,"note":null},{"area_id":8,"name":"大沢生活改善センター脇","lat":38.7946284,"long":141.5204078,"status":0,"note":null},{"area_id":8,"name":"(株)ガイアートＴＫ作業所入口付近　ゴミ集積所脇","lat":38.7869506,"long":141.5088951,"status":0,"note":null},{"area_id":8,"name":"平山バス停付近","lat":38.8376883,"long":141.4711728,"status":0,"note":null},{"area_id":8,"name":"個人宅　前　県道","lat":38.8143209,"long":141.4749816,"status":0,"note":null},{"area_id":8,"name":"坊の倉地区農林漁家婦人活動施設　前","lat":38.8077971,"long":141.5045813,"status":0,"note":null},{"area_id":8,"name":"狼の巣多目的集会場付近　土手","lat":38.8157598,"long":141.5033472,"status":0,"note":null},{"area_id":8,"name":"個人宅道路向い","lat":38.8010907,"long":141.5113065,"status":0,"note":null},{"area_id":8,"name":"林の沢振興会館　前　駐車場","lat":38.7989622,"long":141.517279,"status":0,"note":null},{"area_id":8,"name":"個人宅　入口","lat":38.8033467,"long":141.5325922,"status":0,"note":null},{"area_id":8,"name":"清凉院　東側入口　手前　空地","lat":38.8101407,"long":141.5389597,"status":0,"note":null},{"area_id":8,"name":"日門バス停　背後地","lat":38.8083078,"long":141.5524717,"status":0,"note":null},{"area_id":8,"name":"とよさとガーデン様　横　緑地","lat":38.8142683,"long":141.5608312,"status":0,"note":null},{"area_id":8,"name":"個人宅前　市道　法面","lat":38.8039473,"long":141.5547714,"status":0,"note":null},{"area_id":8,"name":"寺谷コミュニティセンター　前","lat":38.8198468,"long":141.562377,"status":0,"note":null},{"area_id":8,"name":"大谷郵便局国道向い　市有地（被災宅地）","lat":38.8164792,"long":141.5729933,"status":0,"note":null},{"area_id":8,"name":"ＮＴＴ東日本宮城支店　大谷電話交換所向い","lat":38.8197657,"long":141.5709137,"status":0,"note":null},{"area_id":8,"name":"臼真倉庫　様　南側　空地","lat":38.8314239,"long":141.5628409,"status":0,"note":null},{"area_id":8,"name":"上郷地区コミュニティセンター　前","lat":38.8379297,"long":141.5550803,"status":0,"note":null},{"area_id":8,"name":"はまなす台住宅団地付近　市道","lat":38.8249533,"long":141.5688735,"status":0,"note":null},{"area_id":8,"name":"大谷西防集団地　ゴミ集積所脇","lat":38.8229556,"long":141.5685426,"status":0,"note":null},{"area_id":39,"name":"荒町ふれあいセンター敷地","lat":38.6449424,"long":141.4126933,"status":0,"note":null},{"area_id":39,"name":"西戸地区集会所付近","lat":38.6399891,"long":141.4235197,"status":0,"note":null},{"area_id":39,"name":"沖田地区集会所","lat":38.6376943,"long":141.4421939,"status":0,"note":null},{"area_id":39,"name":"戸倉公民館","lat":38.6424431,"long":141.4427154,"status":0,"note":null},{"area_id":39,"name":"水戸辺町道下り口ゴミ集積所付近","lat":38.6403518,"long":141.4544474,"status":0,"note":null},{"area_id":39,"name":"松崎団地上り口付近","lat":38.6455556,"long":141.4641028,"status":0,"note":null},{"area_id":39,"name":"波伝谷団地緑地広場前","lat":38.6423846,"long":141.472666,"status":0,"note":null},{"area_id":39,"name":"合羽沢団地上り口付近","lat":38.6411358,"long":141.4817715,"status":0,"note":null},{"area_id":39,"name":"津の宮原団地緑地","lat":38.6412283,"long":141.4843247,"status":0,"note":null},{"area_id":39,"name":"滝浜墓地入口付近法面","lat":38.6320207,"long":141.4936546,"status":0,"note":null},{"area_id":39,"name":"保呂羽神社付近防潮堤南側","lat":38.6357322,"long":141.5017362,"status":0,"note":null},{"area_id":39,"name":"国道３９８号待避所","lat":38.6357569,"long":141.5121486,"status":0,"note":null},{"area_id":39,"name":"長清水団地上り口付近","lat":38.6329433,"long":141.5158946,"status":0,"note":null},{"area_id":39,"name":"神割崎入口","lat":38.6308355,"long":141.5173294,"status":0,"note":null},{"area_id":39,"name":"三陸建業脇法面","lat":38.6666895,"long":141.4429653,"status":0,"note":null},{"area_id":39,"name":"遠藤組手前路肩","lat":38.6700862,"long":141.4397567,"status":0,"note":null},{"area_id":39,"name":"町道保呂毛線・農道保呂毛線交差点付近","lat":38.6740867,"long":141.4237616,"status":0,"note":null},{"area_id":39,"name":"中央行政区集会所前公園（東側）","lat":55.7569428,"long":37.6149894,"status":0,"note":null},{"area_id":39,"name":"中央団地西側公園向い緑地ゴミ集積所脇","lat":34.3349099,"long":132.5148023,"status":0,"note":null},{"area_id":39,"name":"志津川小学校入口法面","lat":38.683421,"long":141.449646,"status":0,"note":null},{"area_id":39,"name":"上の山都市緑地南側入口ブロック塀","lat":38.6798212,"long":141.4504607,"status":0,"note":null},{"area_id":39,"name":"町営志津川中央復興住宅集会所前広場","lat":38.6853965,"long":141.4478251,"status":0,"note":null},{"area_id":39,"name":"漆房バス停脇","lat":38.6853171,"long":141.4185882,"status":0,"note":null},{"area_id":39,"name":"町道田尻畑線田尻畑路肩","lat":38.6819332,"long":141.4306619,"status":0,"note":null},{"area_id":39,"name":"志津川西班消防車庫前","lat":38.6765685,"long":141.4361595,"status":0,"note":null},{"area_id":39,"name":"志津川西団地（東工区）上り口法面","lat":38.6825955,"long":141.4383,"status":0,"note":null},{"area_id":39,"name":"旭ヶ丘コミュニティセンター前","lat":38.6835313,"long":141.4382016,"status":0,"note":null},{"area_id":39,"name":"宮城県志津川教職員宿舎前","lat":38.6844722,"long":141.4359829,"status":0,"note":null},{"area_id":39,"name":"志津川西団地（西工区）入口法面","lat":38.6846042,"long":141.4337619,"status":0,"note":null},{"area_id":39,"name":"小森ふ化場入口付近","lat":38.692766,"long":141.4347632,"status":0,"note":null},{"area_id":39,"name":"秋目川バス停脇","lat":38.7001341,"long":141.4302281,"status":0,"note":null},{"area_id":39,"name":"商工団地公園前","lat":38.6852364,"long":141.4637666,"status":0,"note":null},{"area_id":39,"name":"沼田ふれあいセンター後側公園","lat":38.6839932,"long":141.4615813,"status":0,"note":null},{"area_id":39,"name":"南三陸町総合体育館町道側法面","lat":38.6831661,"long":141.4635206,"status":0,"note":null},{"area_id":39,"name":"町営志津川東復興住宅Ｇ棟前駐車場","lat":38.6812732,"long":141.4585319,"status":0,"note":null},{"area_id":39,"name":"町営志津川東復興住宅J棟前","lat":38.6812732,"long":141.4585319,"status":0,"note":null},{"area_id":39,"name":"袖浜班消防車庫南側","lat":38.6754451,"long":141.4674104,"status":0,"note":null},{"area_id":39,"name":"平磯生活センター向い","lat":38.678044,"long":141.4702926,"status":0,"note":null},{"area_id":39,"name":"平磯防集団地入口法面","lat":38.6838255,"long":141.4711588,"status":0,"note":null},{"area_id":39,"name":"大平磯下船揚場下り口付近","lat":38.6802227,"long":141.476904,"status":0,"note":null},{"area_id":39,"name":"荒砥コミュニティセンター入口法面","lat":38.6767623,"long":141.482684,"status":0,"note":null},{"area_id":39,"name":"荒砥防集団地上り口法面","lat":38.6820818,"long":141.4859831,"status":0,"note":null},{"area_id":39,"name":"全慶寺下","lat":38.6784096,"long":141.4887771,"status":0,"note":null},{"area_id":39,"name":"町道大上坊米広線大上坊法面","lat":38.704939,"long":141.4763673,"status":0,"note":null},{"area_id":39,"name":"清水団地入口","lat":38.6950324,"long":141.4866397,"status":0,"note":null},{"area_id":39,"name":"清水地区集会所裏法面","lat":38.6927351,"long":141.4844127,"status":0,"note":null},{"area_id":39,"name":"細浦班消防車庫前法面","lat":38.7012507,"long":141.4863012,"status":0,"note":null},{"area_id":39,"name":"細浦入口バス停前","lat":38.6957461,"long":141.4952528,"status":0,"note":null},{"area_id":39,"name":"西田・細浦団地","lat":38.6971062,"long":141.5008776,"status":0,"note":null},{"area_id":39,"name":"町営入谷復興住宅集会所前","lat":38.693823,"long":141.4179739,"status":0,"note":null},{"area_id":39,"name":"ひころの里駐車場","lat":38.6999251,"long":141.4218851,"status":0,"note":null},{"area_id":39,"name":"旧静久堂付近空地","lat":38.6973891,"long":141.4139407,"status":0,"note":null},{"area_id":39,"name":"町道鏡石岩沢線鏡石ゴミ集積所付近土手","lat":38.7018022,"long":141.407559,"status":0,"note":null},{"area_id":39,"name":"稲香園向い路肩","lat":38.7022246,"long":141.416031,"status":0,"note":null},{"area_id":39,"name":"岩沢生活センター前","lat":38.7042897,"long":141.4008891,"status":0,"note":null},{"area_id":39,"name":"龍門院付近土手","lat":38.7082982,"long":141.409373,"status":0,"note":null},{"area_id":39,"name":"四季の里（童子下生活センター）脇","lat":38.7089162,"long":141.4176378,"status":0,"note":null},{"area_id":39,"name":"佐藤豆腐店斜め向い","lat":38.7252697,"long":141.4143674,"status":0,"note":null},{"area_id":39,"name":"残谷中継ポンプ場前","lat":38.7315025,"long":141.4303773,"status":0,"note":null},{"area_id":39,"name":"石ノ平中継ポンプ場前","lat":38.7315025,"long":141.4303773,"status":0,"note":null},{"area_id":39,"name":"たら葉沢班消防車庫前","lat":38.7315025,"long":141.4303773,"status":0,"note":null},{"area_id":39,"name":"旧たら葉沢集会所前","lat":38.7096036,"long":141.3919562,"status":0,"note":null},{"area_id":39,"name":"清流会館前","lat":38.7108694,"long":141.4264127,"status":0,"note":null},{"area_id":39,"name":"横断１号線天神路肩","lat":38.7068021,"long":141.4292756,"status":0,"note":null},{"area_id":39,"name":"払川バス停脇","lat":38.735281,"long":141.4460311,"status":0,"note":null},{"area_id":39,"name":"しも畑バス停脇","lat":38.729813,"long":141.4854899,"status":0,"note":null},{"area_id":39,"name":"上沢部落集会所付近","lat":38.7267409,"long":141.4951939,"status":0,"note":null},{"area_id":39,"name":"町道樋の口線・町道石泉樋の口線交差点付近","lat":38.7452838,"long":141.4777068,"status":0,"note":null},{"area_id":39,"name":"山庄建設資材置場付近","lat":38.7171502,"long":141.5098755,"status":0,"note":null},{"area_id":39,"name":"道めき橋バス停脇","lat":38.7339606,"long":141.5080243,"status":0,"note":null},{"area_id":39,"name":"平方バス停手前交差点","lat":38.7278901,"long":141.5126734,"status":0,"note":null},{"area_id":39,"name":"吉野沢団地前バス停脇","lat":38.7274696,"long":141.5137253,"status":0,"note":null},{"area_id":39,"name":"韮の浜農村公園入口","lat":38.6983448,"long":141.5095275,"status":0,"note":null},{"area_id":39,"name":"韮の浜班消防車庫脇","lat":38.6998282,"long":141.5119441,"status":0,"note":null},{"area_id":39,"name":"寄木・韮の浜地区集会所前","lat":38.7028455,"long":141.5129587,"status":0,"note":null},{"area_id":39,"name":"ハマーレ歌津かもめ館脇","lat":38.7174521,"long":141.5214812,"status":0,"note":null},{"area_id":39,"name":"町営伊里前住宅","lat":38.7196403,"long":141.5196198,"status":0,"note":null},{"area_id":39,"name":"町営伊里前復興住宅緑地","lat":38.7238858,"long":141.5164245,"status":0,"note":null},{"area_id":39,"name":"町営伊里前復興住宅Ｂ棟南側角法面","lat":38.7235296,"long":141.5163276,"status":0,"note":null},{"area_id":39,"name":"枡沢復興住宅入口手前","lat":38.7223412,"long":141.5347023,"status":0,"note":null},{"area_id":39,"name":"歌津総合支所","lat":38.7198193,"long":141.5333269,"status":0,"note":null},{"area_id":39,"name":"館浜団地入口丁字路法面","lat":38.7107416,"long":141.5405212,"status":0,"note":null},{"area_id":39,"name":"稲渕班ポンプ置場向い法面","lat":38.7107416,"long":141.5405212,"status":0,"note":null},{"area_id":39,"name":"泊浜生活センター付近","lat":38.7003544,"long":141.562861,"status":0,"note":null},{"area_id":39,"name":"泊浜団地上手入口付近","lat":38.707799,"long":141.5627166,"status":0,"note":null},{"area_id":39,"name":"馬場・中山団地入口付近","lat":38.714716,"long":141.556205,"status":0,"note":null},{"area_id":39,"name":"名足こども園入口","lat":38.7240301,"long":141.545017,"status":0,"note":null},{"area_id":39,"name":"災害公営名足住宅バス停","lat":38.7269855,"long":141.5556265,"status":0,"note":null},{"area_id":39,"name":"名足バス停","lat":38.727427,"long":141.5587072,"status":0,"note":null},{"area_id":39,"name":"石浜集会所入口付近","lat":38.7321906,"long":141.5607692,"status":0,"note":null},{"area_id":39,"name":"旧田茂川仮設住宅入口脇","lat":38.7344896,"long":141.5541256,"status":0,"note":null},{"area_id":39,"name":"田の浦地区集会所","lat":38.7337762,"long":141.5380724,"status":0,"note":null},{"area_id":39,"name":"港地区長羽団地上り口付近","lat":38.7374323,"long":141.5319156,"status":0,"note":null},{"area_id":39,"name":"町道旧国道港線長羽ゴミ集積所付近法面","lat":38.7341472,"long":141.533529,"status":0,"note":null},{"area_id":39,"name":"港親義会館後","lat":38.7416622,"long":141.5296173,"status":0,"note":null}]