[{"area_id":15,"name":"市営薬師住宅入口前道路南側（道路敷）","lat":38.7294675,"long":141.0160484,"status":0.0,"note":null,"address":"栗原市築館薬師台1-9","row_num":2989},{"area_id":15,"name":"築館小学校グランド北側階段脇法面","lat":38.7310444,"long":141.0200407,"status":1.0,"note":null,"address":"栗原市築館薬師一丁目地内","row_num":2990},{"area_id":15,"name":"市営薬師台住宅公園","lat":38.7294675,"long":141.0160484,"status":0.0,"note":null,"address":"栗原市築館薬師台37-1","row_num":2991},{"area_id":15,"name":"栗原文化会館付近アポロロード南側（道路敷）","lat":38.7257862,"long":141.0243541,"status":0.0,"note":null,"address":"栗原市築館高田二丁目150-18","row_num":2992},{"area_id":15,"name":"赤坂洗車場付近（道路敷）","lat":38.7210127,"long":141.0130023,"status":0.0,"note":null,"address":"栗原市築館字赤沢88-1","row_num":2993},{"area_id":15,"name":"築館西保育所北側フェンス","lat":38.7293786,"long":141.0018955,"status":0.0,"note":null,"address":"栗原市築館新田57-11","row_num":2994},{"area_id":15,"name":"国道398号沿い大和工務店向い空地","lat":38.7357774,"long":141.0143954,"status":1.0,"note":null,"address":"栗原市築館青野1番7","row_num":2995},{"area_id":15,"name":"市立図書館駐車場南側フェンス","lat":38.7343311,"long":141.0173444,"status":0.0,"note":null,"address":"栗原市築館薬師三丁目58-1","row_num":2996},{"area_id":15,"name":"国道398号沿い戸田聡宅ブロック塀（交差点側）","lat":38.7343311,"long":141.0173444,"status":1.0,"note":null,"address":"栗原市築館薬師三丁目140-2","row_num":2997},{"area_id":15,"name":"ＪＡ新みやぎ農協築館支部合同庁舎側法面（道路敷）","lat":38.7375171,"long":141.0198167,"status":1.0,"note":null,"address":"栗原市築館藤木２−２０","row_num":2998},{"area_id":15,"name":"国道398号沿い鈴木晃一宅フェンス","lat":38.733848,"long":141.0242016,"status":1.0,"note":null,"address":"栗原市築館伊豆一丁目47-4","row_num":2999},{"area_id":15,"name":"築館幼稚園南側フェンス","lat":38.7330839,"long":141.0239803,"status":1.0,"note":null,"address":"栗原市築館伊豆一丁目5番1","row_num":3000},{"area_id":15,"name":"野口建設（株）北側フェンス","lat":38.7333205,"long":141.031682,"status":1.0,"note":null,"address":"栗原市築館源光33番地","row_num":3001},{"area_id":15,"name":"市道伊豆町源光線・県道河南築館線交差点付近","lat":38.7301654,"long":141.0325072,"status":1.0,"note":null,"address":"栗原市築館字源光54番地付近","row_num":3002},{"area_id":15,"name":"築館総合支所西側フェンス","lat":38.7329709,"long":141.0278576,"status":1.0,"note":null,"address":"栗原市築館伊豆二丁目89","row_num":3003},{"area_id":15,"name":"個人宅南側（道路敷）","lat":38.7395169,"long":140.9906969,"status":0.0,"note":null,"address":"栗原市築館字成田2-3地先","row_num":3004},{"area_id":15,"name":"こえだて橋付近十字路（道路敷）","lat":38.7363035,"long":141.0069141,"status":0.0,"note":null,"address":"栗原市築館字左足下3-2","row_num":3005},{"area_id":15,"name":"佐野老人憩いの家前道路南側（道路敷）","lat":38.7304012,"long":141.0027868,"status":0.0,"note":null,"address":"栗原市築館新田60-3地先","row_num":3006},{"area_id":15,"name":"萩沢コミュニティセンター東側フェンス","lat":38.7259157,"long":140.9969187,"status":0.0,"note":null,"address":"栗原市築館字萩沢77-7","row_num":3007},{"area_id":15,"name":"高森ロマンホ－ム前道路南側（道路敷）","lat":38.7179878,"long":140.9855327,"status":0.0,"note":null,"address":"栗原市築館字下高森127-2","row_num":3008},{"area_id":15,"name":"個人宅南側（道路敷）","lat":38.7136955,"long":141.0366764,"status":0.0,"note":null,"address":"栗原市築館字照越浅松沢28番地2地先","row_num":3009},{"area_id":15,"name":"雇用促進住宅入口付近バス停南側（道路敷）","lat":38.7230257,"long":141.0369022,"status":0.0,"note":null,"address":"栗原市築館字萩沢土橋32-55地先","row_num":3010},{"area_id":15,"name":"個人宅付近フェンス（道路敷）","lat":38.7210476,"long":141.047614,"status":0.0,"note":null,"address":"栗原市築館字照越2-64地先","row_num":3011},{"area_id":15,"name":"個人宅北側交差点（道路敷）","lat":38.696532,"long":141.0354336,"status":0.0,"note":null,"address":"栗原市築館字八沢南沢86地先","row_num":3012},{"area_id":15,"name":"個人宅隣空地","lat":38.6976661,"long":141.0456516,"status":0.0,"note":null,"address":"栗原市築館字八沢要害87-2","row_num":3013},{"area_id":15,"name":"太田集落農事集会所","lat":38.6991741,"long":141.0573993,"status":0.0,"note":null,"address":"栗原市築館字太田中島51-1","row_num":3014},{"area_id":15,"name":"個人宅前道路東側（道路敷）","lat":38.7011565,"long":141.0662576,"status":0.0,"note":null,"address":"栗原市築館字太田小清水94","row_num":3015},{"area_id":15,"name":"只野農機（株）ブロック塀","lat":38.7334938,"long":141.0379997,"status":1.0,"note":null,"address":"栗原市築館木戸88-3","row_num":3016},{"area_id":15,"name":"下萩沢生活センター南側法面","lat":38.7332557,"long":141.0431378,"status":1.0,"note":null,"address":"栗原市築館字萩沢木戸30","row_num":3017},{"area_id":15,"name":"栗原南部商工会（旧築館東保育所）北側フェンス","lat":38.7304728,"long":141.0370529,"status":1.0,"note":null,"address":"栗原市築館字光屋敷24－2","row_num":3018},{"area_id":15,"name":"加倉団地調整池西側フェンス","lat":38.7334273,"long":141.065012,"status":1.0,"note":null,"address":"栗原市築館字萩沢加倉3-87","row_num":3019},{"area_id":15,"name":"横須賀生活センターフェンス","lat":38.7186233,"long":141.0758107,"status":0.0,"note":null,"address":"栗原市築館字横須賀山口70-4","row_num":3020},{"area_id":15,"name":"サンクチュアリセンターつきだて館","lat":38.7137515,"long":141.0825112,"status":0.0,"note":null,"address":"栗原市築館字横須賀養田20-1","row_num":3021},{"area_id":15,"name":"東北リアライズ北側フェンス","lat":38.7114215,"long":141.0085432,"status":0.0,"note":null,"address":"栗原市築館字照越大樟1-1","row_num":3022},{"area_id":15,"name":"（株）オカザキ南側法面","lat":38.7139549,"long":141.0222289,"status":0.0,"note":null,"address":"栗原市築館字照越神田16-34","row_num":3023},{"area_id":15,"name":"個人宅ブロック塀隣空地","lat":38.6982788,"long":141.0001804,"status":0.0,"note":null,"address":"栗原市築館字蟹沢中之郷44","row_num":3024},{"area_id":15,"name":"個人宅入口付近（道路敷）","lat":38.6911963,"long":140.9969724,"status":0.0,"note":null,"address":"栗原市築館字築館蟹沢46-8","row_num":3025},{"area_id":15,"name":"相馬商店前道路北側（道路敷）","lat":38.745768,"long":140.9868031,"status":0.0,"note":null,"address":"栗原市築館字上宮野庭前81地先","row_num":3026},{"area_id":15,"name":"本木老人憩いの家フェンス","lat":38.7499351,"long":141.002483,"status":0.0,"note":null,"address":"栗原市築館字上宮野本城33","row_num":3027},{"area_id":15,"name":"個人宅西側空地（道路敷）","lat":38.7531587,"long":141.0119306,"status":0.0,"note":null,"address":"栗原市築館字下宮野岡田9番地8地先","row_num":3028},{"area_id":15,"name":"デイサービス四季彩館前道路北側（道路敷）","lat":38.7500352,"long":141.0091769,"status":0.0,"note":null,"address":"栗原市築館字下宮野砂田16番地1地先","row_num":3029},{"area_id":15,"name":"（株）ヰセキ東北フェンス","lat":38.7497505,"long":141.013951,"status":0.0,"note":null,"address":"栗原市築館字下宮野町浦1","row_num":3030},{"area_id":15,"name":"栗原中央病院医師宿舎敷地","lat":38.7465231,"long":141.0181393,"status":0.0,"note":null,"address":"栗原市築館宮野中央二丁目2-7","row_num":3031},{"area_id":15,"name":"個人宅前道路北側（道路敷）","lat":38.7475883,"long":140.9917735,"status":0.0,"note":null,"address":"栗原市築館字上宮野山下6-3","row_num":3032},{"area_id":15,"name":"個人宅ブロック塀","lat":38.7522023,"long":141.0176101,"status":0.0,"note":null,"address":"栗原市築館字下宮野町28","row_num":3033},{"area_id":15,"name":"野口石油株式会社Carサポート栗原車検センター敷地","lat":38.7420781,"long":141.018047,"status":0.0,"note":null,"address":"栗原市築館字留場中川原166-1","row_num":3034},{"area_id":15,"name":"芋埣コミュニティセンター南側（道路敷）","lat":38.76844,"long":141.0019087,"status":0.0,"note":null,"address":"栗原市築館字芋埣仙能5-13","row_num":3035},{"area_id":15,"name":"個人宅ブロック塀","lat":38.7668155,"long":141.034902,"status":0.0,"note":null,"address":"栗原市築館字城生野唐崎9","row_num":3036},{"area_id":15,"name":"築館出土文化財管理センターフェンス","lat":38.7698009,"long":141.0370561,"status":0.0,"note":null,"address":"栗原市築館字城生野大堀3","row_num":3037},{"area_id":15,"name":"個人宅ブロック塀","lat":38.7737957,"long":141.0270671,"status":0.0,"note":null,"address":"栗原市築館字黒瀬下屋敷52-3","row_num":3038},{"area_id":15,"name":"沖富会館フェンス","lat":38.775937,"long":141.0346537,"status":0.0,"note":null,"address":"栗原市築館字富境41-7","row_num":3039},{"area_id":15,"name":"個人宅隣空地","lat":38.7824326,"long":141.0384329,"status":0.0,"note":null,"address":"栗原市築館字富下熊川12-1","row_num":3040},{"area_id":15,"name":"迫川上流農業用水中央管理事務所フェンス","lat":38.7730553,"long":141.1175717,"status":1.0,"note":null,"address":"栗原市若柳字川南新堤下1-3","row_num":3041},{"area_id":15,"name":"堤通1号公園フェンス","lat":38.7711171,"long":141.1229356,"status":1.0,"note":null,"address":"栗原市若柳字川南堤通5-1","row_num":3042},{"area_id":15,"name":"若柳総合支所入り口付近草地","lat":38.768073,"long":141.123303,"status":1.0,"note":null,"address":"栗原市若柳字川南戸ノ西4","row_num":3043},{"area_id":15,"name":"旧若柳ひだまりの家前フェンス","lat":38.7662661,"long":141.1263528,"status":0.0,"note":null,"address":"栗原市若柳字川南町浦99-3","row_num":3044},{"area_id":15,"name":"個人宅前（道路敷）","lat":38.75562,"long":141.1169221,"status":0.0,"note":null,"address":"栗原市若柳字川南八木前84-2","row_num":3045},{"area_id":15,"name":"個人宅裏空地フェンス","lat":38.7661966,"long":141.1314239,"status":0.0,"note":null,"address":"栗原市若柳字川南道伝前120-1","row_num":3046},{"area_id":15,"name":"川原ごみ集積所向かい県道（道路敷）","lat":38.7583075,"long":141.1333527,"status":1.0,"note":null,"address":"栗原市若柳字川南川原前16-2","row_num":3047},{"area_id":15,"name":"旧平野神社駐車場フェンス","lat":38.7737769,"long":141.1282642,"status":1.0,"note":null,"address":"栗原市若柳字川北新町106-1","row_num":3048},{"area_id":15,"name":"くりでんミュージアム駐車場フェンス","lat":38.7752546,"long":141.1314655,"status":1.0,"note":null,"address":"栗原市若柳字川北塚ノ根17-1","row_num":3049},{"area_id":15,"name":"ウジエスーパー柵","lat":38.7703711,"long":141.1391859,"status":1.0,"note":null,"address":"栗原市若柳字川北古川130-19","row_num":3050},{"area_id":15,"name":"個人宅ブロック塀","lat":38.7758137,"long":141.1486338,"status":0.0,"note":null,"address":"栗原市若柳字川北荒町5","row_num":3051},{"area_id":15,"name":"個人宅ブロック塀","lat":38.7789954,"long":141.1451768,"status":0.0,"note":null,"address":"栗原市若柳武鎗字上土手ノ内98-1","row_num":3052},{"area_id":15,"name":"個人宅フェンス付ブロック塀","lat":38.7712356,"long":141.1471369,"status":0.0,"note":null,"address":"栗原市若柳字川北並柳90-3","row_num":3053},{"area_id":15,"name":"個人宅付近（道路敷）","lat":38.764653,"long":141.1388573,"status":0.0,"note":null,"address":"栗原市若柳字川北我門82-1","row_num":3054},{"area_id":15,"name":"若柳十文字老人憩いの家フェンス","lat":38.766493,"long":141.1471856,"status":1.0,"note":null,"address":"栗原市若柳字川北新中谷地65-1.67-1","row_num":3055},{"area_id":15,"name":"北二股老人憩いの家","lat":38.7512222,"long":141.1499915,"status":0.0,"note":null,"address":"栗原市若柳字川北二股112","row_num":3056},{"area_id":15,"name":"個人宅前付近大目江フェンス","lat":38.7536781,"long":141.1402362,"status":0.0,"note":null,"address":"栗原市若柳字川南二又250先","row_num":3057},{"area_id":15,"name":"個人宅ブロック塀","lat":38.7475902,"long":141.1448793,"status":0.0,"note":null,"address":"栗原市若柳字川南上大目83-1","row_num":3058},{"area_id":15,"name":"個人宅前　田の一部","lat":38.737698,"long":141.1506148,"status":0.0,"note":null,"address":"栗原市若柳字川南下大目前117","row_num":3059},{"area_id":15,"name":"新田集落センターフェンス","lat":38.7293542,"long":141.1481875,"status":0.0,"note":null,"address":"栗原市若柳字川南新田東119","row_num":3060},{"area_id":15,"name":"千葉聰作業場前大釜水路フェンス","lat":38.803501,"long":141.09687,"status":1.0,"note":null,"address":"栗原市若柳有賀字峯11-2先","row_num":3061},{"area_id":15,"name":"若柳有賀集会所フェンス","lat":38.8055073,"long":141.100755,"status":1.0,"note":null,"address":"栗原市若柳有賀字田畑前28-1.29-1","row_num":3062},{"area_id":15,"name":"若柳有賀老人憩いの家フェンス","lat":38.8125833,"long":141.1119369,"status":0.0,"note":null,"address":"栗原市若柳有賀字境20","row_num":3063},{"area_id":15,"name":"上在県道残地（道路敷）","lat":38.8076986,"long":141.1194525,"status":1.0,"note":null,"address":"栗原市若柳武鎗字薬師堂前4-3先","row_num":3064},{"area_id":15,"name":"旧有賀小学校校庭フェンス","lat":38.8049404,"long":141.1147185,"status":0.0,"note":null,"address":"栗原市若柳武鎗字竹之内前6","row_num":3065},{"area_id":15,"name":"旧有賀駐在所跡地ゴミステーション","lat":38.8024678,"long":141.1231359,"status":1.0,"note":null,"address":"栗原市若柳武鎗字町舘281-3","row_num":3066},{"area_id":15,"name":"個人宅前旧市道（道路敷）","lat":38.7976884,"long":141.1332431,"status":1.0,"note":null,"address":"栗原市若柳武鎗字坊ヶ沢12先","row_num":3067},{"area_id":15,"name":"個人宅ブロック塀","lat":38.790376,"long":141.0830298,"status":0.0,"note":null,"address":"栗原市若柳字大林町裏36-1","row_num":3068},{"area_id":15,"name":"個人宅ブロック塀","lat":38.7879948,"long":141.0885866,"status":0.0,"note":null,"address":"栗原市若柳字大林町裏190","row_num":3069},{"area_id":15,"name":"大林老人憩いの家前板倉フェンス","lat":38.7852947,"long":141.1002322,"status":0.0,"note":null,"address":"栗原市若柳字大林中斉101-5先","row_num":3070},{"area_id":15,"name":"大岡小学校跡地加圧ポンプ場前","lat":38.7827287,"long":141.1035691,"status":0.0,"note":null,"address":"栗原市若柳字大林要害86-7","row_num":3071},{"area_id":15,"name":"個人宅ブロック塀","lat":38.7808989,"long":141.1145495,"status":0.0,"note":null,"address":"栗原市若柳字福岡小谷町31-1","row_num":3072},{"area_id":15,"name":"個人宅隣空き地","lat":38.780569,"long":141.1193445,"status":0.0,"note":null,"address":"栗原市若柳字福岡原畑16-4","row_num":3073},{"area_id":15,"name":"熊野神社隣空き地","lat":38.7351053,"long":141.1223563,"status":0.0,"note":null,"address":"栗原市若柳字下畑岡樽沼5-4先","row_num":3074},{"area_id":15,"name":"和賀商店付近交差点市道残地（道路敷）","lat":38.7430483,"long":141.1208209,"status":0.0,"note":null,"address":"栗原市若柳字下畑岡峯172先","row_num":3075},{"area_id":15,"name":"栗原市若柳峯集落センター向かい","lat":38.7452532,"long":141.1252342,"status":0.0,"note":null,"address":"栗原市若柳字下畑岡峯前611","row_num":3076},{"area_id":15,"name":"栗原市若柳内谷川地区コミュニティセンターフェンス","lat":38.7413037,"long":141.1284599,"status":0.0,"note":null,"address":"栗原市若柳字下畑岡内谷川東107-2","row_num":3077},{"area_id":15,"name":"個人宅前空き地","lat":38.7358252,"long":141.1225029,"status":0.0,"note":null,"address":"栗原市若柳字上畑岡夷穴34先","row_num":3078},{"area_id":15,"name":"畑岡揚水機場フェンス","lat":38.7334407,"long":141.1084821,"status":0.0,"note":null,"address":"栗原市若柳字上畑岡新大立前49-3","row_num":3079},{"area_id":15,"name":"若柳米ヶ浦中央老人憩いの家前（道路敷）","lat":38.7351053,"long":141.1223563,"status":1.0,"note":null,"address":"栗原市若柳字上畑岡新米ヶ浦前148.149-2","row_num":3080},{"area_id":15,"name":"個人宅前市道（道路敷）","lat":38.7238693,"long":141.1008297,"status":0.0,"note":null,"address":"栗原市若柳字上畑岡敷味81-2先","row_num":3081},{"area_id":15,"name":"ウェットランド停留所脇","lat":38.7246147,"long":141.0846018,"status":1.0,"note":null,"address":"栗原市若柳字上畑岡原81-3","row_num":3082},{"area_id":15,"name":"若柳多賀老人憩の家前（道路敷）","lat":38.730491,"long":141.0755897,"status":0.0,"note":null,"address":"栗原市若柳字上畑岡獅子ヶ鼻111-5.122-2","row_num":3083},{"area_id":15,"name":"ハイルザーム栗駒向かい","lat":38.9493218,"long":140.8197857,"status":0.0,"note":null,"address":"栗原市栗駒沼倉耕英東71番地5","row_num":3084},{"area_id":15,"name":"滝ノ原コミュニティセンター向かい（道路敷）","lat":38.8979162,"long":140.9373056,"status":0.0,"note":null,"address":"栗原市栗駒沼倉畳石19番地先","row_num":3085},{"area_id":15,"name":"日照田自治会館前","lat":38.8897793,"long":140.9496191,"status":0.0,"note":null,"address":"栗原市栗駒沼倉日照田17番地1","row_num":3086},{"area_id":15,"name":"馬場農業担い手センター前","lat":38.8736856,"long":140.9518668,"status":0.0,"note":null,"address":"栗原市栗駒沼倉法華堂74番地1","row_num":3087},{"area_id":15,"name":"三丁構造改善センター東側ゲートボール場","lat":38.8636067,"long":140.9550358,"status":0.0,"note":null,"address":"栗原市栗駒松倉東貴船10番地6","row_num":3088},{"area_id":15,"name":"若木集落センター向かい（道路敷）","lat":38.8434362,"long":140.9610123,"status":0.0,"note":null,"address":"栗原市栗駒松倉若木197番地","row_num":3089},{"area_id":15,"name":"岩ケ崎円鏡寺前（道路敷）","lat":38.8296812,"long":140.9873097,"status":0.0,"note":null,"address":"栗原市栗駒岩ケ崎茂庭町67番地","row_num":3090},{"area_id":15,"name":"栗駒特産物直売センター「山の駅くりこま」駐車場","lat":38.8309215,"long":140.9912551,"status":1.0,"note":null,"address":"栗原市栗駒岩ケ崎六日町69番地","row_num":3091},{"area_id":15,"name":"栗駒保健センター前（道路敷）","lat":38.828987,"long":140.9943762,"status":1.0,"note":null,"address":"栗原市栗駒岩ケ崎上町裏69番地１","row_num":3092},{"area_id":15,"name":"ライフサポートいちます北側（道路敷）","lat":38.8337456,"long":141.0029116,"status":0.0,"note":null,"address":"栗原市栗駒岩ケ崎名城前3番地2","row_num":3093},{"area_id":15,"name":"（株）エスティシー南側（道路敷）","lat":38.8347756,"long":141.0038296,"status":0.0,"note":null,"address":"栗原市栗駒岩ケ崎三島287番地先","row_num":3094},{"area_id":15,"name":"旧仙北信用組合栗駒支店向かいポケットパーク（道路敷）","lat":38.8316438,"long":140.9952791,"status":1.0,"note":null,"address":"栗原市栗駒岩ケ崎下小路60番地3先","row_num":3095},{"area_id":15,"name":"個人宅向かい（道路敷）","lat":38.8329237,"long":140.986278,"status":0.0,"note":null,"address":"栗原市栗駒岩ケ崎上小路44番地6先","row_num":3096},{"area_id":15,"name":"ローソン山の駅くりこま店北側（道路敷）","lat":38.8332046,"long":140.9873817,"status":1.0,"note":null,"address":"栗原市栗駒岩ケ崎上小路149番地1","row_num":3097},{"area_id":15,"name":"中野上区民会館西側十字路前（道路敷）","lat":38.8294189,"long":140.9704645,"status":0.0,"note":null,"address":"栗原市栗駒中野新籠田22番地2","row_num":3098},{"area_id":15,"name":"中野集落センター東側","lat":38.8291367,"long":140.978942,"status":0.0,"note":null,"address":"栗原市栗駒中野要害前28番地","row_num":3099},{"area_id":15,"name":"旧グリーンヒル浦島向かい（道路敷）","lat":38.8258184,"long":140.9775441,"status":0.0,"note":null,"address":"栗原市栗駒中野田町西135番地2","row_num":3100},{"area_id":15,"name":"栗駒中学校西側入口前（道路敷）","lat":38.8180892,"long":140.9903661,"status":1.0,"note":null,"address":"栗原市栗駒中野上野原南28番地先","row_num":3101},{"area_id":15,"name":"個人宅向かい（道路敷）","lat":38.823539,"long":141.0012011,"status":0.0,"note":null,"address":"栗原市栗駒猿飛来新鐙ケ淵32番地6","row_num":3102},{"area_id":15,"name":"二本木長楽沢集落センター（集会所敷）","lat":38.8130348,"long":141.0206151,"status":0.0,"note":null,"address":"栗原市栗駒猿飛来長楽沢21番地3","row_num":3103},{"area_id":15,"name":"里谷自治会館前（道路敷）","lat":38.8276259,"long":141.0137442,"status":0.0,"note":null,"address":"栗原市栗駒里谷砂地屋82番地","row_num":3104},{"area_id":15,"name":"町田橋南側（道路敷）","lat":38.8274718,"long":141.0181385,"status":1.0,"note":null,"address":"栗原市栗駒里谷神田沖14番地3","row_num":3105},{"area_id":15,"name":"県道182号線深谷自治会館入口（道路敷）","lat":38.8478894,"long":141.0259858,"status":0.0,"note":null,"address":"栗原市栗駒深谷日照田35番地先","row_num":3106},{"area_id":15,"name":"個人宅入口（道路敷）","lat":38.8523262,"long":141.0163829,"status":0.0,"note":null,"address":"栗原市栗駒鳥沢湯ノ沢94番地1地先","row_num":3107},{"area_id":15,"name":"新山コミュニティセンター前（道路敷）","lat":38.856027,"long":141.0052668,"status":0.0,"note":null,"address":"栗原市栗駒鳥沢新山前17番地2","row_num":3108},{"area_id":15,"name":"田代消防ポンプ小屋西側（道路敷）","lat":38.8696157,"long":140.9822462,"status":0.0,"note":null,"address":"栗原市栗駒鳥沢山子下38番地13","row_num":3109},{"area_id":15,"name":"個人宅前（道路敷）","lat":38.8521998,"long":141.0000703,"status":0.0,"note":null,"address":"栗原市栗駒鳥沢徳沢前46番地2","row_num":3110},{"area_id":15,"name":"荒砥沢ふれあいセンター向かい（道路敷）","lat":38.8784872,"long":140.8723026,"status":0.0,"note":null,"address":"栗原市栗駒文字新荒砥158番地","row_num":3111},{"area_id":15,"name":"新田集会所東側","lat":38.876178,"long":140.8877824,"status":0.0,"note":null,"address":"栗原市栗駒文字上山神69番地","row_num":3112},{"area_id":15,"name":"文字甚句と藍の館前（道路敷）","lat":38.8715837,"long":140.9014197,"status":0.0,"note":null,"address":"栗原市栗駒文字角ケ崎67番地１先","row_num":3113},{"area_id":15,"name":"川東十字路（道路敷）","lat":38.8565417,"long":140.9110313,"status":0.0,"note":null,"address":"栗原市栗駒文字川東295番地先","row_num":3114},{"area_id":15,"name":"文字郵便局東側（道路敷）","lat":38.8410624,"long":140.91021,"status":0.0,"note":null,"address":"栗原市栗駒文字大道2番地4","row_num":3115},{"area_id":15,"name":"愛宕神社前（道路敷）","lat":38.8443728,"long":140.9027672,"status":0.0,"note":null,"address":"栗原市栗駒文字愛宕下7番地2","row_num":3116},{"area_id":15,"name":"中文字大明神ゴミステーション東側（道路敷）","lat":38.8370232,"long":140.914714,"status":0.0,"note":null,"address":"栗原市栗駒文字大明神158番地1先","row_num":3117},{"area_id":15,"name":"下文字自治会館（道路敷）","lat":38.8328539,"long":140.8851308,"status":0.0,"note":null,"address":"栗原市栗駒文字鍛冶屋115番地3","row_num":3118},{"area_id":15,"name":"高松生活センター前（道路敷）","lat":38.8275185,"long":140.9572883,"status":0.0,"note":null,"address":"栗原市栗駒稲屋敷百目木前18番地1","row_num":3119},{"area_id":15,"name":"栗原市消防団格納庫南側（道路敷）","lat":38.8186944,"long":140.9639611,"status":0.0,"note":null,"address":"栗原市栗駒稲屋敷清水田前321番地","row_num":3120},{"area_id":15,"name":"宝領集落センター前（道路敷）","lat":38.8167399,"long":140.973962,"status":0.0,"note":null,"address":"栗原市栗駒稲屋敷宝領東98番地5","row_num":3121},{"area_id":15,"name":"大鳥西自治会館向かい（道路敷）","lat":38.809519,"long":140.9753256,"status":0.0,"note":null,"address":"栗原市栗駒稲屋敷小関前47番地2先","row_num":3122},{"area_id":15,"name":"旧JA新みやぎ尾松支店前（道路敷）","lat":38.8139118,"long":140.9845971,"status":1.0,"note":null,"address":"栗原市栗駒稲屋敷大鳥西側15番地先","row_num":3123},{"area_id":15,"name":"ファミリーマート栗駒南店前（道路敷）","lat":38.8085545,"long":140.9802384,"status":0.0,"note":null,"address":"栗原市栗駒稲屋敷笊屋敷下143番地2","row_num":3124},{"area_id":15,"name":"(株)みどりや製菓駐車場前（道路敷）","lat":38.808295,"long":140.9972265,"status":0.0,"note":null,"address":"栗原市栗駒八幡清水沢3番地2","row_num":3125},{"area_id":15,"name":"伊治城生活センター前（道路敷）","lat":38.7952503,"long":140.9935148,"status":0.0,"note":null,"address":"栗原市栗駒桜田殿田替95番地","row_num":3126},{"area_id":15,"name":"個人宅向かい（道路敷）","lat":38.7915216,"long":140.9930452,"status":0.0,"note":null,"address":"栗原市栗駒桜田中有賀25番地1","row_num":3127},{"area_id":15,"name":"桜田下集落センター西側（道路敷）","lat":38.7921463,"long":141.0038531,"status":0.0,"note":null,"address":"栗原市栗駒桜田百輪目木3番地2","row_num":3128},{"area_id":15,"name":"菱沼集会所前（道路敷）","lat":38.7972291,"long":141.022189,"status":0.0,"note":null,"address":"栗原市栗駒菱沼竹林2番地1先","row_num":3129},{"area_id":15,"name":"栗原根岸農業担い手センター前（道路敷）","lat":38.7966961,"long":141.0304653,"status":0.0,"note":null,"address":"栗原市栗駒栗原西沢133番地","row_num":3130},{"area_id":15,"name":"個人宅向かい（道路敷）","lat":38.787965,"long":141.0303713,"status":0.0,"note":null,"address":"栗原市栗駒栗原館下113番地先","row_num":3131},{"area_id":15,"name":"栗原沖自治会館向かい（道路敷）","lat":38.787965,"long":141.0303713,"status":0.0,"note":null,"address":"栗原市栗駒栗原川端66番地先","row_num":3132},{"area_id":15,"name":"個人宅東側（道路敷）","lat":38.7764681,"long":140.9909908,"status":0.0,"note":null,"address":"栗原市栗駒嶺崎風越41番地3先","row_num":3133},{"area_id":15,"name":"渡丸公民館前（道路敷）","lat":38.7746272,"long":141.0083798,"status":0.0,"note":null,"address":"栗原市栗駒渡丸中島118番地先","row_num":3134},{"area_id":15,"name":"泉沢活性化センター（泉の里）前（道路敷）","lat":38.7793659,"long":141.0115486,"status":0.0,"note":null,"address":"栗原市栗駒泉沢新山下70番地3","row_num":3135},{"area_id":15,"name":"田高田簡易郵便局前","lat":38.7897146,"long":140.9701101,"status":0.0,"note":null,"address":"栗原市栗駒片子沢古戸26番地2","row_num":3136},{"area_id":15,"name":"町田活性化センター前（道路敷）","lat":38.7835696,"long":140.9692746,"status":0.0,"note":null,"address":"栗原市栗駒片子沢半道六72番地2","row_num":3137},{"area_id":15,"name":"田高田集会所東側（道路敷）","lat":38.7300671,"long":141.0213438,"status":0.0,"note":null,"address":"栗原市栗駒片子沢田高田北76番地","row_num":3138},{"area_id":15,"name":"田子屋バス停前（道路敷）","lat":38.7866784,"long":140.9558328,"status":0.0,"note":null,"address":"栗原市栗駒片子沢西田35番地3","row_num":3139},{"area_id":15,"name":"外沢田集会所前（道路敷）","lat":38.6449276,"long":141.0220613,"status":0.0,"note":null,"address":"栗原市高清水新沢田148-2","row_num":3140},{"area_id":15,"name":"覚満寺交差点（道路敷）","lat":38.6684483,"long":141.0039211,"status":0.0,"note":null,"address":"栗原市高清水覚満寺地内","row_num":3141},{"area_id":15,"name":"南部地区生活センター","lat":38.6429436,"long":141.007687,"status":1.0,"note":null,"address":"栗原市高清水中の茎4-1","row_num":3142},{"area_id":15,"name":"JRバス台町停留所前","lat":38.6461962,"long":141.0084161,"status":1.0,"note":null,"address":"栗原市高清水台町19-3","row_num":3143},{"area_id":15,"name":"はさまや(三塚屋)駐車場フェンス","lat":38.6553435,"long":141.0112194,"status":1.0,"note":null,"address":"栗原市高清水中町20","row_num":3144},{"area_id":15,"name":"神明共同墓地三叉路付近（道路敷）","lat":38.6561615,"long":140.9984709,"status":0.0,"note":null,"address":"栗原市高清水新神明36-2","row_num":3145},{"area_id":15,"name":"かつらっこハウス前フェンス","lat":38.6596411,"long":141.0134761,"status":1.0,"note":null,"address":"栗原市高清水佐野丁32","row_num":3146},{"area_id":15,"name":"栗原市高清水地域福祉センター（ほっと館）","lat":38.6550357,"long":141.0139544,"status":1.0,"note":null,"address":"栗原市高清水東館34","row_num":3147},{"area_id":15,"name":"高清水地区コミュニティセンター","lat":38.662604,"long":141.0052876,"status":1.0,"note":null,"address":"栗原市高清水五輪29-1","row_num":3148},{"area_id":15,"name":"個人宅前（道路敷）","lat":38.6617579,"long":141.011175,"status":1.0,"note":null,"address":"栗原市高清水善光寺17-1","row_num":3149},{"area_id":15,"name":"市道善光寺来光沢線及び市道石沢中里線Ｔ字路","lat":38.6697602,"long":141.0116424,"status":1.0,"note":null,"address":"栗原市高清水来光沢11-1付近","row_num":3150},{"area_id":15,"name":"第12区集会所前（道路敷）","lat":38.6800825,"long":140.9967115,"status":0.0,"note":null,"address":"栗原市高清水茂路具多31-1","row_num":3151},{"area_id":15,"name":"第11区集落センター","lat":38.6707206,"long":140.9891476,"status":0.0,"note":null,"address":"栗原市高清水小山田499","row_num":3152},{"area_id":15,"name":"日向バス停留所脇（道路敷）","lat":38.6763343,"long":140.9843071,"status":0.0,"note":null,"address":"栗原市高清水日向67-1付近","row_num":3153},{"area_id":15,"name":"個人宅前（道路敷）","lat":38.6820032,"long":140.9781135,"status":0.0,"note":null,"address":"栗原市高清水宮脇6-2","row_num":3154},{"area_id":15,"name":"個人宅南側（道路敷）","lat":38.7095715,"long":140.9642546,"status":0.0,"note":null,"address":"栗原市一迫柳目字平沢59番1地先","row_num":3155},{"area_id":15,"name":"栗原市南沢生活センター南側（道路敷）","lat":38.6993201,"long":140.971952,"status":0.0,"note":null,"address":"栗原市一迫柳目字井戸沢100番2","row_num":3156},{"area_id":15,"name":"個人宅東側（道路敷）","lat":38.7295039,"long":140.9713688,"status":1.0,"note":null,"address":"栗原市一迫柳目字谷地田88番4","row_num":3157},{"area_id":15,"name":"栗原市竹の内集落センター","lat":38.7318556,"long":140.9812697,"status":0.0,"note":null,"address":"栗原市一迫柳目字新竹の内117番","row_num":3158},{"area_id":15,"name":"栗原市営北河原住宅","lat":38.741308,"long":140.9597541,"status":1.0,"note":null,"address":"栗原市一迫柳目字曽根307番1","row_num":3159},{"area_id":15,"name":"真坂大橋停留所北側（道路敷）","lat":38.7438755,"long":140.9549003,"status":1.0,"note":null,"address":"栗原市一迫柳目字曽根新土手根1番15地先","row_num":3160},{"area_id":15,"name":"一迫商業高等学校体育館東側（道路敷）","lat":38.7378666,"long":140.958028,"status":1.0,"note":null,"address":"栗原市一迫真坂字町東153番1","row_num":3161},{"area_id":15,"name":"(有)菅原オート商会北西","lat":38.7348761,"long":140.9568623,"status":1.0,"note":null,"address":"栗原市一迫真坂字町東10番2地先","row_num":3162},{"area_id":15,"name":"栗原市清水高齢者能力活動促進センター","lat":38.7565508,"long":140.9164795,"status":0.0,"note":null,"address":"栗原市一迫真坂字清水反町2番2","row_num":3163},{"area_id":15,"name":"旧栗原市清水二農業後継者育成センター西側（道路敷）","lat":38.7279449,"long":140.9535887,"status":1.0,"note":null,"address":"栗原市一迫真坂清水小栗目47番13","row_num":3164},{"area_id":15,"name":"鎌折丁字路（道路敷）","lat":38.7433966,"long":140.9480724,"status":1.0,"note":null,"address":"栗原市一迫真坂字鎌折1番3","row_num":3165},{"area_id":15,"name":"栗原市輝井生活センター","lat":38.753624,"long":140.9274205,"status":0.0,"note":null,"address":"栗原市一迫真坂字一本杉1番","row_num":3166},{"area_id":15,"name":"個人宅西側（道路敷）","lat":38.7559075,"long":140.9141536,"status":0.0,"note":null,"address":"栗原市一迫真坂字八幡84番地先","row_num":3167},{"area_id":15,"name":"栗原市一迫大川口下コミュニティセンター前","lat":38.7310116,"long":140.9319213,"status":0.0,"note":null,"address":"栗原市一迫字大川口清水沢31番1","row_num":3168},{"area_id":15,"name":"六角停留所西側（道路敷）","lat":38.7626,"long":140.9141453,"status":0.0,"note":null,"address":"栗原市一迫字嶋躰宿63番2","row_num":3169},{"area_id":15,"name":"旧栗原市一迫清水目老人憩いの家","lat":38.7548011,"long":140.9112495,"status":0.0,"note":null,"address":"栗原市一迫字清水目下谷地114番3","row_num":3170},{"area_id":15,"name":"個人宅北側","lat":38.7646135,"long":140.892981,"status":0.0,"note":null,"address":"栗原市一迫字川口中町10番4","row_num":3171},{"area_id":15,"name":"個人宅西側（道路敷）","lat":38.7635057,"long":140.9010394,"status":0.0,"note":null,"address":"栗原市一迫字川口繁昌家50番9","row_num":3172},{"area_id":15,"name":"栗原市滝野集落センター","lat":38.7708524,"long":140.8843866,"status":0.0,"note":null,"address":"栗原市一迫字川口鍛冶屋34番1","row_num":3173},{"area_id":15,"name":"栗原市川北農業後継者育成センター","lat":38.7468053,"long":140.8736084,"status":0.0,"note":null,"address":"栗原市一迫字嶋躰門出3番","row_num":3174},{"area_id":15,"name":"境田西溜池向い側","lat":38.7789141,"long":140.923981,"status":0.0,"note":null,"address":"栗原市一迫字嶋躰境田前25番62地先","row_num":3175},{"area_id":15,"name":"個人宅南西（道路敷）","lat":38.7397352,"long":140.9356183,"status":0.0,"note":null,"address":"栗原市一迫字御崎188番4","row_num":3176},{"area_id":15,"name":"加藤商店自動販売機置き場東側","lat":38.7455511,"long":140.9131477,"status":1.0,"note":null,"address":"栗原市一迫字萩生28番8","row_num":3177},{"area_id":15,"name":"栗原市荒町下集落センター","lat":38.7488562,"long":140.8978113,"status":1.0,"note":null,"address":"栗原市一迫字一本杉870番2","row_num":3178},{"area_id":15,"name":"狩野タバコ店北側（道路敷）","lat":38.7544293,"long":140.8708497,"status":1.0,"note":null,"address":"栗原市一迫字中小僧21番6","row_num":3179},{"area_id":15,"name":"大土ポンプ場前","lat":38.7422323,"long":140.8508851,"status":0.0,"note":null,"address":"栗原市一迫字下大土47番9","row_num":3180},{"area_id":15,"name":"栗原市一迫大川口上老人憩いの家南側（道路敷）","lat":38.731646,"long":140.9093475,"status":0.0,"note":null,"address":"栗原市一迫字大川口大手104番地先","row_num":3181},{"area_id":15,"name":"旧姫松小学校西側（道路敷）","lat":38.7665342,"long":140.9643063,"status":0.0,"note":null,"address":"栗原市一迫北沢二本松1番1地先","row_num":3182},{"area_id":15,"name":"一本松センター前","lat":38.7716663,"long":140.9395059,"status":0.0,"note":null,"address":"栗原市一迫北沢大沢25番4","row_num":3183},{"area_id":15,"name":"個人宅前（道路敷）","lat":38.7639075,"long":140.9802748,"status":0.0,"note":null,"address":"栗原市一迫狐崎高屋敷42番3地先","row_num":3184},{"area_id":15,"name":"姫松南沢消防ポンプ置場脇","lat":38.7555734,"long":140.9528744,"status":0.0,"note":null,"address":"栗原市一迫北沢類子7番1地先","row_num":3185},{"area_id":15,"name":"個人宅西側（道路敷）","lat":38.7575119,"long":140.9695115,"status":0.0,"note":null,"address":"栗原市一迫北沢畑25番3","row_num":3186},{"area_id":15,"name":"個人宅前","lat":38.7821293,"long":140.9581123,"status":0.0,"note":null,"address":"栗原市一迫片子沢外の沢2番1地先","row_num":3187},{"area_id":15,"name":"野沢地区ふれあいセンター前","lat":38.6342426,"long":141.0386496,"status":0.0,"note":null,"address":"栗原市瀬峰野沢176番2","row_num":3188},{"area_id":15,"name":"渡辺採種場前","lat":38.6302665,"long":141.0533284,"status":0.0,"note":null,"address":"栗原市瀬峰四ツ壇18-51","row_num":3189},{"area_id":15,"name":"泉谷コミュニティセンター前","lat":38.634408,"long":141.0642161,"status":0.0,"note":null,"address":"栗原市瀬峰泉谷10番","row_num":3190},{"area_id":15,"name":"荒町集会所前","lat":38.6406957,"long":141.0515296,"status":0.0,"note":null,"address":"栗原市瀬峰荒町32番5","row_num":3191},{"area_id":15,"name":"個人宅前","lat":38.6429493,"long":141.0544505,"status":0.0,"note":null,"address":"栗原市瀬峰新井屋敷52番1","row_num":3192},{"area_id":15,"name":"小深沢生活改善センター前","lat":38.6845509,"long":141.0206094,"status":0.0,"note":null,"address":"栗原市瀬峰小深沢152番2","row_num":3193},{"area_id":15,"name":"上藤沢集会所前","lat":38.6727348,"long":141.0402462,"status":0.0,"note":null,"address":"栗原市瀬峰大鰐谷1番先","row_num":3194},{"area_id":15,"name":"個人宅前","lat":38.6664967,"long":141.0552207,"status":0.0,"note":null,"address":"栗原市瀬峰藤沢要害125番1","row_num":3195},{"area_id":15,"name":"個人宅前","lat":38.6626065,"long":141.0664125,"status":1.0,"note":null,"address":"栗原市瀬峰藤沢瀬嶺157番","row_num":3196},{"area_id":15,"name":"個人宅前","lat":38.6661772,"long":141.0679977,"status":1.0,"note":null,"address":"栗原市瀬峰横森前127番2","row_num":3197},{"area_id":15,"name":"個人宅前","lat":38.6666716,"long":141.0696571,"status":1.0,"note":null,"address":"栗原市瀬峰横森前156番1","row_num":3198},{"area_id":15,"name":"瀬峰総合支所前","lat":38.6585466,"long":141.0653985,"status":1.0,"note":null,"address":"栗原市瀬峰長者原42番１","row_num":3199},{"area_id":15,"name":"観昌寺駐車場前","lat":38.6569017,"long":141.0714568,"status":1.0,"note":null,"address":"栗原市瀬峰下藤沢117番1","row_num":3200},{"area_id":15,"name":"瀬峰公民館前","lat":38.6533183,"long":141.070497,"status":1.0,"note":null,"address":"栗原市瀬峰下田32番1","row_num":3201},{"area_id":15,"name":"下山児童遊園前","lat":38.651791,"long":141.080869,"status":1.0,"note":null,"address":"栗原市瀬峰下田216番1","row_num":3202},{"area_id":15,"name":"コメリ瀬峰店前（道路敷）","lat":38.6488751,"long":141.0797661,"status":1.0,"note":null,"address":"栗原市瀬峰新後谷地117付近","row_num":3203},{"area_id":15,"name":"瀬峰農林漁家高齢者センター","lat":38.6541022,"long":141.0651823,"status":0.0,"note":null,"address":"栗原市瀬峰桃生田47番6","row_num":3204},{"area_id":15,"name":"個人宅地前","lat":38.6534889,"long":141.0572002,"status":0.0,"note":null,"address":"栗原市瀬峰大境山5番","row_num":3205},{"area_id":15,"name":"個人宅前","lat":38.6542804,"long":141.0508144,"status":1.0,"note":null,"address":"栗原市瀬峰坂ノ下前北5番","row_num":3206},{"area_id":15,"name":"個人宅前","lat":38.6511711,"long":141.0430207,"status":0.0,"note":null,"address":"栗原市瀬峰谷地田63番2","row_num":3207},{"area_id":15,"name":"個人宅脇","lat":38.6475376,"long":141.0550834,"status":0.0,"note":null,"address":"栗原市瀬峰牛渕前63番1","row_num":3208},{"area_id":15,"name":"菅原産業（株）栗駒工場前（道路敷）","lat":38.8012849,"long":140.975466,"status":0.0,"note":null,"address":"栗原市鶯沢袋前田75番地5","row_num":3209},{"area_id":15,"name":"個人宅入口隣（道路敷）","lat":38.8041555,"long":140.9632476,"status":0.0,"note":null,"address":"栗原市鶯沢袋本宿裏43番地3","row_num":3210},{"area_id":15,"name":"個人宅入口隣（道路敷）","lat":38.8057745,"long":140.9533798,"status":1.0,"note":null,"address":"栗原市鶯沢袋持添97番地2","row_num":3211},{"area_id":15,"name":"鶯沢総合支所前","lat":38.8092898,"long":140.9563786,"status":1.0,"note":null,"address":"栗原市鶯沢南郷八升12番地","row_num":3212},{"area_id":15,"name":"駒場上梨木平広報板隣（道路敷）","lat":38.803617,"long":140.9380758,"status":1.0,"note":null,"address":"栗原市鶯沢南郷梨木平8番地1","row_num":3213},{"area_id":15,"name":"元くりはら田園鉄道駒場（高校前）駅向","lat":38.8071338,"long":140.9247656,"status":1.0,"note":null,"address":"栗原市鶯沢南郷上新反田25番地1","row_num":3214},{"area_id":15,"name":"鶯沢堰根担い手センター向（道路敷）","lat":38.8122652,"long":140.9403872,"status":0.0,"note":null,"address":"栗原市鶯沢南郷舘前40番地2","row_num":3215},{"area_id":15,"name":"八沢二岐広報板隣（道路敷）","lat":38.8189367,"long":140.9337217,"status":0.0,"note":null,"address":"栗原市鶯沢南郷久保前101番地6","row_num":3216},{"area_id":15,"name":"個人宅前（道路敷）","lat":38.8238729,"long":140.9332282,"status":0.0,"note":null,"address":"栗原市鶯沢北郷峯25番地","row_num":3217},{"area_id":15,"name":"個人宅入口隣（道路敷）","lat":38.8240826,"long":140.9400939,"status":0.0,"note":null,"address":"栗原市鶯沢北郷保網16番地1南側緑地帯","row_num":3218},{"area_id":15,"name":"旧森下詰所前","lat":38.8039037,"long":140.9159031,"status":1.0,"note":null,"address":"栗原市鶯沢南郷五輪原25番地1","row_num":3219},{"area_id":15,"name":"細倉中央橋交差点西側（道路敷）","lat":38.8042785,"long":140.9033695,"status":1.0,"note":null,"address":"栗原市鶯沢南郷北沢46-1","row_num":3220},{"area_id":15,"name":"南郷四ツ岩（国道457号線と県道花山一迫線三叉路（道路敷）","lat":38.7909895,"long":140.8840724,"status":1.0,"note":null,"address":"栗原市鶯沢南郷四ツ岩43番地付近","row_num":3221},{"area_id":15,"name":"萩野公民館駐車場フェンス","lat":38.869144,"long":141.1228522,"status":0.0,"note":null,"address":"栗原市金成有壁館下29番地","row_num":3222},{"area_id":15,"name":"金成有壁太田杜公園","lat":38.8670415,"long":141.1209526,"status":0.0,"note":null,"address":"栗原市金成有壁太田杜30番地7","row_num":3223},{"area_id":15,"name":"有壁農集排処理施設フェンス","lat":38.8673268,"long":141.1372368,"status":0.0,"note":null,"address":"栗原市金成有壁狼ノ掛39番地4","row_num":3224},{"area_id":15,"name":"上片馬合なかよし花壇脇市道残地（道路敷）","lat":38.8786549,"long":141.083253,"status":0.0,"note":null,"address":"栗原市金成片馬合下吉目木69番地","row_num":3225},{"area_id":15,"name":"金成下片馬合集会所","lat":38.8716336,"long":141.1075346,"status":0.0,"note":null,"address":"栗原市金成片馬合沖157番地1","row_num":3226},{"area_id":15,"name":"個人宅脇","lat":38.8619087,"long":141.108707,"status":0.0,"note":null,"address":"栗原市金成片馬合佐野原38番地1","row_num":3227},{"area_id":15,"name":"個人宅前（道路敷）","lat":38.8533782,"long":141.1062583,"status":0.0,"note":null,"address":"栗原市金成末野拾万１1番地5先","row_num":3228},{"area_id":15,"name":"国道４号沿い藤渡戸新みやぎ農業協同組合用地","lat":38.8496145,"long":141.0955276,"status":0.0,"note":null,"address":"栗原市金成藤渡戸原田16番地2","row_num":3229},{"area_id":15,"name":"藤渡戸鹿野前停留所西側県道残地（道路敷）","lat":38.8549836,"long":141.0837615,"status":0.0,"note":null,"address":"栗原市金成藤渡戸上中江92番地先","row_num":3230},{"area_id":15,"name":"個人宅前花壇","lat":38.8585072,"long":141.077938,"status":0.0,"note":null,"address":"栗原市金成赤児熊田沖23番地5","row_num":3231},{"area_id":15,"name":"旧金成野外活動センターフェンス","lat":38.8684038,"long":141.043638,"status":0.0,"note":null,"address":"栗原市金成普賢堂福田26番地","row_num":3232},{"area_id":15,"name":"個人宅向水路フェンス","lat":38.8092396,"long":141.0717529,"status":1.0,"note":null,"address":"栗原市金成上町西裏2番地先","row_num":3233},{"area_id":15,"name":"市道けやき通線フェンス（道路敷）","lat":38.81073,"long":141.0748241,"status":1.0,"note":null,"address":"栗原市金成中町13番地4","row_num":3234},{"area_id":15,"name":"個人宅脇（道路敷）","lat":38.8155526,"long":141.0731705,"status":1.0,"note":null,"address":"栗原市金成台畑14番地1先","row_num":3235},{"area_id":15,"name":"山中堤下ごみ集積所脇（道路敷）","lat":38.8225392,"long":141.0855747,"status":0.0,"note":null,"address":"栗原市金成山中堤下12番地3先","row_num":3236},{"area_id":15,"name":"長根沢ごみ集積所脇水路フェンス","lat":38.810855,"long":141.0839555,"status":1.0,"note":null,"address":"栗原市金成長根沢164番地","row_num":3237},{"area_id":15,"name":"三沢国道4号線脇","lat":38.8321329,"long":141.0845682,"status":0.0,"note":null,"address":"栗原市金成三沢22番地2","row_num":3238},{"area_id":15,"name":"畑ポンプ格納庫脇市道残地（道路敷）","lat":38.8432948,"long":141.073309,"status":0.0,"note":null,"address":"栗原市金成入ノ沢8番地8先","row_num":3239},{"area_id":15,"name":"花館集落ゴミ集積所脇水路フェンス","lat":38.811572,"long":141.06514,"status":0.0,"note":null,"address":"栗原市金成小迫花館102番地1","row_num":3240},{"area_id":15,"name":"宇南防火水槽脇","lat":38.7975042,"long":141.0534274,"status":1.0,"note":null,"address":"栗原市金成沢辺宇南194番地1","row_num":3241},{"area_id":15,"name":"個人宅前","lat":38.8042616,"long":141.0524884,"status":1.0,"note":null,"address":"栗原市金成沢辺神林34番地","row_num":3242},{"area_id":15,"name":"個人宅前","lat":38.7981675,"long":141.0587937,"status":1.0,"note":null,"address":"栗原市金成沢辺町173番地1","row_num":3243},{"area_id":15,"name":"金成総合支所駐車場前","lat":38.799702,"long":141.0658443,"status":1.0,"note":null,"address":"栗原市金成沢辺町沖243番地2","row_num":3244},{"area_id":15,"name":"個人宅脇宅地","lat":38.7788274,"long":141.0543182,"status":0.0,"note":null,"address":"栗原市金成姉歯根岸30番地2","row_num":3245},{"area_id":15,"name":"個人宅前","lat":38.7844182,"long":141.0687324,"status":0.0,"note":null,"address":"栗原市金成姉歯中沢前70番地2","row_num":3246},{"area_id":15,"name":"金成梨崎道ノ上地内（道路敷）","lat":38.7910214,"long":141.0660832,"status":0.0,"note":null,"address":"栗原市金成梨崎道ノ上44番地6","row_num":3247},{"area_id":15,"name":"個人宅前","lat":38.794596,"long":141.0735678,"status":0.0,"note":null,"address":"栗原市金成沢辺内畑115番地1","row_num":3248},{"area_id":15,"name":"小堤ポンプ格納庫脇（道路敷）","lat":38.8424191,"long":141.0681403,"status":0.0,"note":null,"address":"栗原市金成小堤新涌戸77番地1先","row_num":3249},{"area_id":15,"name":"金成岩崎集会所西側（道路敷）","lat":38.8228284,"long":141.0465136,"status":0.0,"note":null,"address":"栗原市金成津久毛岩崎沢1番地6","row_num":3250},{"area_id":15,"name":"個人宅前","lat":38.8124665,"long":141.037628,"status":1.0,"note":null,"address":"栗原市金成大原木百目鬼10番地1","row_num":3251},{"area_id":15,"name":"ことぶき駐車場","lat":38.7575012,"long":141.0664916,"status":1.0,"note":null,"address":"栗原市志波姫沼崎南沖２０３番地１２","row_num":3252},{"area_id":15,"name":"個人宅前","lat":38.7466672,"long":141.0499024,"status":1.0,"note":null,"address":"栗原市志波姫八樟新田209-1","row_num":3253},{"area_id":15,"name":"市道御蔵線宮野線交差点歩道","lat":38.7590645,"long":141.0595128,"status":1.0,"note":null,"address":"栗原市志波姫沼崎淀47番地２","row_num":3254},{"area_id":15,"name":"個人宅前","lat":38.7630064,"long":141.0805888,"status":1.0,"note":null,"address":"栗原市志波姫北郷竹の内27","row_num":3255},{"area_id":15,"name":"熊谷区自治会館","lat":38.7454216,"long":141.0849287,"status":1.0,"note":null,"address":"栗原市志波姫南郷蓬田93-25","row_num":3256},{"area_id":15,"name":"志波姫小学校前駐車場","lat":38.7496104,"long":141.0641421,"status":1.0,"note":null,"address":"栗原市志波姫新沼崎347","row_num":3257},{"area_id":15,"name":"市営駅南駐車場向かい","lat":38.7478518,"long":141.0714542,"status":1.0,"note":null,"address":"栗原市志波姫新熊谷24-16","row_num":3258},{"area_id":15,"name":"阿久戸集会所入口","lat":38.7602988,"long":141.0423171,"status":1.0,"note":null,"address":"栗原市志波姫下里59-2","row_num":3259},{"area_id":15,"name":"個人宅北側（道路敷）","lat":38.7558112,"long":141.0369028,"status":1.0,"note":null,"address":"栗原市志波姫堀口高田5-3","row_num":3260},{"area_id":15,"name":"個人宅東","lat":38.7377085,"long":141.0275669,"status":1.0,"note":null,"address":"栗原市志波姫堀口見渡117-1","row_num":3261},{"area_id":15,"name":"コメリハード＆グリーン志波姫店東（水路敷）","lat":38.740856,"long":141.0390124,"status":1.0,"note":null,"address":"栗原市志波姫南堀口４３５番地","row_num":3262},{"area_id":15,"name":"山の上児童公園","lat":38.7426633,"long":141.0370667,"status":1.0,"note":null,"address":"栗原市志波姫堀口御駒堂139","row_num":3263},{"area_id":15,"name":"個人宅北側杉林","lat":38.7475988,"long":141.0432373,"status":1.0,"note":null,"address":"栗原市志波姫堀口御駒堂25","row_num":3264},{"area_id":15,"name":"上区公民館前スクールバス停留所西側（道路敷）","lat":38.7688236,"long":141.0554585,"status":1.0,"note":null,"address":"栗原市志波姫新刈敷213","row_num":3265},{"area_id":15,"name":"中区ライスセンター向かい（道路敷）","lat":38.769521,"long":141.0631134,"status":1.0,"note":null,"address":"栗原市志波姫蔵場南128","row_num":3266},{"area_id":15,"name":"かりしき・はなわスクールバス停留所西側（道路敷）","lat":38.7766841,"long":141.0789276,"status":1.0,"note":null,"address":"栗原市志波姫刈敷治郎163-5","row_num":3267},{"area_id":15,"name":"久光組重機置き場前","lat":38.7657469,"long":141.0867622,"status":1.0,"note":null,"address":"栗原市志波姫北郷荒町70","row_num":3268},{"area_id":15,"name":"町区公民館","lat":38.7716732,"long":141.1017791,"status":1.0,"note":null,"address":"栗原市志波姫伊豆野町北側20","row_num":3269},{"area_id":15,"name":"芝の脇公民館北側伊豆野堰フェンス","lat":38.7697839,"long":141.111651,"status":1.0,"note":null,"address":"栗原市志波姫芝の脇南239","row_num":3270},{"area_id":15,"name":"城内区公民館","lat":38.7753695,"long":141.1038993,"status":1.0,"note":null,"address":"栗原市志波姫伊豆野城内前51-3","row_num":3271},{"area_id":15,"name":"志波姫間海区公民館南側（道路敷）","lat":38.7458095,"long":141.1001307,"status":1.0,"note":null,"address":"栗原市志波姫南郷新間海34","row_num":3272},{"area_id":15,"name":"橋本自治会館北側（道路敷）","lat":38.757835,"long":141.0879482,"status":1.0,"note":null,"address":"栗原市志波姫新橋本276","row_num":3273},{"area_id":15,"name":"個人宅宅前","lat":38.753081,"long":141.0913295,"status":1.0,"note":null,"address":"栗原市志波姫南郷大平179","row_num":3274},{"area_id":15,"name":"市道蟹沢線、大峰線T字路","lat":38.7505822,"long":141.1012886,"status":1.0,"note":null,"address":"栗原市志波姫南郷日向213","row_num":3275},{"area_id":15,"name":"個人宅隣地（道路敷）","lat":38.7656567,"long":140.8685825,"status":1.0,"note":null,"address":"栗原市花山字草木沢宿29-1付近","row_num":3276},{"area_id":15,"name":"花山掛越停留所横","lat":38.765418,"long":140.8597203,"status":0.0,"note":null,"address":"栗原市花山字草木沢中田48-1","row_num":3277},{"area_id":15,"name":"花山荒谷集会所前","lat":38.7731321,"long":140.8330268,"status":0.0,"note":null,"address":"栗原市花山字草木沢荒谷16-2","row_num":3278},{"area_id":15,"name":"花山大笹集会所前","lat":38.773923,"long":140.8080871,"status":0.0,"note":null,"address":"栗原市花山字草木沢大笹11-10","row_num":3279},{"area_id":15,"name":"上原消防ポンプ置場前（道路敷）","lat":38.7558116,"long":140.8143504,"status":0.0,"note":null,"address":"栗原市花山字草木沢上原35-8付近","row_num":3280},{"area_id":15,"name":"花山総合支所前","lat":38.7920967,"long":140.8462618,"status":1.0,"note":null,"address":"栗原市花山字本沢北ノ前94-5、94-6","row_num":3281},{"area_id":15,"name":"花山沢集会所前（道路敷）","lat":38.804582,"long":140.8447729,"status":0.0,"note":null,"address":"栗原市花山字本沢花山沢25-3付近","row_num":3282},{"area_id":15,"name":"個人宅横","lat":38.7973748,"long":140.8394593,"status":0.0,"note":null,"address":"栗原市花山字本沢御堂23-1","row_num":3283},{"area_id":15,"name":"個人宅横（道路敷）","lat":38.797522,"long":140.8342276,"status":0.0,"note":null,"address":"栗原市花山字本沢松田67付近","row_num":3284},{"area_id":15,"name":"山下公衆トイレ跡地（道路敷）","lat":38.7911414,"long":140.8417233,"status":1.0,"note":null,"address":"栗原市花山字本沢山下49-12付近","row_num":3285},{"area_id":15,"name":"花山養魚場付近","lat":38.7975935,"long":140.8198862,"status":0.0,"note":null,"address":"栗原市花山字本沢早坂7-18付近","row_num":3286},{"area_id":15,"name":"個人宅前（道路敷）","lat":38.8302611,"long":140.8141232,"status":0.0,"note":null,"address":"栗原市花山字本沢中村65-7付近","row_num":3287},{"area_id":15,"name":"野口商店店舗前（道路敷）","lat":38.8233347,"long":140.7973765,"status":0.0,"note":null,"address":"栗原市花山字本沢猪ノ沢3-32付近","row_num":3288},{"area_id":15,"name":"小豆畑集会所前（道路敷）","lat":38.7915746,"long":140.798917,"status":0.0,"note":null,"address":"栗原市花山字草木沢角間25-3付近","row_num":3289}]