[{"area_id":17,"name":"旧大崎市民病院南病棟向い立体駐車場","lat":38.5782455,"long":140.9553015,"status":1.0,"note":null,"address":"大崎市古川千手寺町１丁目３番２４","row_num":3411},{"area_id":17,"name":"大崎市諏訪公園","lat":38.5812891,"long":140.9498671,"status":1.0,"note":null,"address":"大崎市古川諏訪二丁目１１６番地１","row_num":3412},{"area_id":17,"name":"道の駅おおさき入口付近","lat":38.5798017,"long":140.9565678,"status":0.0,"note":null,"address":"大崎市古川千手寺町二丁目５番５０号","row_num":3413},{"area_id":17,"name":"古川クリニック入口向い","lat":38.5733352,"long":140.9515723,"status":1.0,"note":null,"address":"大崎市古川西館二丁目３番３７号","row_num":3414},{"area_id":17,"name":"薬王堂古川城西店 緑地帯","lat":38.5751024,"long":140.9491126,"status":1.0,"note":null,"address":"大崎市古川城西一丁目７番１５号","row_num":3415},{"area_id":17,"name":"古川若葉町住宅付近交差点","lat":38.5896222,"long":140.9527969,"status":0.0,"note":null,"address":"大崎市古川若葉町２丁目４番地３先","row_num":3416},{"area_id":17,"name":"宮袋公会堂","lat":38.5859919,"long":140.9524879,"status":1.0,"note":null,"address":"大崎市古川大宮二丁目６番２３号","row_num":3417},{"area_id":17,"name":"大崎市上下水道部","lat":38.5863466,"long":140.944927,"status":0.0,"note":null,"address":"大崎市古川字上古川１１７番地","row_num":3418},{"area_id":17,"name":"古川大奥防住宅跡地","lat":38.5861992,"long":140.9488474,"status":0.0,"note":null,"address":"大崎市古川字大奥防３１番地","row_num":3419},{"area_id":17,"name":"大崎市古川第四小学校北門付近","lat":38.5883382,"long":140.9554893,"status":1.0,"note":null,"address":"大崎市古川大宮八丁目２番１号","row_num":3420},{"area_id":17,"name":"大崎市三日町公園","lat":38.5739742,"long":140.9557913,"status":0.0,"note":null,"address":"大崎市古川三日町一丁目６３番地１","row_num":3421},{"area_id":17,"name":"大崎市古川保健福祉プラザ","lat":38.5729306,"long":140.9571939,"status":0.0,"note":null,"address":"大崎市古川三日町二丁目５番１号","row_num":3422},{"area_id":17,"name":"個人宅ブロック塀前","lat":38.5715309,"long":140.9608911,"status":0.0,"note":null,"address":"大崎市古川中里一丁目１０番４０号","row_num":3423},{"area_id":17,"name":"大崎市古川南児童センター","lat":38.5668462,"long":140.9552475,"status":0.0,"note":null,"address":"大崎市古川南町三丁目７番２６号","row_num":3424},{"area_id":17,"name":"栄町集会所","lat":38.5674566,"long":140.9486979,"status":0.0,"note":null,"address":"大崎市古川栄町８番１１号","row_num":3425},{"area_id":17,"name":"大崎生涯学習センター","lat":38.5657111,"long":140.945958,"status":0.0,"note":null,"address":"大崎市古川穂波三丁目４番２０号","row_num":3426},{"area_id":17,"name":"旧大崎市古川たんぽぽ保育所","lat":38.5678486,"long":140.952571,"status":0.0,"note":null,"address":"大崎市古川小稲葉町８番１５号","row_num":3427},{"area_id":17,"name":"大崎市古川南部コミュニティセンター","lat":38.5637343,"long":140.9555255,"status":0.0,"note":null,"address":"大崎市古川北稲葉一丁目１番１６号","row_num":3428},{"area_id":17,"name":"個人宅敷地内","lat":38.5603541,"long":140.9539054,"status":0.0,"note":null,"address":"大崎市古川稲葉三丁目２番１０号","row_num":3429},{"area_id":17,"name":"個人宅敷地内","lat":38.5587916,"long":140.9544897,"status":0.0,"note":null,"address":"大崎市古川稲葉三丁目５番３号","row_num":3430},{"area_id":17,"name":"大崎市古川第三小学校東南角付近道路側","lat":38.5594348,"long":140.9590116,"status":0.0,"note":null,"address":"大崎市古川金五輪一丁目１３番１号","row_num":3431},{"area_id":17,"name":"古川高等学校敷地","lat":38.5703587,"long":140.9554154,"status":0.0,"note":null,"address":"大崎市古川南町2丁目3番17号","row_num":3432},{"area_id":17,"name":"沖稲葉団地公園","lat":38.5551897,"long":140.9558509,"status":0.0,"note":null,"address":"大崎市古川稲葉四丁目２３０番地２０","row_num":3433},{"area_id":17,"name":"米袋集会所","lat":38.5485209,"long":140.9521571,"status":0.0,"note":null,"address":"大崎市古川米袋字水車６番地","row_num":3434},{"area_id":17,"name":"古川西荒井住宅","lat":38.5585574,"long":140.9445139,"status":0.0,"note":null,"address":"大崎市古川穂波四丁目１０番１３号","row_num":3435},{"area_id":17,"name":"(株)オーケーエス　北東側道路敷地","lat":38.5541466,"long":140.9495019,"status":0.0,"note":null,"address":"大崎市古川稲葉字新堀５６番地先","row_num":3436},{"area_id":17,"name":"おひさま治療院西向道路側敷地","lat":38.5546391,"long":140.9443959,"status":0.0,"note":null,"address":"大崎市古川西荒井字東田344番地","row_num":3437},{"area_id":17,"name":"個人宅南隣空き地","lat":38.5668106,"long":140.960503,"status":0.0,"note":null,"address":"大崎市古川中里三丁目３番４４号先","row_num":3438},{"area_id":17,"name":"個人宅地西側道路敷地","lat":38.5628547,"long":140.9644592,"status":0.0,"note":null,"address":"大崎市古川中里五丁目１７番２号先","row_num":3439},{"area_id":17,"name":"古川駅東　新幹線東線植栽部分","lat":38.5712394,"long":140.9730799,"status":0.0,"note":null,"address":"大崎市古川駅東一丁目１８９番付近","row_num":3440},{"area_id":17,"name":"大崎市図書館","lat":38.5754658,"long":140.9655021,"status":1.0,"note":null,"address":"大崎市古川駅前大通四丁目２番","row_num":3441},{"area_id":17,"name":"個人宅　南側","lat":38.5752525,"long":140.977389,"status":0.0,"note":null,"address":"大崎市古川李埣二丁目３４０番１","row_num":3442},{"area_id":17,"name":"大崎市古川大宮児童センター","lat":38.5856575,"long":140.9576943,"status":1.0,"note":null,"address":"大崎市古川大宮四丁目９番８号","row_num":3443},{"area_id":17,"name":"古川郵便局","lat":38.5772628,"long":140.9664311,"status":1.0,"note":null,"address":"大崎市古川駅前大通五丁目３番３号","row_num":3444},{"area_id":17,"name":"大崎市古川中央コミュニティセンター","lat":38.577668,"long":140.9602603,"status":1.0,"note":null,"address":"大崎市古川北町一丁目１番３５号","row_num":3445},{"area_id":17,"name":"大崎市古川北町保育所","lat":38.5826132,"long":140.9620899,"status":1.0,"note":null,"address":"大崎市古川北町四丁目４番２５号","row_num":3446},{"area_id":17,"name":"大崎市中央公民館","lat":38.5809564,"long":140.9679959,"status":1.0,"note":null,"address":"大崎市古川北町五丁目５番１号","row_num":3447},{"area_id":17,"name":"大崎市古川駅南二号公園","lat":38.5675317,"long":140.968813,"status":1.0,"note":null,"address":"大崎市古川駅南二丁目７番地","row_num":3448},{"area_id":17,"name":"県営古川李埣住宅","lat":38.5685808,"long":140.9758533,"status":0.0,"note":null,"address":"大崎市古川旭三丁目１番地","row_num":3449},{"area_id":17,"name":"旧大崎市古川東部コミュニティセンター","lat":38.5714164,"long":140.9787203,"status":1.0,"note":null,"address":"大崎市古川李埣三丁目１番３号","row_num":3450},{"area_id":17,"name":"大崎市あさひ中央公園","lat":38.5667371,"long":140.9739918,"status":1.0,"note":null,"address":"大崎市古川旭四丁目１番１号","row_num":3451},{"area_id":17,"name":"大崎市古川総合体育館","lat":38.564239,"long":140.9750933,"status":1.0,"note":null,"address":"大崎市古川旭四丁目５番２号","row_num":3452},{"area_id":17,"name":"個人宅ブロックフェンス外側","lat":38.5880799,"long":140.9609766,"status":1.0,"note":null,"address":"大崎市古川福浦一丁目３番６号","row_num":3453},{"area_id":17,"name":"福浦児童公園","lat":38.5904124,"long":140.9607773,"status":1.0,"note":null,"address":"大崎市古川福浦一丁目１４番６号","row_num":3454},{"area_id":17,"name":"八幡神社","lat":38.5879002,"long":140.9681335,"status":1.0,"note":null,"address":"大崎市古川江合本町一丁目１番６号","row_num":3455},{"area_id":17,"name":"Ｎハイツ東側水路柵","lat":38.5856733,"long":140.969399,"status":1.0,"note":null,"address":"大崎市古川江合錦町二丁目２番３９号先","row_num":3456},{"area_id":17,"name":"個人宅地敷地内","lat":38.5855631,"long":140.9649262,"status":1.0,"note":null,"address":"大崎市古川江合寿町一丁目５番２５号","row_num":3457},{"area_id":17,"name":"大崎市荒雄公園","lat":38.5815485,"long":140.9720987,"status":0.0,"note":null,"address":"大崎市古川福沼一丁目１番地１","row_num":3458},{"area_id":17,"name":"大崎市市民プール駐車場","lat":38.5837849,"long":140.9751725,"status":0.0,"note":null,"address":"大崎市古川福沼一丁目１５番１号","row_num":3459},{"area_id":17,"name":"古川農協福沼倉庫","lat":38.5793722,"long":140.9769638,"status":0.0,"note":null,"address":"大崎市古川福沼二丁目１２番１９号","row_num":3460},{"area_id":17,"name":"古川第二小学校北東側入り口付近","lat":38.5764009,"long":140.9777654,"status":0.0,"note":null,"address":"大崎市古川福沼三丁目１８番１２号先","row_num":3461},{"area_id":17,"name":"個人宅ブロック塀外側","lat":38.5729617,"long":140.9827144,"status":0.0,"note":null,"address":"大崎市古川李埣字横山３３番地","row_num":3462},{"area_id":17,"name":"大崎市建設課車庫","lat":38.569375,"long":140.9835781,"status":1.0,"note":null,"address":"大崎市古川李埣字東田９９番地","row_num":3463},{"area_id":17,"name":"個人宅地東側向い敷地内","lat":38.5605623,"long":140.9847926,"status":0.0,"note":null,"address":"大崎市古川馬寄字南屋敷１番地先","row_num":3464},{"area_id":17,"name":"鶴ケ埣集会所前水路敷","lat":38.5730731,"long":140.9885842,"status":0.0,"note":null,"address":"大崎市古川鶴ケ埣字南原１２番地先","row_num":3465},{"area_id":17,"name":"パナソニックコンシューマーマーケティング（株）南側","lat":38.5707207,"long":140.9893135,"status":0.0,"note":null,"address":"大崎市古川鶴ケ埣字新江北６９番地２","row_num":3466},{"area_id":17,"name":"小規模多機能型居宅介護事業所ひばり　敷地","lat":38.5749143,"long":140.9444487,"status":0.0,"note":null,"address":"大崎市古川字竹ノ内２４４番地２","row_num":3467},{"area_id":17,"name":"ほなみ親水公園","lat":38.5616129,"long":140.9415553,"status":0.0,"note":null,"address":"大崎市古川穂波五丁目１番","row_num":3468},{"area_id":17,"name":"米倉　鹿島神社境内","lat":38.5704821,"long":140.9383102,"status":0.0,"note":null,"address":"大崎市古川穂波八丁目１７番１０号","row_num":3469},{"area_id":17,"name":"雇用促進住宅米倉宿舎1号棟北側","lat":38.5618044,"long":140.9404474,"status":0.0,"note":null,"address":"大崎市古川穂波五丁目１１番地１","row_num":3470},{"area_id":17,"name":"塚目生活センター","lat":38.5804207,"long":140.9385771,"status":0.0,"note":null,"address":"大崎市古川塚目字原屋敷１１０番地","row_num":3471},{"area_id":17,"name":"個人宅ブロック塀外側","lat":38.5910896,"long":140.9379427,"status":0.0,"note":null,"address":"大崎市古川塚目字石名坂２２番地","row_num":3472},{"area_id":17,"name":"個人宅ブロック塀外側","lat":38.5612504,"long":140.9209102,"status":0.0,"note":null,"address":"大崎市古川飯川字要害６３０番地１","row_num":3473},{"area_id":17,"name":"個人宅ブロック塀外側","lat":38.5655094,"long":140.9158674,"status":0.0,"note":null,"address":"大崎市古川飯川字坂下３７番地","row_num":3474},{"area_id":17,"name":"個人宅ブロック塀外側","lat":38.55824,"long":140.9245267,"status":0.0,"note":null,"address":"大崎市古川飯川字松木９番地","row_num":3475},{"area_id":17,"name":"個人宅ブロック塀外側","lat":38.5744697,"long":140.9009174,"status":0.0,"note":null,"address":"大崎市古川上中目字西１５０番地１","row_num":3476},{"area_id":17,"name":"個人所有敷地内","lat":38.5786781,"long":140.9140896,"status":0.0,"note":null,"address":"大崎市古川渋井字谷地１0番地","row_num":3477},{"area_id":17,"name":"古川農村環境改善センター","lat":38.5860173,"long":140.8995048,"status":0.0,"note":null,"address":"大崎市古川保柳字中江５番地２先","row_num":3478},{"area_id":17,"name":"大崎市西古川地区公民館","lat":38.5825744,"long":140.8967334,"status":0.0,"note":null,"address":"大崎市古川保柳字氏子２０２番地","row_num":3479},{"area_id":17,"name":"大崎市西古川児童遊園","lat":38.5763974,"long":140.8978522,"status":0.0,"note":null,"address":"大崎市古川新堀字東田１番地８","row_num":3480},{"area_id":17,"name":"日吉神社東側道路敷","lat":38.5898115,"long":140.8862879,"status":0.0,"note":null,"address":"大崎市古川柏崎字神明前１３番地２先","row_num":3481},{"area_id":17,"name":"個人宅ブロック塀外側","lat":38.587569,"long":140.8783292,"status":0.0,"note":null,"address":"大崎市古川耳取字金穂７６番地","row_num":3482},{"area_id":17,"name":"個人宅付近交差点","lat":38.5959646,"long":140.8820108,"status":0.0,"note":null,"address":"大崎市古川柏崎字志引地内","row_num":3483},{"area_id":17,"name":"個人宅地敷地内","lat":38.6032496,"long":140.8918303,"status":0.0,"note":null,"address":"大崎市古川斎下字中町６１番地","row_num":3484},{"area_id":17,"name":"大崎市古川東大崎地区公民館","lat":38.6038486,"long":140.9107899,"status":0.0,"note":null,"address":"大崎市古川大崎字朝日３２番地","row_num":3485},{"area_id":17,"name":"（株）三協建設　倉庫跡地","lat":38.6050022,"long":140.9038554,"status":0.0,"note":null,"address":"大崎市古川大崎字伏見本屋敷６９番地２","row_num":3486},{"area_id":17,"name":"大崎コミュニティセンター","lat":38.6058444,"long":140.8973707,"status":0.0,"note":null,"address":"大崎市古川大崎字天望５３番地","row_num":3487},{"area_id":17,"name":"オークの森","lat":38.6177118,"long":140.9166302,"status":0.0,"note":null,"address":"大崎市古川清水字三丁目柳ノ内１６番地","row_num":3488},{"area_id":17,"name":"個人宅生垣前","lat":38.6189671,"long":140.9185554,"status":0.0,"note":null,"address":"大崎市古川清水字三丁目石原３７番地","row_num":3489},{"area_id":17,"name":"成田公会堂","lat":38.6177118,"long":140.9166302,"status":0.0,"note":null,"address":"大崎市古川清水字成田５１番地１先","row_num":3490},{"area_id":17,"name":"新田要害公会堂脇空き地","lat":38.5949574,"long":140.9335934,"status":0.0,"note":null,"address":"大崎市古川新田字旭１番地１先","row_num":3491},{"area_id":17,"name":"個人酒店南側","lat":38.5988457,"long":140.925579,"status":0.0,"note":null,"address":"大崎市古川新田字上宿３２番地１先","row_num":3492},{"area_id":17,"name":"（有）阿部重機土木様　敷地","lat":38.6027926,"long":140.9271709,"status":0.0,"note":null,"address":"大崎市古川新田字大西３７番地４","row_num":3493},{"area_id":17,"name":"大崎市古川宮沢地区公民館","lat":38.6156735,"long":140.9418385,"status":0.0,"note":null,"address":"大崎市古川小林字新一本杉１７０番地","row_num":3494},{"area_id":17,"name":"小林上区親和会館","lat":38.6179896,"long":140.9286329,"status":0.0,"note":null,"address":"大崎市古川小林字新要害４８番地","row_num":3495},{"area_id":17,"name":"個人宅農地畦畔","lat":38.6304604,"long":140.9480596,"status":0.0,"note":null,"address":"大崎市古川宮沢字新庚壇７１番地","row_num":3496},{"area_id":17,"name":"個人宅ブロック塀外側","lat":38.6230112,"long":140.9422676,"status":0.0,"note":null,"address":"大崎市古川宮沢字裏馬田町３５番地１","row_num":3497},{"area_id":17,"name":"川熊生活センター下公園法面","lat":38.6194485,"long":140.9521983,"status":0.0,"note":null,"address":"大崎市古川川熊字長清１３７番地先","row_num":3498},{"area_id":17,"name":"大昇物流西側空き地","lat":38.6005415,"long":140.9507133,"status":0.0,"note":null,"address":"大崎市古川桜ノ目字新下釜２２９番地先","row_num":3499},{"area_id":17,"name":"南小林橋西側道路敷","lat":38.6065367,"long":140.942112,"status":0.0,"note":null,"address":"大崎市古川小林字新霞地内","row_num":3500},{"area_id":17,"name":"ＪＡ古川宮沢給油所前","lat":38.6052533,"long":140.947377,"status":0.0,"note":null,"address":"大崎市古川桜ノ目字下り松6番地7","row_num":3501},{"area_id":17,"name":"個人宅ブロック塀外側","lat":38.6074455,"long":140.9518683,"status":0.0,"note":null,"address":"大崎市古川桜ノ目字又戸４５番地２","row_num":3502},{"area_id":17,"name":"個人宅空き地内","lat":38.5961214,"long":140.967683,"status":0.0,"note":null,"address":"大崎市古川沢田字中河原地内","row_num":3503},{"area_id":17,"name":"個人宅ブロック塀外側","lat":38.6011709,"long":140.9701737,"status":0.0,"note":null,"address":"大崎市古川沢田字小村渕３７番地８","row_num":3504},{"area_id":17,"name":"個人宅ブロック塀外側","lat":38.6068194,"long":140.9644021,"status":0.0,"note":null,"address":"大崎市古川沢田字諏訪西４番地","row_num":3505},{"area_id":17,"name":"佐信木材（株）資材置場","lat":38.6083214,"long":140.9815087,"status":0.0,"note":null,"address":"大崎市古川荒谷字新竹ノ花８７番地２","row_num":3506},{"area_id":17,"name":"個人宅ブロック塀外側","lat":38.6153909,"long":140.9809036,"status":0.0,"note":null,"address":"大崎市古川荒谷字小道７番地","row_num":3507},{"area_id":17,"name":"大崎市古川長岡地区公民館","lat":38.6167335,"long":140.9756852,"status":0.0,"note":null,"address":"大崎市古川荒谷字新樋ノ口８１番地","row_num":3508},{"area_id":17,"name":"個人宅ブロック塀外側","lat":38.6154637,"long":140.9658114,"status":0.0,"note":null,"address":"大崎市古川長岡字仲屋敷５７番地","row_num":3509},{"area_id":17,"name":"県道古川岩出山線チェーン着脱場","lat":38.6188864,"long":140.9707791,"status":0.0,"note":null,"address":"大崎市古川荒谷字権現山地内","row_num":3510},{"area_id":17,"name":"朽木橋生活センター","lat":38.6264405,"long":140.9725745,"status":0.0,"note":null,"address":"大崎市古川小野字朽木橋８８番地１","row_num":3511},{"area_id":17,"name":"小野二区集会所","lat":38.6340644,"long":140.985463,"status":0.0,"note":null,"address":"大崎市古川小野字中蝦沢７５番地１","row_num":3512},{"area_id":17,"name":"個人宅生垣前","lat":38.6299848,"long":140.9886154,"status":0.0,"note":null,"address":"大崎市古川小野字壇ノ崎６６番地","row_num":3513},{"area_id":17,"name":"個人宅ブロック塀外側","lat":38.6240813,"long":140.9843513,"status":0.0,"note":null,"address":"大崎市古川小野字馬籠６９番地２","row_num":3514},{"area_id":17,"name":"ｵｰﾄﾃｸﾆｶﾙｻｰﾋﾞｽ駐車場敷地内","lat":38.6215542,"long":140.9898361,"status":0.0,"note":null,"address":"大崎市古川小野字宿５９番地１","row_num":3515},{"area_id":17,"name":"個人宅北側道路敷","lat":38.595343,"long":140.9748319,"status":1.0,"note":null,"address":"大崎市古川休塚字南田１先","row_num":3516},{"area_id":17,"name":"個人宅ブロック塀外側","lat":38.6003806,"long":140.9795574,"status":0.0,"note":null,"address":"大崎市古川休塚字童子川１２０番地","row_num":3517},{"area_id":17,"name":"個人宅ブロック塀外側","lat":38.5996938,"long":140.9922765,"status":0.0,"note":null,"address":"大崎市古川馬放字街道南北１４番地","row_num":3518},{"area_id":17,"name":"長岡針公会堂","lat":38.5955614,"long":141.0043526,"status":0.0,"note":null,"address":"大崎市古川長岡針字新輪野内６５番地","row_num":3519},{"area_id":17,"name":"個人宅ブロック塀外側","lat":38.5929452,"long":140.9880803,"status":0.0,"note":null,"address":"大崎市古川富長字山王２４番地","row_num":3520},{"area_id":17,"name":"個人宅ブロック塀外側","lat":38.5818422,"long":140.984104,"status":0.0,"note":null,"address":"大崎市古川渕尻字大見３番地","row_num":3521},{"area_id":17,"name":"個人宅ブロック塀外側","lat":38.5807104,"long":140.9927586,"status":0.0,"note":null,"address":"大崎市古川上埣字東畑１５番地","row_num":3522},{"area_id":17,"name":"下谷地公会堂","lat":38.5745374,"long":141.007534,"status":0.0,"note":null,"address":"大崎市古川下谷地字新不動１０１番地","row_num":3523},{"area_id":17,"name":"個人宅ブロック塀外側","lat":38.5786028,"long":141.013407,"status":0.0,"note":null,"address":"大崎市古川馬櫛字亀治浦１４番地","row_num":3524},{"area_id":17,"name":"宮城ノーミ株式会社古川営業所","lat":38.559837,"long":140.9647805,"status":0.0,"note":null,"address":"大崎市古川中里五丁目１５番５０号","row_num":3525},{"area_id":17,"name":"個人宅ブロック塀外側","lat":38.5555729,"long":140.9618191,"status":0.0,"note":null,"address":"大崎市古川境野宮字北屋敷４２番地","row_num":3526},{"area_id":17,"name":"宮内公民館","lat":38.5557238,"long":140.9711463,"status":0.0,"note":null,"address":"大崎市古川宮内字筏畑１３番地","row_num":3527},{"area_id":17,"name":"雲正寺駐車場","lat":38.5543236,"long":140.9747968,"status":0.0,"note":null,"address":"大崎市古川楡木字明神６２番地","row_num":3528},{"area_id":17,"name":"師山公会堂","lat":38.5418559,"long":140.9737559,"status":0.0,"note":null,"address":"大崎市古川師山字薬師２５番地１","row_num":3529},{"area_id":17,"name":"多々美堂フェンス前","lat":38.5473449,"long":140.9911674,"status":0.0,"note":null,"address":"大崎市古川石森字北西原７番地２０","row_num":3530},{"area_id":17,"name":"石森集会所駐車場","lat":38.545692,"long":140.9959457,"status":0.0,"note":null,"address":"大崎市古川石森字宮在家１２番地","row_num":3531},{"area_id":17,"name":"個人宅ブロック塀外側","lat":38.5396275,"long":140.9994176,"status":0.0,"note":null,"address":"大崎市古川下中目字六軒丁４０番地","row_num":3532},{"area_id":17,"name":"下中目地内県道交差点東道路敷","lat":38.5356572,"long":141.0058597,"status":0.0,"note":null,"address":"大崎市古川下中目字経壇２１７番地４","row_num":3533},{"area_id":17,"name":"深沼生活センター道路向い水路敷","lat":38.557449,"long":140.993791,"status":0.0,"note":null,"address":"大崎市古川深沼字谷地際２番地先","row_num":3534},{"area_id":17,"name":"個人宅　西側道路向い水路敷","lat":38.5564624,"long":141.0063611,"status":0.0,"note":null,"address":"大崎市古川桑針字元村前７番地先","row_num":3535},{"area_id":17,"name":"個人所有　畑地内","lat":38.5531216,"long":141.0063632,"status":0.0,"note":null,"address":"大崎市古川桑針字谷地中７番地２","row_num":3536},{"area_id":17,"name":"大崎市古川高倉ポンプ場跡地","lat":38.5608472,"long":140.9034053,"status":0.0,"note":null,"address":"大崎市古川矢目字上野５番地１","row_num":3537},{"area_id":17,"name":"個人宅　南側水路敷","lat":38.5492634,"long":140.9044021,"status":0.0,"note":null,"address":"大崎市古川引田字相良２８番地先","row_num":3538},{"area_id":17,"name":"個人宅　北側道路敷","lat":38.5493226,"long":140.9172507,"status":0.0,"note":null,"address":"大崎市古川新沼字行人堰南２７２番地先","row_num":3539},{"area_id":17,"name":"旧高倉小学校体育館西側","lat":38.5390107,"long":140.9146042,"status":0.0,"note":null,"address":"大崎市古川中沢字中沢屋敷２４２番地　地先","row_num":3540},{"area_id":17,"name":"鹿嶋神社敷地内","lat":38.5346194,"long":140.9011782,"status":0.0,"note":null,"address":"大崎市古川堤根字上屋敷１５番地１","row_num":3541},{"area_id":17,"name":"新田部落会館","lat":38.5288447,"long":140.9076669,"status":0.0,"note":null,"address":"大崎市古川中沢字鹿島２５番地１先","row_num":3542},{"area_id":17,"name":"個人所有宅地内","lat":38.634857,"long":140.9398001,"status":0.0,"note":null,"address":"大崎市古川雨生沢字欠下３２番地３","row_num":3543},{"area_id":17,"name":"個人所有　畑地内","lat":38.6439661,"long":140.9468398,"status":0.0,"note":null,"address":"大崎市古川雨生沢字鹿ノ沢６６番地３","row_num":3544},{"area_id":17,"name":"個人宅敷地内　畑地内","lat":38.6548313,"long":140.9417423,"status":0.0,"note":null,"address":"大崎市古川北宮沢字上前田５番地","row_num":3545},{"area_id":17,"name":"個人宅向い畑地内","lat":38.6459763,"long":140.9818428,"status":0.0,"note":null,"address":"大崎市古川清水沢字梅女４４番地先","row_num":3546},{"area_id":17,"name":"大崎市古川清滝地区公民館","lat":38.6594518,"long":140.9667818,"status":0.0,"note":null,"address":"大崎市古川清水沢字長泥３０番地２","row_num":3547},{"area_id":17,"name":"個人宅地敷地内","lat":38.6690969,"long":140.9545789,"status":0.0,"note":null,"address":"大崎市古川清滝字笹森４３番地","row_num":3548},{"area_id":17,"name":"個人宅生垣前","lat":38.6501836,"long":140.9549461,"status":0.0,"note":null,"address":"大崎市古川北宮沢字下前田２４番地","row_num":3549},{"area_id":17,"name":"個人宅敷地内畑地内","lat":38.6646336,"long":140.9379002,"status":0.0,"note":null,"address":"大崎市古川北宮沢字乙西久保３番地","row_num":3550},{"area_id":17,"name":"消防団ポンプ置場向い交差点歩道植樹帯","lat":38.5108389,"long":141.0524672,"status":0.0,"note":null,"address":"大崎市松山千石字松山１４１番地２","row_num":3551},{"area_id":17,"name":"台町北線歩道ガードパイプ","lat":38.5159944,"long":141.0532675,"status":0.0,"note":null,"address":"大崎市松山千石字松山３５０番地１","row_num":3552},{"area_id":17,"name":"個人宅北側フェンス外側","lat":38.514613,"long":141.0538405,"status":0.0,"note":null,"address":"大崎市松山千石字南亀田３４番地１","row_num":3553},{"area_id":17,"name":"松山総合支所前","lat":38.5142896,"long":141.0605242,"status":0.0,"note":null,"address":"大崎市松山千石字広田３０番地","row_num":3554},{"area_id":17,"name":"小松建設資材置場向い歩道ガードパイプ","lat":38.5121131,"long":141.0608498,"status":0.0,"note":null,"address":"大崎市松山金谷字金田３６４番地３","row_num":3555},{"area_id":17,"name":"日吉神社鳥居前","lat":38.5236743,"long":141.0376661,"status":0.0,"note":null,"address":"大崎市松山次橋字山王田32番地","row_num":3556},{"area_id":17,"name":"次橋地区広岡農業集落多目的集会施設前","lat":38.5201028,"long":141.0464208,"status":0.0,"note":null,"address":"大崎市松山千石字広岡76番地3","row_num":3557},{"area_id":17,"name":"セブンイレブン南側 県道植樹帯","lat":38.5097054,"long":141.0655266,"status":0.0,"note":null,"address":"大崎市松山金谷字舘ヶ崎畑３１番地１","row_num":3558},{"area_id":17,"name":"個人所有駐車場フェンス外前","lat":38.5118945,"long":141.0749804,"status":0.0,"note":null,"address":"大崎市松山金谷字赤沼上６６番地１","row_num":3559},{"area_id":17,"name":"駅前中区公園前","lat":38.5126713,"long":141.0711272,"status":0.0,"note":null,"address":"大崎市松山金谷字向田１５５番地４０","row_num":3560},{"area_id":17,"name":"黒江入口市道三角地後ろ畑","lat":38.5056664,"long":141.069351,"status":0.0,"note":null,"address":"大崎市松山金谷字白田１２５-１・１２６","row_num":3561},{"area_id":17,"name":"須摩屋公会堂前","lat":38.5226547,"long":141.0747729,"status":0.0,"note":null,"address":"大崎市松山須摩屋字新江下25番地1","row_num":3562},{"area_id":17,"name":"長尾公会堂前","lat":38.503958,"long":141.0741107,"status":0.0,"note":null,"address":"大崎市松山長尾字兵庫屋敷４５番地２","row_num":3563},{"area_id":17,"name":"個人商店向かい市道","lat":38.4992634,"long":141.0900093,"status":0.0,"note":null,"address":"大崎市松山長尾字氷室８６番地５","row_num":3564},{"area_id":17,"name":"松山下伊場野地区公民館","lat":38.5289736,"long":141.0033526,"status":0.0,"note":null,"address":"大崎市松山下伊場野字松木６番地","row_num":3565},{"area_id":17,"name":"個人宅前　ガードレール後ろ","lat":38.5311999,"long":141.0083559,"status":0.0,"note":null,"address":"大崎市松山下伊場野字中谷地３８番地１","row_num":3566},{"area_id":17,"name":"個人所有　畑地内","lat":38.5221634,"long":141.0174518,"status":0.0,"note":null,"address":"大崎市松山下伊場野字花ヶ崎４番地１","row_num":3567},{"area_id":17,"name":"上志引公会堂前","lat":38.5279947,"long":141.0058114,"status":0.0,"note":null,"address":"大崎市松山下伊場野字薬師447番地","row_num":3568},{"area_id":17,"name":"斉田生活センター前","lat":38.5231334,"long":140.9076516,"status":0.0,"note":null,"address":"大崎市三本木斉田字山崎２８番地１０","row_num":3569},{"area_id":17,"name":"音無集会所前市道","lat":38.512858,"long":140.9040607,"status":0.0,"note":null,"address":"大崎市三本木音無字前岩井２２番地","row_num":3570},{"area_id":17,"name":"三本木上三区コミュ二ティセンター前","lat":38.5178827,"long":140.9065299,"status":0.0,"note":null,"address":"大崎市三本木坂本字寺嶋１１番地２","row_num":3571},{"area_id":17,"name":"坂本青山団地内公園","lat":38.5178568,"long":140.913615,"status":0.0,"note":null,"address":"大崎市三本木坂本字青山３１番地９５","row_num":3572},{"area_id":17,"name":"三本木ふるさと研修センター前","lat":38.5201073,"long":140.9262104,"status":0.0,"note":null,"address":"大崎市三本木蟻ｹ袋字山畑１番地１４","row_num":3573},{"area_id":17,"name":"三本木北町地区コミュニティセンター前","lat":38.5311563,"long":140.9446008,"status":0.0,"note":null,"address":"大崎市三本木字善並田１２１番地１","row_num":3574},{"area_id":17,"name":"三本木南谷地集会所前","lat":38.5285725,"long":140.9421372,"status":0.0,"note":null,"address":"大崎市三本木字新鹿嶋１３番地１","row_num":3575},{"area_id":17,"name":"三本木多田川集会所前","lat":38.5416118,"long":140.9509805,"status":0.0,"note":null,"address":"大崎市三本木蒜袋字東谷地４９番地１","row_num":3576},{"area_id":17,"name":"三本木仲町地区コミュニティセンターフェンス西側","lat":38.5283162,"long":140.9494247,"status":0.0,"note":null,"address":"大崎市三本木字大谷１１番地","row_num":3577},{"area_id":17,"name":"蒜袋地区集会所前フェンス","lat":38.5312419,"long":140.9663956,"status":0.0,"note":null,"address":"大崎市三本木蒜袋字南屋敷１９番地７","row_num":3578},{"area_id":17,"name":"三本木野球場入口前","lat":38.5227805,"long":140.9527067,"status":0.0,"note":null,"address":"大崎市三本木桑折字沼下地内","row_num":3579},{"area_id":17,"name":"個人宅前市道敷地","lat":38.5194238,"long":140.973552,"status":0.0,"note":null,"address":"大崎市三本木秋田字西沢５番地","row_num":3580},{"area_id":17,"name":"上伊場野地区集会所前","lat":38.5270594,"long":140.9795988,"status":0.0,"note":null,"address":"大崎市三本木上伊場野字舘下８番地","row_num":3581},{"area_id":17,"name":"三本木下三区地区コミュニティセンター前","lat":38.5230189,"long":140.9633191,"status":0.0,"note":null,"address":"大崎市三本木桑折字八幡東３番地２","row_num":3582},{"area_id":17,"name":"門梨地区集会所前","lat":38.5281317,"long":140.9872522,"status":0.0,"note":null,"address":"大崎市三本木伊場野字門梨２９番地１","row_num":3583},{"area_id":17,"name":"三本木伊場野地区コミュニティセンター前","lat":38.5293263,"long":140.9926512,"status":0.0,"note":null,"address":"大崎市三本木伊場野字鉄炮町８番地","row_num":3584},{"area_id":17,"name":"川井地区集会所前","lat":38.5207238,"long":140.9874263,"status":0.0,"note":null,"address":"大崎市三本木伊場野字八ケ入１８番地２","row_num":3585},{"area_id":17,"name":"上沢地区集会所前","lat":38.5185294,"long":140.9959738,"status":0.0,"note":null,"address":"大崎市三本木伊場野字舘崎４５番地３","row_num":3586},{"area_id":17,"name":"三本木新沼地区コミュニティセンター駐車場東側","lat":38.539046,"long":140.9261223,"status":0.0,"note":null,"address":"大崎市三本木新沼字荒屋敷１２２番地１","row_num":3587},{"area_id":17,"name":"個人宅　畑地内","lat":38.5337423,"long":140.9366499,"status":0.0,"note":null,"address":"大崎市三本木新沼字中谷地８８番地１","row_num":3588},{"area_id":17,"name":"下宿地区集会所駐車場前","lat":38.5254215,"long":140.9286235,"status":0.0,"note":null,"address":"大崎市三本木新沼字二又１４９番地１","row_num":3589},{"area_id":17,"name":"上宿地区集会所前","lat":38.5290986,"long":140.9206613,"status":0.0,"note":null,"address":"大崎市三本木新沼字高原１６番地１","row_num":3590},{"area_id":17,"name":"個人宅ブロック塀外側","lat":38.5433358,"long":140.9383685,"status":0.0,"note":null,"address":"大崎市三本木高柳字東壇２９番地１","row_num":3591},{"area_id":17,"name":"三本木伊賀集会所前","lat":38.4929237,"long":140.935669,"status":0.0,"note":null,"address":"大崎市三本木伊賀字中伊賀１１番地２","row_num":3592},{"area_id":17,"name":"亜炭鉱害復旧記念碑敷地内","lat":38.5073781,"long":140.9308924,"status":0.0,"note":null,"address":"大崎市三本木桑折字萱刈庭１０番地５","row_num":3593},{"area_id":17,"name":"三本木新町コミュニティセンター前フェンス","lat":38.519124,"long":140.9347093,"status":0.0,"note":null,"address":"大崎市三本木新町一丁目９番７号","row_num":3594},{"area_id":17,"name":"混内山地区遊園地前","lat":38.5212881,"long":140.9337711,"status":0.0,"note":null,"address":"大崎市三本木蟻ヶ袋字混内山１地内","row_num":3595},{"area_id":17,"name":"大崎市役所三本木庁舎入口","lat":38.5202035,"long":140.9384331,"status":0.0,"note":null,"address":"大崎市三本木字大豆坂２４番地３","row_num":3596},{"area_id":17,"name":"旧三本木町役場跡地","lat":38.5252314,"long":140.9492609,"status":0.0,"note":null,"address":"大崎市三本木字西沢３５番地１","row_num":3597},{"area_id":17,"name":"南新町運動場南側フェンス","lat":38.5166729,"long":140.934341,"status":0.0,"note":null,"address":"大崎市三本木新町二丁目２０番125地先","row_num":3598},{"area_id":17,"name":"個人宅敷地内","lat":38.4781962,"long":141.1018252,"status":0.0,"note":null,"address":"大崎市鹿島台木間塚字姥ケ沢９３番地３","row_num":3599},{"area_id":17,"name":"姥ケ沢住宅15号棟西側フェンス","lat":38.4792541,"long":141.1021917,"status":0.0,"note":null,"address":"大崎市鹿島台木間塚字姥ケ沢６９番地","row_num":3600},{"area_id":17,"name":"個人宅ブロック塀外側","lat":38.4785615,"long":141.1046312,"status":0.0,"note":null,"address":"大崎市鹿島台木間塚字小谷地２３４番地１","row_num":3601},{"area_id":17,"name":"総合設備センター様敷地","lat":38.486751,"long":141.1061618,"status":0.0,"note":null,"address":"大崎市鹿島台木間塚字鴻ノ巣１８６番地１","row_num":3602},{"area_id":17,"name":"前迫公園避難場所看板隣","lat":38.4889657,"long":141.1135441,"status":0.0,"note":null,"address":"大崎市鹿島台木間塚字前迫９６番地４","row_num":3603},{"area_id":17,"name":"個人宅ブロック塀外側","lat":38.4751442,"long":141.1250363,"status":0.0,"note":null,"address":"大崎市鹿島台木間塚字竹谷８番地２","row_num":3604},{"area_id":17,"name":"個人宅敷地内ハウス前","lat":38.4740575,"long":141.1204956,"status":0.0,"note":null,"address":"大崎市鹿島台木間塚字草久８９４番地１","row_num":3605},{"area_id":17,"name":"大崎市鹿島台三ツ屋上地コミュニティセンターフェンス","lat":38.478239,"long":141.1034571,"status":0.0,"note":null,"address":"大崎市鹿島台木間塚字三ツ屋37番地1","row_num":3606},{"area_id":17,"name":"個人宅ブロック塀外側","lat":38.4537137,"long":141.1025299,"status":0.0,"note":null,"address":"大崎市鹿島台木間塚字鎌巻５１４番地２","row_num":3607},{"area_id":17,"name":"個人宅ブロック塀外側","lat":38.4471619,"long":141.1012799,"status":0.0,"note":null,"address":"大崎市鹿島台木間塚字鎌巻１０９番地１","row_num":3608},{"area_id":17,"name":"個人宅ブロック塀外側","lat":38.4845467,"long":141.0939652,"status":0.0,"note":null,"address":"大崎市鹿島台平渡字己待田４６２番地３","row_num":3609},{"area_id":17,"name":"福芦住宅１号棟脇フェンス","lat":38.4738028,"long":141.1004287,"status":0.0,"note":null,"address":"大崎市鹿島台木間塚字福芦３５９番地１","row_num":3610},{"area_id":17,"name":"鹿島台公民館敷地","lat":38.4749881,"long":141.1024917,"status":0.0,"note":null,"address":"大崎市鹿島台木間塚字小谷地５０４番地１","row_num":3611},{"area_id":17,"name":"個人所有畑東側道路敷","lat":38.4845467,"long":141.0939652,"status":0.0,"note":null,"address":"大崎市鹿島台平渡字西屋敷前6-10","row_num":3612},{"area_id":17,"name":"個人宅ブロック塀外側","lat":38.4910635,"long":141.095371,"status":0.0,"note":null,"address":"大崎市鹿島台平渡字鷹待嶽３番地４４","row_num":3613},{"area_id":17,"name":"鹿島台駅西口駅前広場前フェンス","lat":38.4738171,"long":141.0973906,"status":0.0,"note":null,"address":"大崎市鹿島台平渡字東銭神１番地１１","row_num":3614},{"area_id":17,"name":"大崎市鹿島台総合支所フェンス","lat":38.4783192,"long":141.0977931,"status":0.0,"note":null,"address":"大崎市鹿島台平渡字上戸下２６番地２","row_num":3615},{"area_id":17,"name":"千葉歯科様　駐車場フェンス","lat":38.4707618,"long":141.0951007,"status":0.0,"note":null,"address":"大崎市鹿島台平渡字銭神９７番地１","row_num":3616},{"area_id":17,"name":"個人宅ブロック塀外側","lat":38.4802452,"long":141.0926023,"status":0.0,"note":null,"address":"大崎市鹿島台平渡字長根７２番地２","row_num":3617},{"area_id":17,"name":"個人宅ブロック塀外側","lat":38.5025336,"long":141.0986929,"status":0.0,"note":null,"address":"大崎市鹿島台船越字山野町１７６番地１","row_num":3618},{"area_id":17,"name":"個人宅ブロック塀外側","lat":38.5108238,"long":141.0984767,"status":0.0,"note":null,"address":"大崎市鹿島台船越字鍋田５２番地１","row_num":3619},{"area_id":17,"name":"個人宅敷地内","lat":38.4598916,"long":141.0872905,"status":0.0,"note":null,"address":"大崎市鹿島台広長字内ノ浦２４７番地４","row_num":3620},{"area_id":17,"name":"内ノ浦住宅９号棟脇敷地","lat":38.4627202,"long":141.0884024,"status":0.0,"note":null,"address":"大崎市鹿島台広長字内ノ浦３９番地１","row_num":3621},{"area_id":17,"name":"個人宅ブロック塀外側","lat":38.4691506,"long":141.0924156,"status":0.0,"note":null,"address":"大崎市鹿島台平渡字吹上６７番地","row_num":3622},{"area_id":17,"name":"個人宅駐車場敷地内","lat":38.4781601,"long":141.0886984,"status":0.0,"note":null,"address":"大崎市鹿島台広長字鹿島７番地３","row_num":3623},{"area_id":17,"name":"個人所有敷地内","lat":38.4743323,"long":141.0906698,"status":0.0,"note":null,"address":"大崎市鹿島台平渡字吹上８番地１","row_num":3624},{"area_id":17,"name":"個人所有畑地内","lat":38.4831606,"long":141.0849354,"status":0.0,"note":null,"address":"大崎市鹿島台広長字坪下沢２０番地１","row_num":3625},{"area_id":17,"name":"個人宅前畑地内","lat":38.4907801,"long":141.0630651,"status":0.0,"note":null,"address":"大崎市鹿島台広長字上庚下２２番地１","row_num":3626},{"area_id":17,"name":"個人宅南側道路敷","lat":38.4781842,"long":141.0760619,"status":0.0,"note":null,"address":"大崎市鹿島台広長字大山３７番地１７","row_num":3627},{"area_id":17,"name":"個人宅ブロック塀外側","lat":38.4670102,"long":141.0778105,"status":0.0,"note":null,"address":"大崎市鹿島台広長字渕花４１番地２","row_num":3628},{"area_id":17,"name":"渕花集会所向かい道路敷","lat":38.4684472,"long":141.0773024,"status":0.0,"note":null,"address":"大崎市鹿島台広長字渕花２２番地５","row_num":3629},{"area_id":17,"name":"個人所有地内","lat":38.4661551,"long":141.0690007,"status":0.0,"note":null,"address":"大崎市鹿島台深谷字南堀籠７４番地１","row_num":3630},{"area_id":17,"name":"TOMARA－SHOP敷地隣","lat":38.4629793,"long":141.0598689,"status":0.0,"note":null,"address":"大崎市鹿島台大迫字東高岩１１９番地７","row_num":3631},{"area_id":17,"name":"旧鹿島台第二小学校北側フェンス","lat":38.4613755,"long":141.0418424,"status":0.0,"note":null,"address":"大崎市鹿島台大迫字寺沢４０番地１","row_num":3632},{"area_id":17,"name":"個人所有畑地内","lat":38.4775607,"long":141.0068065,"status":0.0,"note":null,"address":"大崎市鹿島台大迫字阿弥陀前７番地７","row_num":3633},{"area_id":17,"name":"個人宅向い道路敷","lat":38.4525855,"long":141.0595116,"status":0.0,"note":null,"address":"大崎市鹿島台大迫字下志田９８１番地１","row_num":3634},{"area_id":17,"name":"個人宅ブロック塀外側","lat":38.4464933,"long":141.051636,"status":0.0,"note":null,"address":"大崎市鹿島台大迫字下志田１２番地１","row_num":3635},{"area_id":17,"name":"個人宅向い道路敷","lat":38.449121,"long":141.0390235,"status":0.0,"note":null,"address":"大崎市鹿島台大迫字上志田２２１番地２","row_num":3636},{"area_id":17,"name":"上馬館バス停付近","lat":38.7014828,"long":140.9268024,"status":0.0,"note":null,"address":"大崎市岩出山字上真山菅沢馬館２８番地２","row_num":3637},{"area_id":17,"name":"JA新みやぎ いわでやま地区本部真山農業倉庫フェンス","lat":38.6957212,"long":140.927979,"status":0.0,"note":null,"address":"大崎市岩出山字上真山外道３１番地１","row_num":3638},{"area_id":17,"name":"小倉集会所前集積所脇","lat":38.713909,"long":140.8905163,"status":0.0,"note":null,"address":"大崎市岩出山字上真山仲居１３番地","row_num":3639},{"area_id":17,"name":"小坪集会所内フェンス","lat":38.6915614,"long":140.9528205,"status":0.0,"note":null,"address":"大崎市岩出山字下真山小坪２４番地１","row_num":3640},{"area_id":17,"name":"市道大坪１号線Y字路付近（大坪集会所向かい）","lat":38.6954742,"long":140.9623396,"status":0.0,"note":null,"address":"大崎市岩出山字下真山盛舘前１４番地２","row_num":3641},{"area_id":17,"name":"黄金田ライスセンター付近","lat":38.6843298,"long":140.9613175,"status":0.0,"note":null,"address":"大崎市岩出山字下真山要害２９番地","row_num":3642},{"area_id":17,"name":"市道葛岡線と県道栗駒岩出山線の合流地点（葛岡バス停付近）","lat":38.6929897,"long":140.8978547,"status":0.0,"note":null,"address":"大崎市岩出山字葛岡引沼７４番地","row_num":3643},{"area_id":17,"name":"葛岡３部集会所前","lat":38.6866901,"long":140.9140304,"status":0.0,"note":null,"address":"大崎市岩出山字葛岡宮ノ下５６番地","row_num":3644},{"area_id":17,"name":"市道磯田１号線２号線と市道砂田線の十字路付近","lat":38.6832241,"long":140.9227602,"status":0.0,"note":null,"address":"大崎市岩出山字磯田田中６番地","row_num":3645},{"area_id":17,"name":"市道鵙目線と市道小森線のＴ字路付近","lat":38.7137798,"long":140.819013,"status":0.0,"note":null,"address":"大崎市岩出山池月字鵙目舘下５２番地","row_num":3646},{"area_id":17,"name":"ファミリーマート池月店西隣り","lat":38.7083222,"long":140.8344595,"status":0.0,"note":null,"address":"大崎市岩出山池月字下宮道合1番地1","row_num":3647},{"area_id":17,"name":"市道山際下宮１号線（旧池月小学校入口掲示板付近）","lat":38.7117191,"long":140.8349853,"status":0.0,"note":null,"address":"大崎市岩出山池月字下宮山下３０番地","row_num":3648},{"area_id":17,"name":"池月中央消防ポンプ置場付近","lat":38.7073662,"long":140.8345347,"status":0.0,"note":null,"address":"大崎市岩出山池月字下宮道下１２番地１","row_num":3649},{"area_id":17,"name":"市道横縄線起点付近","lat":38.7088372,"long":140.8369351,"status":0.0,"note":null,"address":"大崎市岩出山池月字上一栗竹の内地内","row_num":3650},{"area_id":17,"name":"市道山際下宮１号線如来寺入口西側付近","lat":38.7064563,"long":140.8449861,"status":0.0,"note":null,"address":"大崎市岩出山池月字上一栗岩下３１番地先","row_num":3651},{"area_id":17,"name":"個人宅ブロック塀（四ツ家商店国道向い）","lat":38.6843447,"long":140.8556964,"status":0.0,"note":null,"address":"大崎市岩出山下一栗字四ツ家前4番地1","row_num":3652},{"area_id":17,"name":"市道上野目小学校線法面","lat":38.6802446,"long":140.8601018,"status":0.0,"note":null,"address":"大崎市岩出山下一栗字畑田４番地１","row_num":3653},{"area_id":17,"name":"市道山際下宮１号線法面","lat":38.6916144,"long":140.8583179,"status":0.0,"note":null,"address":"大崎市岩出山下一栗字宿浦３４番地１地先","row_num":3654},{"area_id":17,"name":"旧上野目小学校正門西側フェンス","lat":38.6838453,"long":140.8658531,"status":0.0,"note":null,"address":"大崎市岩出山下一栗字片岸浦９番地","row_num":3655},{"area_id":17,"name":"菅生集会所西側","lat":38.7080846,"long":140.878496,"status":0.0,"note":null,"address":"大崎市岩出山池月字上一栗日渡１８番地","row_num":3656},{"area_id":17,"name":"市道山際下宮２号線法面","lat":38.6742944,"long":140.874643,"status":0.0,"note":null,"address":"大崎市岩出山上野目字下鎌１０７番地地先","row_num":3657},{"area_id":17,"name":"市道山際下宮２号線法面","lat":38.6668809,"long":140.8803977,"status":0.0,"note":null,"address":"大崎市岩出山上野目字大保２５番地３地先","row_num":3658},{"area_id":17,"name":"県道法面","lat":38.6582691,"long":140.8832266,"status":1.0,"note":null,"address":"大崎市岩出山上野目字針生１番地２","row_num":3659},{"area_id":17,"name":"ドミールⅢ（アパート）前フェンス","lat":38.6710841,"long":140.8634857,"status":0.0,"note":null,"address":"大崎市岩出山上野目字下辻堂９番地","row_num":3660},{"area_id":17,"name":"遠藤自動車整備工場付近","lat":38.6664624,"long":140.8661092,"status":0.0,"note":null,"address":"大崎市岩出山上野目字中川原８番地１","row_num":3661},{"area_id":17,"name":"岩出山体育センター入口付近","lat":38.6655924,"long":140.8690206,"status":0.0,"note":null,"address":"大崎市岩出山上野目字中川原２１番地１","row_num":3662},{"area_id":17,"name":"市道東昌寺沢１号線と保土沢林道の起点付近","lat":38.6573775,"long":140.8516007,"status":0.0,"note":null,"address":"大崎市岩出山字蛭沢１１７番地４","row_num":3663},{"area_id":17,"name":"大学町集会所北側","lat":38.6542315,"long":140.8559273,"status":0.0,"note":null,"address":"大崎市岩出山字大学町１２６番地１","row_num":3664},{"area_id":17,"name":"岩出山小学校前","lat":38.653461,"long":140.8635335,"status":0.0,"note":null,"address":"大崎市岩出山字城山４番地２","row_num":3665},{"area_id":17,"name":"上川原緑地帯踏切付近","lat":38.6589861,"long":140.8620764,"status":0.0,"note":null,"address":"大崎市岩出山字上川原町３６－５","row_num":3666},{"area_id":17,"name":"有備館の森公園","lat":38.6581058,"long":140.8631597,"status":0.0,"note":null,"address":"大崎市岩出山字上川原町３番地","row_num":3667},{"area_id":17,"name":"市道あったか村線と県道岩出山宮崎線のＴ字路付近","lat":38.6560121,"long":140.8715267,"status":0.0,"note":null,"address":"大崎市岩出山字下川原町４８番地１","row_num":3668},{"area_id":17,"name":"割烹「栄や」東側駐車場","lat":38.6552817,"long":140.867541,"status":0.0,"note":null,"address":"大崎市岩出山字下川原町７９番地２","row_num":3669},{"area_id":17,"name":"東川原町公園","lat":38.6490376,"long":140.8759337,"status":0.0,"note":null,"address":"大崎市岩出山字東川原町１４番地１","row_num":3670},{"area_id":17,"name":"川原小路集会所フェンス","lat":38.6494922,"long":140.8720051,"status":0.0,"note":null,"address":"大崎市岩出山字下川原９番地","row_num":3671},{"area_id":17,"name":"来迎寺駐車場","lat":38.6524178,"long":140.8693042,"status":0.0,"note":null,"address":"大崎市岩出山字浦小路８４番地７","row_num":3672},{"area_id":17,"name":"新橋住宅掲示板付近","lat":38.6455573,"long":140.8767355,"status":0.0,"note":null,"address":"大崎市岩出山字下川原１４０番地１","row_num":3673},{"area_id":17,"name":"ビレッジハウス岩出山入口付近","lat":38.6473024,"long":140.8642912,"status":0.0,"note":null,"address":"大崎市岩出山字下金沢２０１番地２","row_num":3674},{"area_id":17,"name":"グループホームなんてん岩出山入口左側","lat":38.6458659,"long":140.8620381,"status":0.0,"note":null,"address":"大崎市岩出山字下金沢８５番地１","row_num":3675},{"area_id":17,"name":"中里集会所前","lat":38.6531666,"long":140.8266346,"status":0.0,"note":null,"address":"大崎市岩出山南沢字曲田裏４３番地９","row_num":3676},{"area_id":17,"name":"旧川北分校入口付近","lat":38.6518357,"long":140.8934463,"status":0.0,"note":null,"address":"大崎市岩出山下野目字向山１番地３","row_num":3677},{"area_id":17,"name":"川北第二生活センター付近","lat":38.6448722,"long":140.9077288,"status":0.0,"note":null,"address":"大崎市岩出山下野目字中の沢６８番地","row_num":3678},{"area_id":17,"name":"JA新みやぎ いわでやま地区本部前国道フェンス","lat":38.6402608,"long":140.8855319,"status":0.0,"note":null,"address":"大崎市岩出山下野目字二ツ屋３９番地","row_num":3679},{"area_id":17,"name":"市道座散乱木線と国道４７号のＴ字路付近","lat":38.633189,"long":140.893596,"status":0.0,"note":null,"address":"大崎市岩出山下野目字沖ノ井６番地","row_num":3680},{"area_id":17,"name":"小泉集会所フェンス","lat":38.6308907,"long":140.8922866,"status":0.0,"note":null,"address":"大崎市岩出山下野目字新小泉１１７番地","row_num":3681},{"area_id":17,"name":"JA新みやぎ いわでやま地区本部川原倉庫跡地","lat":38.6273854,"long":140.8926755,"status":0.0,"note":null,"address":"大崎市岩出山下野目字新川原４３番地１","row_num":3682},{"area_id":17,"name":"市道西大崎小学校線法面（旧西大崎小学校裏）","lat":38.6228289,"long":140.887182,"status":0.0,"note":null,"address":"大崎市岩出山下野目字泉山２０５番地","row_num":3683},{"area_id":17,"name":"馬主集会所前（国道側法面）","lat":38.6238719,"long":140.8724195,"status":0.0,"note":null,"address":"大崎市岩出山南沢字木戸脇裏１４３番地","row_num":3684},{"area_id":17,"name":"県畜産試験場事務所入口付近","lat":38.618145,"long":140.8811355,"status":0.0,"note":null,"address":"大崎市岩出山南沢字樋渡１番地","row_num":3685},{"area_id":17,"name":"樋渡集会所東隣り","lat":38.6123434,"long":140.8855795,"status":0.0,"note":null,"address":"大崎市岩出山南沢字樋渡３２番地２","row_num":3686},{"area_id":17,"name":"唐竹集会所付近","lat":38.635006,"long":140.8536436,"status":0.0,"note":null,"address":"大崎市岩出山南沢字木戸脇裏８７番地３","row_num":3687},{"area_id":17,"name":"中山コミュニティセンター入り口付近","lat":38.7280706,"long":140.6764794,"status":0.0,"note":null,"address":"大崎市鳴子温泉字星沼１９番地２５","row_num":3688},{"area_id":17,"name":"中山平温泉駅前","lat":38.7268122,"long":140.6680754,"status":0.0,"note":null,"address":"大崎市鳴子温泉字星沼７９番地２３８","row_num":3689},{"area_id":17,"name":"元中山保育所跡地前","lat":38.727696,"long":140.6637829,"status":0.0,"note":null,"address":"大崎市鳴子温泉字川端１０番地２","row_num":3690},{"area_id":17,"name":"三幸橋付近","lat":38.7277883,"long":140.6708572,"status":0.0,"note":null,"address":"大崎市鳴子温泉字星沼７７番地２９","row_num":3691},{"area_id":17,"name":"上鳴子消防ポンプ小屋脇","lat":38.7397426,"long":140.7111939,"status":0.0,"note":null,"address":"大崎市鳴子温泉字上鳴子１番地１  (元上鳴子住宅跡)","row_num":3692},{"area_id":17,"name":"中沢太鼓店様　脇市道","lat":38.738598,"long":140.7113319,"status":0.0,"note":null,"address":"大崎市鳴子温泉字上鳴子地内","row_num":3693},{"area_id":17,"name":"上野々テニスコート上","lat":38.7303952,"long":140.717578,"status":0.0,"note":null,"address":"大崎市鳴子温泉字古戸前１６０番地３０","row_num":3694},{"area_id":17,"name":"上野々レストハウス前","lat":38.734476,"long":140.7114711,"status":0.0,"note":null,"address":"大崎市鳴子温泉字古戸前１３２番地１０８","row_num":3695},{"area_id":17,"name":"鳴子小学校体育館脇","lat":38.7412425,"long":140.7152831,"status":0.0,"note":null,"address":"大崎市鳴子温泉字湯元２９番地","row_num":3696},{"area_id":17,"name":"早稲田桟敷湯向公園","lat":38.7431448,"long":140.7175752,"status":0.0,"note":null,"address":"大崎市鳴子温泉字新屋敷１４０番地１","row_num":3697},{"area_id":17,"name":"喜楽向","lat":38.746675,"long":140.7192087,"status":0.0,"note":null,"address":"大崎市鳴子温泉字新屋敷３４番地２","row_num":3698},{"area_id":17,"name":"鳴子温泉住宅前市道","lat":38.7594204,"long":140.7241204,"status":0.0,"note":null,"address":"大崎市鳴子温泉字末沢地内","row_num":3699},{"area_id":17,"name":"大畑共同浴場付近","lat":38.752999,"long":140.7182445,"status":0.0,"note":null,"address":"大崎市鳴子温泉字末沢西２１番地２付近","row_num":3700},{"area_id":17,"name":"元鳴子町営中野住宅跡地フェンス","lat":38.7393117,"long":140.740326,"status":0.0,"note":null,"address":"大崎市鳴子温泉字中野１５番地２","row_num":3701},{"area_id":17,"name":"鳴子公民館駐車場脇","lat":38.7454506,"long":140.7378829,"status":0.0,"note":null,"address":"大崎市鳴子温泉字鷲ノ巣８４番地９","row_num":3702},{"area_id":17,"name":"ホテルニューあらお前　分離帯","lat":38.7463862,"long":140.7337568,"status":0.0,"note":null,"address":"大崎市鳴子温泉字赤湯地内","row_num":3703},{"area_id":17,"name":"（株）遠藤店資材置場前フェンス","lat":38.7343825,"long":140.7519283,"status":0.0,"note":null,"address":"大崎市鳴子温泉字要害３９番地１","row_num":3704},{"area_id":17,"name":"市道敷地内","lat":38.7179603,"long":140.7514427,"status":0.0,"note":null,"address":"大崎市鳴子温泉字沢地内","row_num":3705},{"area_id":17,"name":"個人宅ブロック塀外側","lat":38.7313222,"long":140.7598613,"status":0.0,"note":null,"address":"大崎市鳴子温泉字築沢６２番地８","row_num":3706},{"area_id":17,"name":"川渡地区公民館　塀","lat":38.7321173,"long":140.7661012,"status":0.0,"note":null,"address":"大崎市鳴子温泉字川渡２５番地５","row_num":3707},{"area_id":17,"name":"鳴子中学校体育館裏","lat":38.7369224,"long":140.7640011,"status":0.0,"note":null,"address":"大崎市鳴子温泉字町西地内","row_num":3708},{"area_id":17,"name":"紅せん旅館前　市道敷","lat":38.7719303,"long":140.7408745,"status":0.0,"note":null,"address":"大崎市鳴子温泉字久田地内","row_num":3709},{"area_id":17,"name":"個人宅ブロック塀外側（踏切付近）","lat":38.7381058,"long":140.769924,"status":0.0,"note":null,"address":"大崎市鳴子温泉字町３８番地　(踏切付近）","row_num":3710},{"area_id":17,"name":"個人宅生垣前","lat":38.7367421,"long":140.7727453,"status":0.0,"note":null,"address":"大崎市鳴子温泉字町２番地６","row_num":3711},{"area_id":17,"name":"個人倉庫脇　杉林前","lat":38.6909449,"long":140.7478792,"status":0.0,"note":null,"address":"大崎市鳴子温泉字通原１４０番地","row_num":3712},{"area_id":17,"name":"向山集会所前　旧町掲示板","lat":38.6907113,"long":140.7599738,"status":0.0,"note":null,"address":"大崎市鳴子温泉字通原２６９番地４","row_num":3713},{"area_id":17,"name":"個人宅ブロック塀外側","lat":38.7346738,"long":140.7837056,"status":0.0,"note":null,"address":"大崎市鳴子温泉字関口８４番地７","row_num":3714},{"area_id":17,"name":"南野際会館脇","lat":38.7368313,"long":140.781662,"status":0.0,"note":null,"address":"大崎市鳴子温泉字関口６５番地３５","row_num":3715},{"area_id":17,"name":"個人宅ブロック塀外側","lat":38.7349237,"long":140.7766317,"status":0.0,"note":null,"address":"大崎市鳴子温泉字坂ノ上９番地","row_num":3716},{"area_id":17,"name":"個人宅庭先敷地内","lat":38.7436986,"long":140.7737065,"status":0.0,"note":null,"address":"大崎市鳴子温泉字野際１５２番地","row_num":3717},{"area_id":17,"name":"北野際集会所前","lat":38.7400821,"long":140.7820136,"status":0.0,"note":null,"address":"大崎市鳴子温泉字関口１９番地２","row_num":3718},{"area_id":17,"name":"黒崎生活センター脇","lat":38.7290376,"long":140.7982164,"status":0.0,"note":null,"address":"大崎市鳴子温泉字黒崎地内","row_num":3719},{"area_id":17,"name":"小身川原生活センター前","lat":38.7253346,"long":140.7889155,"status":0.0,"note":null,"address":"大崎市鳴子温泉字小身川原地内","row_num":3720},{"area_id":17,"name":"市道脇","lat":38.7531446,"long":140.7988819,"status":0.0,"note":null,"address":"大崎市鳴子温泉字水沼地内","row_num":3721},{"area_id":17,"name":"県道Ｔ字路南側道路敷","lat":38.7393006,"long":140.8020904,"status":0.0,"note":null,"address":"大崎市鳴子温泉字畑山地内","row_num":3722},{"area_id":17,"name":"蟹沢センター前","lat":38.7830421,"long":140.7049578,"status":0.0,"note":null,"address":"大崎市鳴子温泉鬼首字下蟹沢２０番地４","row_num":3723},{"area_id":17,"name":"元リカーショップ前","lat":38.7979385,"long":140.6623103,"status":0.0,"note":null,"address":"大崎市鳴子温泉鬼首字轟  （吹上温泉入口）","row_num":3724},{"area_id":17,"name":"田野原バス停付近　農道脇","lat":38.8129362,"long":140.6465837,"status":0.0,"note":null,"address":"大崎市鳴子温泉鬼首字田野原地内","row_num":3725},{"area_id":17,"name":"鬼首基幹集落センター入口","lat":38.8031125,"long":140.6489103,"status":0.0,"note":null,"address":"大崎市鳴子温泉鬼首字原４１番地１","row_num":3726},{"area_id":17,"name":"個人宅前道路敷地内","lat":38.8022758,"long":140.6389069,"status":0.0,"note":null,"address":"大崎市鳴子温泉鬼首字下軍沢地内","row_num":3727},{"area_id":17,"name":"個人商店向　旧町掲示板","lat":38.8022758,"long":140.6389069,"status":0.0,"note":null,"address":"大崎市鳴子温泉鬼首字高剥２６番地１","row_num":3728},{"area_id":17,"name":"岩入西集会所前","lat":38.8685065,"long":140.6788498,"status":0.0,"note":null,"address":"大崎市鳴子温泉鬼首字峠５３番地１","row_num":3729},{"area_id":17,"name":"岩入ポンプ小屋脇　旧町掲示板","lat":38.8591796,"long":140.7169365,"status":0.0,"note":null,"address":"大崎市鳴子温泉鬼首字岩入地内","row_num":3730},{"area_id":17,"name":"県道沿い個人宅ブロック塀外側","lat":38.6001633,"long":141.0215188,"status":0.0,"note":null,"address":"大崎市田尻字町１４番地","row_num":3731},{"area_id":17,"name":"横町河岸前公会堂向","lat":38.5969835,"long":141.0245475,"status":0.0,"note":null,"address":"大崎市田尻字御蔵１２番地１","row_num":3732},{"area_id":17,"name":"旧田尻保育所前敷地西側","lat":38.5986513,"long":141.0303269,"status":0.0,"note":null,"address":"大崎市田尻字太子堂１１２番地","row_num":3733},{"area_id":17,"name":"個人宅ブロック塀","lat":38.5978431,"long":141.0405492,"status":0.0,"note":null,"address":"大崎市田尻北牧目字新田３０番地","row_num":3734},{"area_id":17,"name":"田尻小学校北側向　フェンス","lat":38.6057874,"long":141.0214968,"status":0.0,"note":null,"address":"大崎市田尻通木字山崎９４番地１","row_num":3735},{"area_id":17,"name":"個人宅ブロック塀外側","lat":38.6044561,"long":141.0264145,"status":0.0,"note":null,"address":"大崎市田尻通木字中崎２１番地","row_num":3736},{"area_id":17,"name":"市道敷地内（止まれ付近）","lat":38.6009951,"long":141.0109288,"status":0.0,"note":null,"address":"大崎市田尻中目字東原４１番地３","row_num":3737},{"area_id":17,"name":"八幡新江川フェンス","lat":38.6207273,"long":141.0149752,"status":0.0,"note":null,"address":"大崎市田尻八幡字鍛冶町地内","row_num":3738},{"area_id":17,"name":"個人所有敷地内","lat":38.6171943,"long":141.0195807,"status":0.0,"note":null,"address":"大崎市田尻大嶺字土腐７４番地","row_num":3739},{"area_id":17,"name":"市道敷地内","lat":38.6221688,"long":141.0076391,"status":0.0,"note":null,"address":"大崎市田尻小松字滝道３０番地１","row_num":3740},{"area_id":17,"name":"沼木生活センター向　田尻川ﾌｪﾝｽ","lat":38.6137845,"long":140.9951932,"status":0.0,"note":null,"address":"大崎市田尻沼木字筒水地内","row_num":3741},{"area_id":17,"name":"個人宅ブロック塀外側","lat":38.6059136,"long":141.0598162,"status":0.0,"note":null,"address":"大崎市田尻沼部字十文字２５番地","row_num":3742},{"area_id":17,"name":"大崎市田尻総合支所正門県道沿","lat":38.5988431,"long":141.0573988,"status":0.0,"note":null,"address":"大崎市田尻沼部字富岡１８３番地３","row_num":3743},{"area_id":17,"name":"田尻駅前駐輪場西側","lat":38.5976196,"long":141.0582398,"status":0.0,"note":null,"address":"大崎市田尻沼部字塩加良地内","row_num":3744},{"area_id":17,"name":"個人所有畑地内","lat":38.5966243,"long":141.0417896,"status":0.0,"note":null,"address":"大崎市田尻北牧目字新堀１１番地８","row_num":3745},{"area_id":17,"name":"大柳商店東側市道","lat":38.618049,"long":141.057294,"status":0.0,"note":null,"address":"大崎市田尻沼部字貝ノ堀地内","row_num":3746},{"area_id":17,"name":"谷地中公会堂前","lat":38.5728638,"long":141.0595265,"status":0.0,"note":null,"address":"大崎市田尻大沢字南谷地中地内","row_num":3747},{"area_id":17,"name":"個人宅ブロック塀外側","lat":38.6045498,"long":141.0785049,"status":0.0,"note":null,"address":"大崎市田尻小塩字日影浦２番地","row_num":3748},{"area_id":17,"name":"個人宅ブロック塀外側","lat":38.6065883,"long":141.0551294,"status":0.0,"note":null,"address":"大崎市田尻沼部字峯崎２番地２","row_num":3749},{"area_id":17,"name":"㈱明王化成東側市道沿い","lat":38.5967792,"long":141.0744364,"status":0.0,"note":null,"address":"大崎市田尻小塩字五代東地内","row_num":3750},{"area_id":17,"name":"個人宅ブロック塀外側","lat":38.5654217,"long":141.063985,"status":0.0,"note":null,"address":"大崎市田尻北小牛田字切替下４２番地","row_num":3751},{"area_id":17,"name":"北小牛田日枝神社前市道沿い","lat":38.5646361,"long":141.076141,"status":0.0,"note":null,"address":"大崎市田尻北小牛田字山王６７番地","row_num":3752},{"area_id":17,"name":"個人宅ブロック塀外側","lat":38.5616281,"long":141.0845641,"status":0.0,"note":null,"address":"大崎市田尻北小牛田字荒台５２番地１","row_num":3753},{"area_id":17,"name":"個人宅生垣前","lat":38.5838604,"long":141.0663764,"status":0.0,"note":null,"address":"大崎市田尻大沢字百々一２９番地１","row_num":3754},{"area_id":17,"name":"百々公会堂前市道沿","lat":38.5808365,"long":141.0709759,"status":0.0,"note":null,"address":"大崎市田尻大沢字八幡下地内","row_num":3755},{"area_id":17,"name":"個人宅ブロック塀外側","lat":38.5856713,"long":141.0807776,"status":0.0,"note":null,"address":"大崎市田尻大沢字夫ケ入５番地２","row_num":3756},{"area_id":17,"name":"上高野生活センター向　掲示板隣","lat":38.6137752,"long":141.047917,"status":0.0,"note":null,"address":"大崎市田尻沼部字寺川戸地内","row_num":3757},{"area_id":17,"name":"田尻総合支所木戸倉庫前","lat":38.616713,"long":141.0415508,"status":0.0,"note":null,"address":"大崎市田尻沼部字木戸３１番地４","row_num":3758},{"area_id":17,"name":"個人所有畑地内","lat":38.6137147,"long":141.0356691,"status":0.0,"note":null,"address":"大崎市田尻沼部字五輪１５２番地１","row_num":3759},{"area_id":17,"name":"市道敷地内","lat":38.6216832,"long":141.0364511,"status":0.0,"note":null,"address":"大崎市田尻沼部字北山地内","row_num":3760},{"area_id":17,"name":"曲田公会堂フェンス","lat":38.6056172,"long":141.0976231,"status":0.0,"note":null,"address":"大崎市田尻大貫字北新屋敷地内","row_num":3761},{"area_id":17,"name":"大貫土地改良区事務所南側","lat":38.6074032,"long":141.1082649,"status":0.0,"note":null,"address":"大崎市田尻大貫字上長根４番地３","row_num":3762},{"area_id":17,"name":"個人宅敷地内","lat":38.6062358,"long":141.1128344,"status":0.0,"note":null,"address":"大崎市田尻大貫字上長根21番地11","row_num":3763},{"area_id":17,"name":"個人所有敷地内","lat":38.607445,"long":141.1276262,"status":0.0,"note":null,"address":"大崎市田尻大貫字四島２５番地２","row_num":3764},{"area_id":17,"name":"宿構造改善センター前","lat":38.5972132,"long":141.1198437,"status":0.0,"note":null,"address":"大崎市田尻大貫字宿上屋敷４８番地２","row_num":3765},{"area_id":17,"name":"舞岳生活センター前","lat":38.6118468,"long":141.1139905,"status":0.0,"note":null,"address":"田尻蕪栗字舞岳２３番地２","row_num":3766},{"area_id":17,"name":"元赤坂バス停留所前市道沿い","lat":38.6190296,"long":141.0770314,"status":0.0,"note":null,"address":"大崎市田尻蕪栗字清水５８番地３","row_num":3767},{"area_id":17,"name":"個人宅敷地内","lat":38.6201337,"long":141.0959806,"status":0.0,"note":null,"address":"大崎市田尻蕪栗字小沢３６番地１１","row_num":3768},{"area_id":17,"name":"伸萠第２集会所西側","lat":38.6240454,"long":141.0945338,"status":0.0,"note":null,"address":"大崎市田尻蕪栗字伸萠中地内","row_num":3769},{"area_id":17,"name":"個人宅前市道敷地内","lat":38.6223486,"long":141.0880205,"status":0.0,"note":null,"address":"大崎市田尻蕪栗字新山地内","row_num":3770},{"area_id":17,"name":"長沢生活センター前","lat":38.6244556,"long":141.0757568,"status":0.0,"note":null,"address":"大崎市田尻蕪栗字長沢３４番地","row_num":3771},{"area_id":34,"name":"色麻町役場前","lat":38.1282576,"long":140.9048459,"status":1.0,"note":null,"address":"色麻町四𥧄字北谷地41番地","row_num":4824},{"area_id":34,"name":"個人宅地（ブロック塀）","lat":38.5479795,"long":140.8492409,"status":0.0,"note":null,"address":"色麻町四𥧄字町12番地","row_num":4825},{"area_id":34,"name":"個人宅地（ブロック塀）","lat":38.5479795,"long":140.8492409,"status":1.0,"note":null,"address":"色麻町四𥧄字町63番地2","row_num":4826},{"area_id":34,"name":"上郷集会所前","lat":38.5408169,"long":140.8382739,"status":0.0,"note":null,"address":"色麻町四𥧄字新宿二番1番地32","row_num":4827},{"area_id":34,"name":"個人宅地後","lat":38.5444051,"long":140.835304,"status":0.0,"note":null,"address":"色麻町四𥧄字新徳明58番地2","row_num":4828},{"area_id":34,"name":"下黒沢集会所前","lat":38.5560531,"long":140.8386305,"status":1.0,"note":null,"address":"色麻町黒沢字寺浦5番地6","row_num":4829},{"area_id":34,"name":"個人宅地（ブロック塀）","lat":38.5509332,"long":140.8297554,"status":1.0,"note":null,"address":"色麻町黒沢字天神堂13番地60","row_num":4830},{"area_id":34,"name":"下高城多目的研修集会施設前","lat":38.5620469,"long":140.8418452,"status":0.0,"note":null,"address":"色麻町高城字宮14番地1","row_num":4831},{"area_id":34,"name":"個人宅地（ブロック塀）","lat":38.5675812,"long":140.8427453,"status":0.0,"note":null,"address":"色麻町高城字新谷地2番地1","row_num":4832},{"area_id":34,"name":"町営住宅（2号棟フェンス）","lat":38.5467548,"long":140.8541715,"status":0.0,"note":null,"address":"色麻町四𥧄字二反田43番地","row_num":4833},{"area_id":34,"name":"個人宅地（ブロック塀）","lat":38.5321031,"long":140.8572641,"status":1.0,"note":null,"address":"色麻町一の関字西原前40番地2","row_num":4834},{"area_id":34,"name":"個人宅地（ブロック塀）","lat":38.5372911,"long":140.8541677,"status":1.0,"note":null,"address":"色麻町一の関字台通15番地","row_num":4835},{"area_id":34,"name":"道命集会所前","lat":38.5284811,"long":140.8435997,"status":0.0,"note":null,"address":"色麻町四𥧄字道命南64番地1","row_num":4836},{"area_id":34,"name":"袋生活共同利用センター前","lat":38.5394619,"long":140.8707411,"status":0.0,"note":null,"address":"色麻町四𥧄字新袋111番地","row_num":4837},{"area_id":34,"name":"個人宅地（ブロック塀）","lat":38.5479795,"long":140.8492409,"status":1.0,"note":null,"address":"色麻町四𥧄字向町85番地","row_num":4838},{"area_id":34,"name":"個人宅地（ブロック塀）","lat":38.507903,"long":140.8670288,"status":1.0,"note":null,"address":"色麻町大字上本町62番地","row_num":4839},{"area_id":34,"name":"個人宅地（ブロック塀）","lat":38.5135039,"long":140.8654666,"status":1.0,"note":null,"address":"色麻町大字下新町18番地","row_num":4840},{"area_id":34,"name":"個人宅地（ブロック塀）","lat":38.5239968,"long":140.8603552,"status":1.0,"note":null,"address":"色麻町四𥧄字寺沢16番地1","row_num":4841},{"area_id":34,"name":"加美よつば農協大村倉庫前","lat":38.5174095,"long":140.8620103,"status":1.0,"note":null,"address":"色麻町大字上新町164番地","row_num":4842},{"area_id":34,"name":"個人宅地","lat":38.5327321,"long":140.8234127,"status":0.0,"note":null,"address":"色麻町王城寺字弘台堂51番地","row_num":4843},{"area_id":34,"name":"伝八集会所前","lat":38.5200108,"long":140.8326772,"status":0.0,"note":null,"address":"色麻町四𥧄字伝八56番地2","row_num":4844},{"area_id":34,"name":"個人宅地（ブロック塀）","lat":38.5524254,"long":140.8245169,"status":1.0,"note":null,"address":"色麻町黒沢字上舘27番地","row_num":4845},{"area_id":34,"name":"個人宅地（ブロック塀）","lat":38.5492232,"long":140.8186731,"status":0.0,"note":null,"address":"色麻町黒沢字切付3番地14","row_num":4846},{"area_id":34,"name":"鷹巣集落センター前","lat":38.5462013,"long":140.8045822,"status":0.0,"note":null,"address":"色麻町志津字鷹巣屋敷岸117番地1","row_num":4847},{"area_id":34,"name":"上高城集落センター前","lat":38.5655281,"long":140.8260751,"status":0.0,"note":null,"address":"色麻町高城字上ノ原34番地6","row_num":4848},{"area_id":34,"name":"吉田集会所前","lat":38.5582011,"long":140.8311009,"status":0.0,"note":null,"address":"色麻町吉田字内屋敷33番地1","row_num":4849},{"area_id":34,"name":"志津多目的研修集会施設前","lat":38.5539743,"long":140.815672,"status":0.0,"note":null,"address":"色麻町志津字前原41番地3","row_num":4850},{"area_id":34,"name":"高根農業担い手センター前","lat":38.5606686,"long":140.8038702,"status":0.0,"note":null,"address":"色麻町高根字新馬場60番地","row_num":4851},{"area_id":34,"name":"個人宅地（ブロック塀）","lat":38.5615521,"long":140.8173499,"status":0.0,"note":null,"address":"色麻町清水字川端南6番地","row_num":4852},{"area_id":34,"name":"平沢農業担い手センター前","lat":38.5512717,"long":140.7885728,"status":0.0,"note":null,"address":"色麻町平沢字新谷地田124番地","row_num":4853},{"area_id":34,"name":"小栗山集会所前","lat":38.5337727,"long":140.7821515,"status":0.0,"note":null,"address":"色麻町小栗山字新下原106番地2","row_num":4854},{"area_id":35,"name":"三浦材木店自宅板塀","lat":38.5758147,"long":140.8480606,"status":1.0,"note":null,"address":"加美町羽場字山鳥２７３番地","row_num":4855},{"area_id":35,"name":"個人宅ブロック塀","lat":38.5751495,"long":140.8566266,"status":1.0,"note":null,"address":"加美町字西町５４番地１","row_num":4856},{"area_id":35,"name":"個人宅ブロック塀","lat":38.5825382,"long":140.854178,"status":0.0,"note":null,"address":"加美町城生字前田１５番地２","row_num":4857},{"area_id":35,"name":"加美町福祉会館前フェンス","lat":38.5709127,"long":140.8543242,"status":1.0,"note":null,"address":"加美町字西田四番７番地１","row_num":4858},{"area_id":35,"name":"個人管理地","lat":38.5745365,"long":140.851233,"status":1.0,"note":null,"address":"加美町字西田二番１８番地８","row_num":4859},{"area_id":35,"name":"羽場集会所西側","lat":38.5834099,"long":140.8462172,"status":0.0,"note":null,"address":"加美町羽場字屋敷５１番地１","row_num":4860},{"area_id":35,"name":"個人宅ブロック塀","lat":38.5825382,"long":140.854178,"status":0.0,"note":null,"address":"加美町城生字前田２０番地１","row_num":4861},{"area_id":35,"name":"個人宅ブロック塀","lat":38.5719973,"long":140.8619973,"status":1.0,"note":null,"address":"加美町字岡町３１番地１","row_num":4862},{"area_id":35,"name":"ＪＡよつば館西北側","lat":38.5700404,"long":140.8598137,"status":1.0,"note":null,"address":"加美町字町裏１８０番地２","row_num":4863},{"area_id":35,"name":"山和酒造店「寅や」前","lat":38.5708219,"long":140.8567108,"status":1.0,"note":null,"address":"加美町字南町１０９番地１","row_num":4864},{"area_id":35,"name":"中新田福祉センタ－北側フェンス","lat":38.5691805,"long":140.8619601,"status":1.0,"note":null,"address":"加美町字町裏３２０番地","row_num":4865},{"area_id":35,"name":"旧中新田公民館跡地西側花壇","lat":38.5684357,"long":140.8655501,"status":1.0,"note":null,"address":"加美町字一本杉１０５番地","row_num":4866},{"area_id":35,"name":"個人宅ブロック塀","lat":38.5634496,"long":140.8674664,"status":1.0,"note":null,"address":"加美町字一本杉５７１番地１","row_num":4867},{"area_id":35,"name":"個人宅ブロック塀","lat":38.5655968,"long":140.8597391,"status":1.0,"note":null,"address":"加美町字町裏１０２番地１","row_num":4868},{"area_id":35,"name":"ハリストス正教会フェンス","lat":38.5663097,"long":140.8566872,"status":1.0,"note":null,"address":"加美町字南町１７４番地","row_num":4869},{"area_id":35,"name":"旧中村印刷所駐車場前","lat":38.568916,"long":140.8578093,"status":1.0,"note":null,"address":"加美町字南町４５番地","row_num":4870},{"area_id":35,"name":"後藤理容店駐車場西側フェンス","lat":38.560778,"long":140.8583167,"status":1.0,"note":null,"address":"加美町字薬師堂一番２番地２","row_num":4871},{"area_id":35,"name":"個人宅板塀","lat":38.5640644,"long":140.8581112,"status":1.0,"note":null,"address":"加美町字赤塚３７番地","row_num":4872},{"area_id":35,"name":"旧勤労者福祉研修センター","lat":38.564955,"long":140.8570386,"status":1.0,"note":null,"address":"加美町字百目木一番３８番地４","row_num":4873},{"area_id":35,"name":"中新田高校管理地フェンス","lat":38.5639653,"long":140.8554633,"status":1.0,"note":null,"address":"加美町字旧舘一番８番地","row_num":4874},{"area_id":35,"name":"鳴瀬地区公民館西側フェンス","lat":38.5564855,"long":140.8797081,"status":0.0,"note":null,"address":"加美町四日市場字舟橋２４３番地","row_num":4875},{"area_id":35,"name":"個人管理地","lat":38.5501528,"long":140.8770207,"status":0.0,"note":null,"address":"加美町四日市場字岡ノ内５３番地２","row_num":4876},{"area_id":35,"name":"四日市場コミュニティセンター敷地内","lat":38.5529794,"long":140.8708004,"status":0.0,"note":null,"address":"加美町四日市場字屋敷８０番地","row_num":4877},{"area_id":35,"name":"個人管理地","lat":38.5509795,"long":140.869716,"status":0.0,"note":null,"address":"加美町四日市場字北元宿２６番地","row_num":4878},{"area_id":35,"name":"加美町交流センター敷地内北側","lat":38.5491753,"long":140.8787744,"status":0.0,"note":null,"address":"加美町下新田字松木３番地","row_num":4879},{"area_id":35,"name":"個人宅ブロック塀","lat":38.5440173,"long":140.8817938,"status":0.0,"note":null,"address":"加美町下新田字原田１３番地","row_num":4880},{"area_id":35,"name":"個人宅ブロック塀","lat":38.5387875,"long":140.8857746,"status":0.0,"note":null,"address":"加美町下新田字新田２５番地","row_num":4881},{"area_id":35,"name":"下狼塚林材振興センター敷地内","lat":38.5688906,"long":140.8824596,"status":0.0,"note":null,"address":"加美町下狼塚字田中３４番地１","row_num":4882},{"area_id":35,"name":"個人宅地","lat":38.5619242,"long":140.8980828,"status":0.0,"note":null,"address":"加美町平柳字川南１０２番地１","row_num":4883},{"area_id":35,"name":"個人宅ブロック塀","lat":38.5647264,"long":140.8982047,"status":0.0,"note":null,"address":"加美町平柳字谷地２３４番地２","row_num":4884},{"area_id":35,"name":"個人宅ブロック塀","lat":38.5552456,"long":140.8946243,"status":0.0,"note":null,"address":"加美町雑式目字大町２２番地１","row_num":4885},{"area_id":35,"name":"個人宅ブロック塀","lat":38.5850609,"long":140.8595334,"status":0.0,"note":null,"address":"加美町菜切谷字屋敷１９番地","row_num":4886},{"area_id":35,"name":"個人宅ブロック塀","lat":38.5830984,"long":140.8720638,"status":0.0,"note":null,"address":"加美町上狼塚字道行檀３０番地","row_num":4887},{"area_id":35,"name":"個人宅ブロック塀","lat":38.5777983,"long":140.8707952,"status":0.0,"note":null,"address":"加美町上狼塚字東宅地辺２番地","row_num":4888},{"area_id":35,"name":"坂元商店旧店舗","lat":38.5905276,"long":140.8610459,"status":0.0,"note":null,"address":"加美町菜切谷字堤下３番地２","row_num":4889},{"area_id":35,"name":"個人宅地","lat":38.5948158,"long":140.8605614,"status":0.0,"note":null,"address":"加美町菜切谷字原６番地４","row_num":4890},{"area_id":35,"name":"個人宅ブロック塀","lat":38.6111467,"long":140.8573675,"status":0.0,"note":null,"address":"加美町下多田川字小山前３番地","row_num":4891},{"area_id":35,"name":"個人宅ブロック塀","lat":38.601224,"long":140.8682814,"status":0.0,"note":null,"address":"加美町下多田川字万太前１番地","row_num":4892},{"area_id":35,"name":"個人宅ブロック塀","lat":38.5916518,"long":140.863672,"status":0.0,"note":null,"address":"加美町上狼塚字中北原４番地２","row_num":4893},{"area_id":35,"name":"旧伊藤商店様北側","lat":38.5945565,"long":140.8639818,"status":0.0,"note":null,"address":"加美町上狼塚字東北原１２番地１１３","row_num":4894},{"area_id":35,"name":"個人宅ブロック塀","lat":38.6276752,"long":140.8344546,"status":0.0,"note":null,"address":"加美町上多田川字堂前９番地３","row_num":4895},{"area_id":35,"name":"旧上多田川小学校入口","lat":38.6372328,"long":140.8300722,"status":0.0,"note":null,"address":"加美町上多田川字東田北４番地４","row_num":4896},{"area_id":35,"name":"旧上多田川上集会所向かい空地","lat":38.646924,"long":140.8082109,"status":0.0,"note":null,"address":"加美町上多田川字稲子沢大畑１番地","row_num":4897},{"area_id":35,"name":"個人宅ブロック塀","lat":38.6173814,"long":140.8154907,"status":0.0,"note":null,"address":"加美町下多田川字火渡三番２９番地２","row_num":4898},{"area_id":35,"name":"青木原集会所前","lat":38.6304958,"long":140.818976,"status":0.0,"note":null,"address":"加美町下多田川字道１４７番地４","row_num":4899},{"area_id":35,"name":"下原レインボービレッジ南側町有地","lat":38.5748945,"long":140.7853212,"status":0.0,"note":null,"address":"加美町字下原５５番地２４","row_num":4900},{"area_id":35,"name":"個人宅東側ゴミ集積所","lat":38.5782231,"long":140.7739302,"status":1.0,"note":null,"address":"加美町字新小路１５０番地９","row_num":4901},{"area_id":35,"name":"個人宅ブロック塀","lat":38.5766383,"long":140.777707,"status":1.0,"note":null,"address":"加美町字町屋敷二番２１番地","row_num":4902},{"area_id":35,"name":"個人宅ブロック塀","lat":38.5745952,"long":140.7807795,"status":1.0,"note":null,"address":"加美町字町屋敷二番４８番地","row_num":4903},{"area_id":35,"name":"龍川寺ブロック塀","lat":38.5721475,"long":140.7822678,"status":1.0,"note":null,"address":"加美町字町屋敷３０番地３","row_num":4904},{"area_id":35,"name":"ファミリーマート小野田神山西店東側向かい","lat":38.572041,"long":140.7880731,"status":1.0,"note":null,"address":"加美町字神山西９番地５","row_num":4905},{"area_id":35,"name":"個人宅ブロック塀","lat":38.5788151,"long":140.7648993,"status":1.0,"note":null,"address":"加美町字南小路一番５９番地","row_num":4906},{"area_id":35,"name":"雷多目的集会所前","lat":38.5913729,"long":140.7642722,"status":0.0,"note":null,"address":"加美町字新南雷屋敷４４番地","row_num":4907},{"area_id":35,"name":"個人宅ブロック塀","lat":38.5652966,"long":140.7994378,"status":0.0,"note":null,"address":"加美町月崎字宿１３番地","row_num":4908},{"area_id":35,"name":"個人宅ブロック塀","lat":38.5767095,"long":140.8186994,"status":0.0,"note":null,"address":"加美町字下野目久保田北１番地６","row_num":4909},{"area_id":35,"name":"個人宅向かい作業場前","lat":38.5772543,"long":140.8259351,"status":1.0,"note":null,"address":"加美町字下野目下久保南５番地２","row_num":4910},{"area_id":35,"name":"個人宅西側","lat":38.5691917,"long":140.8326392,"status":0.0,"note":null,"address":"加美町字中嶋大下一番１番地１","row_num":4911},{"area_id":35,"name":"中嶋多目的集会所フェンス","lat":38.5665656,"long":140.8246915,"status":0.0,"note":null,"address":"加美町字中嶋南原畑１９番地１","row_num":4912},{"area_id":35,"name":"個人宅ブロック塀（㈱浅野石油東側）","lat":38.5860859,"long":140.7476227,"status":1.0,"note":null,"address":"加美町字原町南西屋敷７３番地","row_num":4913},{"area_id":35,"name":"個人宅垣根前（薬莱山入口東）","lat":38.5855523,"long":140.7428937,"status":1.0,"note":null,"address":"加美町字原町南西屋敷１２番地１","row_num":4914},{"area_id":35,"name":"個人宅ブロック塀","lat":38.5875743,"long":140.7342442,"status":0.0,"note":null,"address":"加美町字味ヶ袋大善檀１番地２","row_num":4915},{"area_id":35,"name":"消防ポンプ積載車格納庫北側向かい（第5分団第2部第1班　西上野目班）","lat":38.5903504,"long":140.7250196,"status":0.0,"note":null,"address":"加美町字上野目梶賀沢","row_num":4916},{"area_id":35,"name":"個人宅フェンス","lat":38.5933243,"long":140.7213111,"status":0.0,"note":null,"address":"加美町字上野目指橋４番地３","row_num":4917},{"area_id":35,"name":"芋沢多目的集会所前","lat":38.5920406,"long":140.7092668,"status":0.0,"note":null,"address":"加美町字芋沢矢坪３番地２","row_num":4918},{"area_id":35,"name":"個人宅ブロック塀","lat":38.5971537,"long":140.7134611,"status":0.0,"note":null,"address":"加美町字小瀬屋敷２１番地","row_num":4919},{"area_id":35,"name":"個人宅前","lat":38.6027524,"long":140.7216756,"status":0.0,"note":null,"address":"加美町字原庄右衛門３５番地","row_num":4920},{"area_id":35,"name":"個人宅ブロック塀","lat":38.5961825,"long":140.7343654,"status":0.0,"note":null,"address":"加美町字長清水北２７番地","row_num":4921},{"area_id":35,"name":"町有地（個人宅西側向かい）","lat":38.6050447,"long":140.6814263,"status":0.0,"note":null,"address":"加美町字門沢浦一番２９番地４","row_num":4922},{"area_id":35,"name":"個人宅ブロック塀","lat":38.6031811,"long":140.6787955,"status":0.0,"note":null,"address":"加美町字門沢宿７番地３","row_num":4923},{"area_id":35,"name":"下宇津野バス停東畑","lat":38.5874463,"long":140.6527936,"status":0.0,"note":null,"address":"加美町字漆沢宇津野１７番地","row_num":4924},{"area_id":35,"name":"個人管理地","lat":38.576737,"long":140.6470229,"status":0.0,"note":null,"address":"加美町字漆沢宿２０番地１","row_num":4925},{"area_id":35,"name":"個人宅ブロック塀","lat":38.5653201,"long":140.7445676,"status":0.0,"note":null,"address":"加美町字鹿原谷地袋９番地１","row_num":4926},{"area_id":35,"name":"個人宅前","lat":38.5661177,"long":140.7311771,"status":0.0,"note":null,"address":"加美町字鹿原中村８番地４","row_num":4927},{"area_id":35,"name":"個人宅ブロック塀","lat":38.5578017,"long":140.7367253,"status":0.0,"note":null,"address":"加美町字鹿原中野原５番地","row_num":4928},{"area_id":35,"name":"個人宅入口西側","lat":38.6176091,"long":140.7291187,"status":0.0,"note":null,"address":"加美町宮崎字赤坂原９番地８９","row_num":4929},{"area_id":35,"name":"個人宅ブロック塀","lat":38.6112264,"long":140.7511078,"status":0.0,"note":null,"address":"加美町宮崎字町６５番地","row_num":4930},{"area_id":35,"name":"個人宅板塀","lat":38.6102958,"long":140.7568532,"status":0.0,"note":null,"address":"加美町宮崎字町１９番地","row_num":4931},{"area_id":35,"name":"個人宅ブロック塀","lat":38.60963,"long":140.7621309,"status":0.0,"note":null,"address":"加美町宮崎字東町７８番地３","row_num":4932},{"area_id":35,"name":"宮崎生涯学習センタ－北側フェンス","lat":38.6129363,"long":140.7557392,"status":0.0,"note":null,"address":"加美町宮崎字屋敷七番４５番地１","row_num":4933},{"area_id":35,"name":"宮崎支所前","lat":38.614508,"long":140.7580881,"status":0.0,"note":null,"address":"加美町宮崎字屋敷六番１６番地","row_num":4934},{"area_id":35,"name":"西川北集会所東側","lat":38.6213119,"long":140.7369091,"status":0.0,"note":null,"address":"加美町宮崎字物置二番９番地","row_num":4935},{"area_id":35,"name":"個人宅東側向かい","lat":38.6201054,"long":140.7681626,"status":0.0,"note":null,"address":"加美町宮崎字道城前三番１番地６","row_num":4936},{"area_id":35,"name":"個人宅北側フェンス（柳沢広報掲示板隣）","lat":38.6163208,"long":140.7770831,"status":0.0,"note":null,"address":"加美町柳沢字十文辻２番地","row_num":4937},{"area_id":35,"name":"個人宅入口北側（北川内広報掲示板隣）","lat":38.6505407,"long":140.7520413,"status":0.0,"note":null,"address":"加美町北川内字前田東地内","row_num":4938},{"area_id":35,"name":"北川内集会所前","lat":38.6452253,"long":140.7561147,"status":0.0,"note":null,"address":"加美町北川内字藁野１２番地","row_num":4939},{"area_id":35,"name":"個人宅北側向い","lat":38.6263787,"long":140.6980056,"status":0.0,"note":null,"address":"加美町宮崎字浦一番１１２番地４","row_num":4940},{"area_id":35,"name":"個人宅北側向い","lat":38.6339867,"long":140.7137905,"status":0.0,"note":null,"address":"加美町宮崎字切込一番４６番地６","row_num":4941},{"area_id":35,"name":"旧旭小学校南東側フェンス","lat":38.6283271,"long":140.7106996,"status":0.0,"note":null,"address":"加美町宮崎字旭二番１番地","row_num":4942},{"area_id":35,"name":"西原集会所西側ゴミ集積所付近","lat":38.6240637,"long":140.7234531,"status":0.0,"note":null,"address":"加美町宮崎字西原一番６２番地","row_num":4943},{"area_id":35,"name":"個人宅道路沿い東側","lat":38.6180127,"long":140.7031988,"status":0.0,"note":null,"address":"加美町宮崎字永志田三番１７９番地","row_num":4944},{"area_id":35,"name":"個人宅入口西側（寒風沢広報掲示板隣）","lat":38.6210155,"long":140.6765864,"status":0.0,"note":null,"address":"加美町宮崎字二ツ石畑１５番地","row_num":4945},{"area_id":35,"name":"個人宅ブロック塀","lat":38.5993645,"long":140.7733892,"status":0.0,"note":null,"address":"加美町谷地森字原畑３２番地１","row_num":4946},{"area_id":35,"name":"個人宅ブロック塀","lat":38.6023401,"long":140.789281,"status":0.0,"note":null,"address":"加美町谷地森字中田１５８番地","row_num":4947},{"area_id":35,"name":"根岸集会所北側","lat":38.6056802,"long":140.7915561,"status":0.0,"note":null,"address":"加美町谷地森字根岸前２１番地","row_num":4948},{"area_id":35,"name":"個人宅ブロック塀","lat":38.5874609,"long":140.7868248,"status":0.0,"note":null,"address":"加美町小泉字町屋敷６４番地","row_num":4949},{"area_id":35,"name":"個人宅ブロック塀","lat":38.5978675,"long":140.7996886,"status":0.0,"note":null,"address":"加美町鳥嶋字寺前１番地","row_num":4950},{"area_id":35,"name":"賀美石小学校フェンス","lat":38.5912666,"long":140.8029491,"status":0.0,"note":null,"address":"加美町鳥屋ケ崎字神明１２７番地","row_num":4951},{"area_id":35,"name":"個人宅前","lat":38.5926934,"long":140.8161303,"status":0.0,"note":null,"address":"加美町孫沢字屋敷３７番地","row_num":4952},{"area_id":35,"name":"個人宅ブロック塀","lat":38.5846202,"long":140.8116506,"status":0.0,"note":null,"address":"加美町君ケ袋字水押北１４番地１","row_num":4953},{"area_id":35,"name":"個人宅東側","lat":38.585049,"long":140.8218896,"status":0.0,"note":null,"address":"加美町沼ケ袋字妙見２４番地","row_num":4954},{"area_id":35,"name":"米泉集会所西側","lat":38.5871205,"long":140.8322029,"status":0.0,"note":null,"address":"加美町米泉字的場１４２番地２","row_num":4955},{"area_id":35,"name":"㈱山宮資材置き場前花壇","lat":38.5905988,"long":140.8262526,"status":1.0,"note":null,"address":"加美町米泉字西野８０番地３","row_num":4956},{"area_id":35,"name":"個人宅ブロック塀","lat":38.5794008,"long":140.8324317,"status":1.0,"note":null,"address":"加美町米泉字坂ノ上１０番地","row_num":4957},{"area_id":35,"name":"羽場枝線Ｙ字路町道西側（㈲大進産業北側）","lat":38.5870104,"long":140.8428541,"status":0.0,"note":null,"address":"加美町米泉字夷地内","row_num":4958},{"area_id":36,"name":"三十軒・九軒多目的集会所","lat":38.548742,"long":141.0692954,"status":1.0,"note":null,"address":"涌谷町字三十軒屋敷９番地","row_num":4959},{"area_id":36,"name":"九軒集会所","lat":38.5448839,"long":141.0848042,"status":1.0,"note":null,"address":"涌谷町字五反田１８８番地１","row_num":4960},{"area_id":36,"name":"丸石ストア向","lat":38.5483481,"long":141.1053388,"status":1.0,"note":null,"address":"涌谷町字一本柳２番地５先","row_num":4961},{"area_id":36,"name":"二の袋生活センター","lat":38.5528835,"long":141.1022093,"status":1.0,"note":null,"address":"涌谷町字中島乙２１番地","row_num":4962},{"area_id":36,"name":"新丁頭公会堂","lat":38.5535719,"long":141.1098262,"status":1.0,"note":null,"address":"涌谷町字新中島乙９４番地１","row_num":4963},{"area_id":36,"name":"大崎広域東部事業所交差点","lat":38.542569,"long":141.0954181,"status":1.0,"note":null,"address":"涌谷町字関谷沖名１９３番地１","row_num":4964},{"area_id":36,"name":"淡島住宅入口","lat":38.5494026,"long":141.1025953,"status":1.0,"note":null,"address":"涌谷町字一本柳５３番地","row_num":4965},{"area_id":36,"name":"一本柳住宅入口","lat":38.5485831,"long":141.1048853,"status":1.0,"note":null,"address":"涌谷町字一本柳１０４番地","row_num":4966},{"area_id":36,"name":"涌谷町勤労福祉センター東側","lat":38.5425171,"long":141.1263613,"status":1.0,"note":null,"address":"涌谷町字立町４番地","row_num":4967},{"area_id":36,"name":"涌谷幼稚園前","lat":38.5471692,"long":141.118824,"status":1.0,"note":null,"address":"涌谷町字蔵人沖名２４２番地","row_num":4968},{"area_id":36,"name":"田沼町停留所隣","lat":38.5492629,"long":141.1248627,"status":1.0,"note":null,"address":"涌谷町字田沼町３９番地先","row_num":4969},{"area_id":36,"name":"涌谷町勤労福祉センター西側","lat":38.5425171,"long":141.1263613,"status":1.0,"note":null,"address":"涌谷町字立町４番地","row_num":4970},{"area_id":36,"name":"薬王堂脇","lat":38.5431682,"long":141.1203203,"status":1.0,"note":null,"address":"涌谷町字六軒町裏６８番地２先","row_num":4971},{"area_id":36,"name":"六軒町裏集会所","lat":38.5443994,"long":141.1219569,"status":1.0,"note":null,"address":"涌谷町字六軒町裏８４番地２","row_num":4972},{"area_id":36,"name":"涌谷第一小学校駐車場","lat":38.5436741,"long":141.1284973,"status":1.0,"note":null,"address":"涌谷町字刈萱町１１番地","row_num":4973},{"area_id":36,"name":"涌谷町役場庁舎前","lat":38.5397004,"long":141.1282093,"status":1.0,"note":null,"address":"涌谷町字新町裏１５３番地２","row_num":4974},{"area_id":36,"name":"涌谷町役場庁舎西側","lat":38.5397004,"long":141.1282093,"status":1.0,"note":null,"address":"涌谷町字新町裏１５３番地２","row_num":4975},{"area_id":36,"name":"ひだまり広場","lat":38.5412181,"long":141.1275305,"status":1.0,"note":null,"address":"涌谷町字新町４０番地","row_num":4976},{"area_id":36,"name":"東北アルプス工場前","lat":38.5380482,"long":141.1201961,"status":1.0,"note":null,"address":"涌谷町字渋江１７５番地","row_num":4977},{"area_id":36,"name":"渋江西入口","lat":38.5380482,"long":141.1201961,"status":1.0,"note":null,"address":"涌谷町字渋江４０番地先","row_num":4978},{"area_id":36,"name":"ファミリーマート涌谷渋江店先交差点","lat":38.5342298,"long":141.1223282,"status":1.0,"note":null,"address":"涌谷町字桑木荒３番地２先","row_num":4979},{"area_id":36,"name":"八雲児童館","lat":38.5404948,"long":141.1250555,"status":1.0,"note":null,"address":"涌谷町字新町７９番地","row_num":4980},{"area_id":36,"name":"鈴木建設作業場前","lat":38.5343781,"long":141.128455,"status":1.0,"note":null,"address":"涌谷町字田町裏２０１番地","row_num":4981},{"area_id":36,"name":"涌谷公民館","lat":38.5310718,"long":141.1324535,"status":1.0,"note":null,"address":"涌谷町字下道６９番地１","row_num":4982},{"area_id":36,"name":"市道集会所","lat":38.5270939,"long":141.1507308,"status":1.0,"note":null,"address":"涌谷町字烏鴉１番地１","row_num":4983},{"area_id":36,"name":"花勝山石坂集落センタ－","lat":38.5328391,"long":141.1755364,"status":1.0,"note":null,"address":"涌谷町字石坂道東一１８番地","row_num":4984},{"area_id":36,"name":"浦町集積所脇","lat":38.5368193,"long":141.1326135,"status":1.0,"note":null,"address":"涌谷町字浦町１番地１先","row_num":4985},{"area_id":36,"name":"安住商店前","lat":38.5368764,"long":141.1318424,"status":1.0,"note":null,"address":"涌谷町字長柄町４３番地１","row_num":4986},{"area_id":36,"name":"北上川下流河川事務所向","lat":38.5330275,"long":141.1274398,"status":1.0,"note":null,"address":"涌谷町字桑木荒１５８番地４","row_num":4987},{"area_id":36,"name":"のびのび広場","lat":38.5328158,"long":141.124478,"status":1.0,"note":null,"address":"涌谷町字桑木荒１２７番地７","row_num":4988},{"area_id":36,"name":"瀧不動入口交差点隣","lat":38.5331174,"long":141.1545899,"status":1.0,"note":null,"address":"涌谷町涌谷字千間江441番地4先","row_num":4989},{"area_id":36,"name":"高橋商店脇","lat":38.5420827,"long":141.1557512,"status":1.0,"note":null,"address":"涌谷町涌谷字追戸一１５番地1","row_num":4990},{"area_id":36,"name":"瀧の沢生活センター","lat":38.5412181,"long":141.1275305,"status":1.0,"note":null,"address":"涌谷町涌谷字新滝ノ沢22番地1","row_num":4991},{"area_id":36,"name":"月山ふれあいセンター入口","lat":38.5270891,"long":141.1720209,"status":1.0,"note":null,"address":"涌谷町小塚字高田３２番地２","row_num":4992},{"area_id":36,"name":"佐藤商店西側","lat":38.5320962,"long":141.1755715,"status":1.0,"note":null,"address":"涌谷町猪岡短台字酌子27番地2","row_num":4993},{"area_id":36,"name":"貝坂集積所付近","lat":38.5329286,"long":141.1742961,"status":1.0,"note":null,"address":"涌谷町小塚字権現田一１８番地３","row_num":4994},{"area_id":36,"name":"笠石山集積所付近","lat":38.5390077,"long":141.1796546,"status":1.0,"note":null,"address":"涌谷町小塚字笠石山３９番地先","row_num":4995},{"area_id":36,"name":"箟岳山登り口","lat":38.5465459,"long":141.1477005,"status":1.0,"note":null,"address":"涌谷町涌谷字内作田二１９番地１３","row_num":4996},{"area_id":36,"name":"日向公会堂","lat":38.5439177,"long":141.1375188,"status":1.0,"note":null,"address":"涌谷町涌谷字日向町５５番地","row_num":4997},{"area_id":36,"name":"中地区コミュニティセンター","lat":38.5397632,"long":141.1392319,"status":1.0,"note":null,"address":"涌谷町涌谷字新下町浦１８５番地","row_num":4998},{"area_id":36,"name":"黄金地区会館","lat":38.5520044,"long":141.1403179,"status":1.0,"note":null,"address":"涌谷町涌谷字黄金迫北２番地１","row_num":4999},{"area_id":36,"name":"ゆうらいふ","lat":38.5394152,"long":141.1411623,"status":1.0,"note":null,"address":"涌谷町涌谷字新下町浦１９２番地","row_num":5000},{"area_id":36,"name":"イオンＳＣ前交差点","lat":38.5350354,"long":141.1536059,"status":1.0,"note":null,"address":"涌谷町涌谷字鮫川４７番１地先","row_num":5001},{"area_id":36,"name":"涌谷町土地改良区入口","lat":38.5356338,"long":141.1450965,"status":1.0,"note":null,"address":"涌谷町涌谷字千間江５２番地先","row_num":5002},{"area_id":36,"name":"医療福祉センター","lat":38.5392396,"long":141.1494637,"status":1.0,"note":null,"address":"涌谷町涌谷字中江南２７８番地","row_num":5003},{"area_id":36,"name":"上谷地部落共同文化センター","lat":38.5552258,"long":141.1029405,"status":1.0,"note":null,"address":"涌谷町涌谷字上谷地九１２２番地","row_num":5004},{"area_id":36,"name":"上谷地入口（上郡）","lat":38.5557662,"long":141.0963421,"status":1.0,"note":null,"address":"涌谷町涌谷字上谷地六２３番地３","row_num":5005},{"area_id":36,"name":"上地区生活センター","lat":38.5671823,"long":141.1004361,"status":1.0,"note":null,"address":"涌谷町上郡字沼頭６２番地５","row_num":5006},{"area_id":36,"name":"涌谷町立さくらんぼこども園入口","lat":38.5622542,"long":141.1147678,"status":1.0,"note":null,"address":"涌谷町上郡字永根１番地２","row_num":5007},{"area_id":36,"name":"上町下郡交差点付近","lat":38.5573869,"long":141.1254009,"status":1.0,"note":null,"address":"涌谷町涌谷字境沢一１番地１先","row_num":5008},{"area_id":36,"name":"上地区コミュニティセンター","lat":38.5715835,"long":141.1020708,"status":1.0,"note":null,"address":"涌谷町上郡字玉崎山５３番地１","row_num":5009},{"area_id":36,"name":"小牛田農林高校演習林入口","lat":38.5685553,"long":141.1194334,"status":1.0,"note":null,"address":"涌谷町下郡字台２３番地先","row_num":5010},{"area_id":36,"name":"わくや万葉苑前","lat":38.5746104,"long":141.1028556,"status":1.0,"note":null,"address":"涌谷町上郡字上郡沢２９番地２","row_num":5011},{"area_id":36,"name":"成澤公会堂","lat":38.5697506,"long":141.1531144,"status":1.0,"note":null,"address":"涌谷町成澤字古賀沢１６番地１","row_num":5012},{"area_id":36,"name":"菅ノ沢バス停留所前","lat":38.5729701,"long":141.1405277,"status":1.0,"note":null,"address":"涌谷町小里字菅ノ沢８番地","row_num":5013},{"area_id":36,"name":"旧小里幼稚園前","lat":38.5832504,"long":141.1529656,"status":1.0,"note":null,"address":"涌谷町小里字新一の坪８６番地","row_num":5014},{"area_id":36,"name":"右堂崎集積所脇","lat":38.5855231,"long":141.1486471,"status":1.0,"note":null,"address":"涌谷町小里字右堂崎１５番地８","row_num":5015},{"area_id":36,"name":"松崎公民館前","lat":38.5914121,"long":141.13819,"status":1.0,"note":null,"address":"涌谷町小里字大平２３番地２０","row_num":5016},{"area_id":36,"name":"脇会館前","lat":38.5811765,"long":141.1642731,"status":1.0,"note":null,"address":"涌谷町小里字五郎沢６９番地","row_num":5017},{"area_id":36,"name":"長根会館前","lat":38.5972913,"long":141.1535583,"status":1.0,"note":null,"address":"涌谷町小里字長根南７０番地","row_num":5018},{"area_id":36,"name":"長根ポンプ置き場脇","lat":38.5965351,"long":141.1661954,"status":1.0,"note":null,"address":"涌谷町小里字長根北８９番地先","row_num":5019},{"area_id":36,"name":"箟岳観音堂前","lat":38.5644635,"long":141.178617,"status":1.0,"note":null,"address":"涌谷町箟岳字神楽岡２番地","row_num":5020},{"area_id":36,"name":"ゆうらいふ箟岳地域ケアセンター前","lat":38.5727792,"long":141.1849126,"status":1.0,"note":null,"address":"涌谷町太田字舟ヶ沢８番地１","row_num":5021},{"area_id":36,"name":"旧箟岳土地改良区前","lat":38.5771997,"long":141.1772749,"status":1.0,"note":null,"address":"涌谷町太田字欠下３４番地３","row_num":5022},{"area_id":36,"name":"堂ヶ崎公会堂前","lat":38.583247,"long":141.177107,"status":1.0,"note":null,"address":"涌谷町太田字堂ヶ崎４０番地","row_num":5023},{"area_id":36,"name":"生栄巻生活共同利用センター前","lat":38.5958989,"long":141.1872785,"status":1.0,"note":null,"address":"涌谷町小里字岸ヶ森４５番地","row_num":5024},{"area_id":36,"name":"谷地太田公会堂","lat":38.5777355,"long":141.1896594,"status":1.0,"note":null,"address":"涌谷町太田字南太田１番地２","row_num":5025},{"area_id":36,"name":"沢田会館","lat":38.5762096,"long":141.1759599,"status":1.0,"note":null,"address":"涌谷町太田字欠下４２番地","row_num":5026},{"area_id":36,"name":"八幡・岸ヶ森西　三差路","lat":38.5887994,"long":141.1686761,"status":1.0,"note":null,"address":"涌谷町小里字岸ヶ森西519番地","row_num":5027},{"area_id":36,"name":"笠石公会堂","lat":38.541221,"long":141.1869709,"status":1.0,"note":null,"address":"涌谷町猪岡短台字笠石58番地1","row_num":5028},{"area_id":36,"name":"短台公会堂","lat":38.542229,"long":141.2037507,"status":1.0,"note":null,"address":"涌谷町猪岡短台字元桑畑121番地1","row_num":5029},{"area_id":36,"name":"斎藤仁見宅入口","lat":38.5531515,"long":141.1947893,"status":1.0,"note":null,"address":"涌谷町猪岡短台字窪田１８番１地先","row_num":5030},{"area_id":36,"name":"ののだけ幼稚園前駐車場","lat":38.5623661,"long":141.1931701,"status":1.0,"note":null,"address":"涌谷町吉住字不動沢４番地","row_num":5031},{"area_id":36,"name":"吉住運動広場","lat":38.564315,"long":141.1949777,"status":1.0,"note":null,"address":"涌谷町吉住字梅田２５番地１","row_num":5032},{"area_id":36,"name":"新田公会堂","lat":38.5735295,"long":141.1922376,"status":1.0,"note":null,"address":"涌谷町吉住字山崎２５番地１","row_num":5033},{"area_id":36,"name":"馬追会館","lat":38.5675968,"long":141.2112374,"status":1.0,"note":null,"address":"涌谷町吉住字馬追畑２５番地１１","row_num":5034},{"area_id":36,"name":"大谷地集落センター付近交差点","lat":38.5554247,"long":141.2251243,"status":1.0,"note":null,"address":"涌谷町猪岡短台字大谷地１６番地２４２","row_num":5035},{"area_id":36,"name":"大谷地下バス停付近","lat":38.5429393,"long":141.2249679,"status":1.0,"note":null,"address":"涌谷町猪岡短台字大谷地３３番地１４６先","row_num":5036},{"area_id":37,"name":"個人宅南側ブロック塀","lat":38.5536348,"long":141.0542473,"status":0.0,"note":null,"address":"美里町牛飼字牛飼２２０番地２","row_num":5037},{"area_id":37,"name":"山の神児童公園西側","lat":38.5507314,"long":141.0599291,"status":0.0,"note":null,"address":"美里町牛飼字清水江２５０番地２２","row_num":5038},{"area_id":37,"name":"美里町健康福祉センター北側","lat":38.5586322,"long":141.0559946,"status":0.0,"note":null,"address":"美里町牛飼字新町４４番地","row_num":5039},{"area_id":37,"name":"美里町本小牛田コミュニティセンター東側フェンス","lat":38.5591328,"long":141.0576449,"status":0.0,"note":null,"address":"美里町南小牛田字町浦１０番地８","row_num":5040},{"area_id":37,"name":"個人宅フェンス","lat":38.559809,"long":141.052288,"status":0.0,"note":null,"address":"美里町牛飼字御蔵場１４番地","row_num":5041},{"area_id":37,"name":"八幡集会所東側フェンス","lat":38.5543,"long":141.0480593,"status":0.0,"note":null,"address":"美里町牛飼字阿弥陀３５番地","row_num":5042},{"area_id":37,"name":"個人宅ブロック塀","lat":38.5594889,"long":141.0604814,"status":0.0,"note":null,"address":"美里町南小牛田字町屋敷１００番地","row_num":5043},{"area_id":37,"name":"個人宅西側","lat":38.5508663,"long":141.0815202,"status":0.0,"note":null,"address":"美里町南小牛田字谷地中前３番地","row_num":5044},{"area_id":37,"name":"個人宅北側","lat":38.5631523,"long":141.0747993,"status":0.0,"note":null,"address":"美里町南小牛田字江の内４１番地１先","row_num":5045},{"area_id":37,"name":"美里町下小牛田コミュニティセンター南側","lat":38.5590201,"long":141.0839179,"status":0.0,"note":null,"address":"美里町南小牛田字下小牛田屋敷３７番地１","row_num":5046},{"area_id":37,"name":"個人宅ブロック塀","lat":38.5552286,"long":141.0898672,"status":0.0,"note":null,"address":"美里町南小牛田字下小牛田屋敷５２番地３","row_num":5047},{"area_id":37,"name":"個人宅東側　美里東部土地改良区用水フェンス","lat":38.5534157,"long":141.0914739,"status":0.0,"note":null,"address":"美里町南小牛田字江の内１５４番地先","row_num":5048},{"area_id":37,"name":"理容ひまわり駐車場前　（理容ひまわり向）","lat":38.5339963,"long":141.0675745,"status":0.0,"note":null,"address":"美里町字化粧坂１５番地","row_num":5049},{"area_id":37,"name":"峯山団地公園西側","lat":38.5351006,"long":141.073541,"status":0.0,"note":null,"address":"美里町字峯山８番地１２４","row_num":5050},{"area_id":37,"name":"個人宅北側","lat":38.5307788,"long":141.0773441,"status":0.0,"note":null,"address":"美里町字西舘７４番地１先","row_num":5051},{"area_id":37,"name":"不動堂六区文化会館南側駐車場","lat":38.5284456,"long":141.0829714,"status":0.0,"note":null,"address":"美里町字塔ノ越９２番地１","row_num":5052},{"area_id":37,"name":"小沼農村公園フェンス（宅東側）","lat":38.5300256,"long":141.0902615,"status":0.0,"note":null,"address":"美里町字勘堂１４１番地４","row_num":5053},{"area_id":37,"name":"個人宅向","lat":38.5257908,"long":141.0951562,"status":0.0,"note":null,"address":"美里町字塩釜２６番地１１","row_num":5054},{"area_id":37,"name":"志賀公園西側フェンス","lat":38.5321664,"long":141.067986,"status":0.0,"note":null,"address":"美里町字志賀町二丁目２番地１","row_num":5055},{"area_id":37,"name":"仙台プロパン株式会社小牛田営業所フェンス","lat":38.5414018,"long":141.0656266,"status":0.0,"note":null,"address":"美里町駅東二丁目１番地２","row_num":5056},{"area_id":37,"name":"駅東２号公園西側","lat":38.5415051,"long":141.0688568,"status":0.0,"note":null,"address":"美里町駅東二丁目２２番地","row_num":5057},{"area_id":37,"name":"カリヨンの鐘西側","lat":38.542157,"long":141.0624943,"status":0.0,"note":null,"address":"美里町字藤ケ崎一丁目86番地","row_num":5058},{"area_id":37,"name":"自遊橋欄干（遠田商工会北側）","lat":38.5406526,"long":141.0599605,"status":0.0,"note":null,"address":"美里町字藤ケ崎町１７０番地先","row_num":5059},{"area_id":37,"name":"新みやぎ農協協同組合職員駐車場フェンス","lat":38.5384534,"long":141.0618065,"status":0.0,"note":null,"address":"美里町字桜木町１１番地","row_num":5060},{"area_id":37,"name":"個人宅南側","lat":38.5375916,"long":141.0635083,"status":0.0,"note":null,"address":"美里町字素山町２６番地先","row_num":5061},{"area_id":37,"name":"個人宅ブロック塀（只野新聞店東側）","lat":38.5347535,"long":141.0643301,"status":0.0,"note":null,"address":"美里町字素山町７８番地","row_num":5062},{"area_id":37,"name":"警察署長官舎跡地フェンス","lat":38.5368887,"long":141.0586338,"status":0.0,"note":null,"address":"美里町字桜木町６９番地","row_num":5063},{"area_id":37,"name":"素山球場フェンス","lat":38.5380422,"long":141.0575595,"status":0.0,"note":null,"address":"美里町字桜木町１６４番地","row_num":5064},{"area_id":37,"name":"美里町役場東側フェンス","lat":38.543961,"long":141.056547,"status":0.0,"note":null,"address":"美里町北浦字駒米１３番地","row_num":5065},{"area_id":37,"name":"彫堂団地公園南側フェンス","lat":38.5452397,"long":141.0565937,"status":0.0,"note":null,"address":"美里町北浦字大口６８番地１７","row_num":5066},{"area_id":37,"name":"板橋理容所西側","lat":38.5404266,"long":141.0574457,"status":0.0,"note":null,"address":"美里町北浦字船入２番地１１２","row_num":5067},{"area_id":37,"name":"個人宅","lat":38.5385187,"long":141.0546932,"status":0.0,"note":null,"address":"美里町北浦字姥ヶ沢３０番地１０","row_num":5068},{"area_id":37,"name":"山前団地衛生処理場東側","lat":38.5375882,"long":141.0507687,"status":0.0,"note":null,"address":"美里町北浦字山前１番地９５","row_num":5069},{"area_id":37,"name":"個人宅フェンス","lat":38.5423084,"long":141.0554656,"status":0.0,"note":null,"address":"美里町北浦字船入２番地５","row_num":5070},{"area_id":37,"name":"個人宅フェンス","lat":38.5436615,"long":141.0509174,"status":0.0,"note":null,"address":"美里町北浦字彫堂３９番地１","row_num":5071},{"area_id":37,"name":"メゾン・ポワール北側","lat":38.5585145,"long":141.022754,"status":0.0,"note":null,"address":"美里町北浦字道祖神前14番地2","row_num":5072},{"area_id":37,"name":"個人宅東側","lat":38.5637467,"long":141.0009013,"status":0.0,"note":null,"address":"美里町北浦字谷地８９番地１","row_num":5073},{"area_id":37,"name":"個人宅北側　美里東部土地改良区用水フェンス","lat":38.5700244,"long":140.9992515,"status":0.0,"note":null,"address":"美里町関根字新苗代江３６番地先","row_num":5074},{"area_id":37,"name":"美里クリニック南側　美里東部土地改良区用水フェンス","lat":38.5684592,"long":141.0050924,"status":0.0,"note":null,"address":"美里町関根字道明４３番地先","row_num":5075},{"area_id":37,"name":"個人宅前","lat":38.5635488,"long":141.0154754,"status":0.0,"note":null,"address":"美里町北浦字二又79番地","row_num":5076},{"area_id":37,"name":"北浦公園敷地","lat":38.5627687,"long":141.0181526,"status":0.0,"note":null,"address":"美里町北浦字二又下２０番地１","row_num":5077},{"area_id":37,"name":"美里町北浦コミュニティセンター北側","lat":38.5607911,"long":141.0238271,"status":0.0,"note":null,"address":"美里町北浦字道祖神７番地５","row_num":5078},{"area_id":37,"name":"個人宅西側","lat":38.5617521,"long":141.0244443,"status":0.0,"note":null,"address":"美里町北浦字中組６番地４先","row_num":5079},{"area_id":37,"name":"町営北浦第一住宅公園フェンス","lat":38.5582236,"long":141.0283868,"status":0.0,"note":null,"address":"美里町北浦字半兵衛１８番地","row_num":5080},{"area_id":37,"name":"新田公会堂南側","lat":38.5547843,"long":141.0289384,"status":0.0,"note":null,"address":"美里町北浦字浅野栄治前３９番地２","row_num":5081},{"area_id":37,"name":"町営北浦第三住宅北側フェンス","lat":38.555251,"long":141.0335915,"status":0.0,"note":null,"address":"美里町北浦字浅野栄治前３１番地１","row_num":5082},{"area_id":37,"name":"個人宅北側","lat":38.5496967,"long":141.0376771,"status":0.0,"note":null,"address":"美里町北浦字新田１９番地","row_num":5083},{"area_id":37,"name":"横埣公会堂南側","lat":38.5588954,"long":141.0392867,"status":0.0,"note":null,"address":"美里町北浦字苗代下７番地","row_num":5084},{"area_id":37,"name":"ホーマック東側","lat":38.5602081,"long":141.0424204,"status":0.0,"note":null,"address":"美里町北浦字新苗代下１９番地２先","row_num":5085},{"area_id":37,"name":"個人宅向","lat":38.5644006,"long":141.0480595,"status":0.0,"note":null,"address":"美里町平針字中川前三番４番地２先","row_num":5086},{"area_id":37,"name":"上野軍城文化会館","lat":38.5710198,"long":141.0420281,"status":0.0,"note":null,"address":"美里町平針字軍城１５５番地１","row_num":5087},{"area_id":37,"name":"町営上戸住宅フェンス","lat":38.5805993,"long":141.0333829,"status":0.0,"note":null,"address":"美里町中埣字上戸59番地2","row_num":5088},{"area_id":37,"name":"高城地区転作推進研修センター南側","lat":38.587149,"long":141.0444722,"status":0.0,"note":null,"address":"美里町中高城字中道１２３番地１","row_num":5089},{"area_id":37,"name":"町区公会堂フェンス","lat":38.5863826,"long":141.0318934,"status":0.0,"note":null,"address":"美里町中埣字町１番地３","row_num":5090},{"area_id":37,"name":"中田集落センター北側フェンス","lat":38.5854397,"long":141.0211184,"status":0.0,"note":null,"address":"美里町中埣字中田９７番地３","row_num":5091},{"area_id":37,"name":"個人宅前","lat":38.5849592,"long":141.0087539,"status":0.0,"note":null,"address":"美里町成田字元成田２８番地","row_num":5092},{"area_id":37,"name":"谷陽院ブロック塀（重泉商店前）","lat":38.5752557,"long":141.0212892,"status":0.0,"note":null,"address":"美里町荻埣字山王３７番地","row_num":5093},{"area_id":37,"name":"上平針部落館","lat":38.5655452,"long":141.0312403,"status":0.0,"note":null,"address":"美里町平針字堤根８３番地","row_num":5094},{"area_id":37,"name":"堀切集落農事集会所前","lat":38.5387763,"long":141.0231787,"status":0.0,"note":null,"address":"美里町青生字堀切１４７番地２","row_num":5095},{"area_id":37,"name":"個人宅ブロック塀","lat":38.5302247,"long":141.0298752,"status":0.0,"note":null,"address":"美里町青生字松ケ崎１１９番地","row_num":5096},{"area_id":37,"name":"青生白寿館フェンス","lat":38.5307257,"long":141.0323968,"status":0.0,"note":null,"address":"美里町青生字上浦３２０番地","row_num":5097},{"area_id":37,"name":"個人宅ブロック塀","lat":38.5304338,"long":141.0391836,"status":0.0,"note":null,"address":"美里町青生字町東１７２番地","row_num":5098},{"area_id":37,"name":"個人宅ブロック塀","lat":38.5329152,"long":141.045927,"status":0.0,"note":null,"address":"美里町青生字新鳴瀬１３２番地","row_num":5099},{"area_id":37,"name":"個人宅ブロック塀","lat":38.5358264,"long":141.0511784,"status":0.0,"note":null,"address":"美里町青生字水越浦５４番地１２","row_num":5100},{"area_id":37,"name":"梅ノ木文化会館前フェンス","lat":38.5323177,"long":141.0544424,"status":0.0,"note":null,"address":"美里町青生字水越８１番地２","row_num":5101},{"area_id":37,"name":"町営梅ノ木住宅西側","lat":38.532274,"long":141.0572464,"status":0.0,"note":null,"address":"美里町青生字的場７番地","row_num":5102},{"area_id":37,"name":"個人宅ブロック塀","lat":38.5266987,"long":141.1131718,"status":0.0,"note":null,"address":"美里町和多田沼字西田２８番地１","row_num":5103},{"area_id":37,"name":"個人宅ブロック塀","lat":38.524991,"long":141.1028662,"status":0.0,"note":null,"address":"美里町和多田沼字上屋敷６２番地","row_num":5104},{"area_id":37,"name":"個人宅ブロック塀","lat":38.522004,"long":141.106444,"status":0.0,"note":null,"address":"美里町和多田沼字半田屋敷１４番地","row_num":5105},{"area_id":37,"name":"美里町農村婦人の家前","lat":38.5208807,"long":141.1049729,"status":0.0,"note":null,"address":"美里町和多田沼字蛭田原一７５番地１","row_num":5106},{"area_id":37,"name":"個人宅裏","lat":38.5214788,"long":141.102228,"status":0.0,"note":null,"address":"美里町和多田沼字蛭田原９９番地２","row_num":5107},{"area_id":37,"name":"個人宅ブロック塀","lat":38.5188176,"long":141.1038301,"status":0.0,"note":null,"address":"美里町和多田沼字蛭田原三５３番地","row_num":5108},{"area_id":37,"name":"個人宅ブロック塀","lat":38.5166296,"long":141.1024406,"status":0.0,"note":null,"address":"美里町和多田沼字砂地一６０番地","row_num":5109},{"area_id":37,"name":"個人宅ブロック塀","lat":38.5137813,"long":141.1029777,"status":0.0,"note":null,"address":"美里町福ヶ袋字辻屋敷２１番地","row_num":5110},{"area_id":37,"name":"個人宅ブロック塀","lat":38.5109751,"long":141.1054107,"status":0.0,"note":null,"address":"美里町福ヶ袋字袖川４０番地１","row_num":5111},{"area_id":37,"name":"個人宅ブロック塀","lat":38.5101923,"long":141.1084072,"status":0.0,"note":null,"address":"美里町福ヶ袋字辻屋敷６５番地","row_num":5112},{"area_id":37,"name":"個人宅前フェンス","lat":38.5135652,"long":141.1044416,"status":0.0,"note":null,"address":"美里町福ヶ袋字中畑３番地６","row_num":5113},{"area_id":37,"name":"個人宅前フェンス","lat":38.5122011,"long":141.1070569,"status":0.0,"note":null,"address":"美里町福ヶ袋字白山堂２番地","row_num":5114},{"area_id":37,"name":"個人宅ブロック塀","lat":38.5084098,"long":141.1119749,"status":0.0,"note":null,"address":"美里町練牛字八号４５番地１","row_num":5115},{"area_id":37,"name":"個人宅ブロック塀","lat":38.5071542,"long":141.1156173,"status":0.0,"note":null,"address":"美里町練牛字十一号１２番地","row_num":5116},{"area_id":37,"name":"障害者日中活動支援施設のぎくフェンス","lat":38.507151,"long":141.1179843,"status":0.0,"note":null,"address":"美里町練牛字十二号４８番地１","row_num":5117},{"area_id":37,"name":"個人宅向フェンス","lat":38.5099884,"long":141.1129481,"status":0.0,"note":null,"address":"美里町練牛字二号２番地","row_num":5118},{"area_id":37,"name":"個人宅ブロック塀","lat":38.5081133,"long":141.1168079,"status":0.0,"note":null,"address":"美里町練牛字十二号１３番地１","row_num":5119},{"area_id":37,"name":"個人宅ブロック塀","lat":38.507174,"long":141.1277201,"status":0.0,"note":null,"address":"美里町練牛字十五号１６番地","row_num":5120},{"area_id":37,"name":"個人宅ブロック塀","lat":38.5066306,"long":141.1332988,"status":0.0,"note":null,"address":"美里町練牛字二十二号２番地２","row_num":5121},{"area_id":37,"name":"赤谷運動場東側","lat":38.5081485,"long":141.1423236,"status":0.0,"note":null,"address":"美里町練牛字赤谷二１３番地","row_num":5122},{"area_id":37,"name":"個人宅前","lat":38.5050104,"long":141.1414252,"status":0.0,"note":null,"address":"美里町練牛字二十八号２２番地２","row_num":5123},{"area_id":37,"name":"個人宅ブロック塀","lat":38.5036191,"long":141.1494127,"status":0.0,"note":null,"address":"美里町練牛字三十五号１番地","row_num":5124},{"area_id":37,"name":"出来川公会堂前","lat":38.5125583,"long":141.1419626,"status":0.0,"note":null,"address":"美里町練牛字出来川１５７番地","row_num":5125},{"area_id":37,"name":"鳥谷坂公会堂前","lat":38.5184576,"long":141.1767587,"status":0.0,"note":null,"address":"美里町字鳥谷坂一１４番地","row_num":5126},{"area_id":37,"name":"個人宅ブロック塀","lat":38.5050039,"long":141.12037,"status":0.0,"note":null,"address":"美里町大柳字高出１３番地","row_num":5127},{"area_id":37,"name":"個人宅ブロック塀","lat":38.5039588,"long":141.1228521,"status":0.0,"note":null,"address":"美里町大柳字高出２１番地","row_num":5128},{"area_id":37,"name":"個人宅ブロック塀","lat":38.503701,"long":141.1185377,"status":0.0,"note":null,"address":"美里町大柳字後藤渕３番地","row_num":5129},{"area_id":37,"name":"個人宅ブロック塀","lat":38.5003597,"long":141.1213416,"status":0.0,"note":null,"address":"美里町大柳字明神８番地１","row_num":5130},{"area_id":37,"name":"個人宅ブロック塀","lat":38.4995945,"long":141.1214958,"status":0.0,"note":null,"address":"美里町大柳字明神１番地２","row_num":5131},{"area_id":37,"name":"個人宅ブロック塀","lat":38.4981253,"long":141.123394,"status":0.0,"note":null,"address":"美里町大柳字砂押１０番地","row_num":5132},{"area_id":37,"name":"町営大柳第二住宅駐車場フェンス","lat":38.4963279,"long":141.1267641,"status":0.0,"note":null,"address":"美里町大柳字東境１１番地１","row_num":5133},{"area_id":37,"name":"個人宅ブロック塀","lat":38.4919525,"long":141.1283768,"status":0.0,"note":null,"address":"美里町木間塚字古館２０番地","row_num":5134},{"area_id":37,"name":"個人宅ブロック塀","lat":38.4894933,"long":141.1281323,"status":0.0,"note":null,"address":"美里町木間塚字古館３７番地１","row_num":5135},{"area_id":37,"name":"個人宅ブロック塀","lat":38.488692,"long":141.1317018,"status":0.0,"note":null,"address":"美里町木間塚字砂押７８番地","row_num":5136},{"area_id":37,"name":"個人宅ブロック塀","lat":38.4868204,"long":141.1299128,"status":0.0,"note":null,"address":"美里町木間塚字押切東１番地","row_num":5137},{"area_id":37,"name":"個人宅ブロック塀","lat":38.4849083,"long":141.1335116,"status":0.0,"note":null,"address":"美里町木間塚字夫婦沼東６７番地","row_num":5138},{"area_id":37,"name":"個人宅ブロック塀","lat":38.4833455,"long":141.1355522,"status":0.0,"note":null,"address":"美里町二郷字治郎右衛門沖名一号５番地","row_num":5139},{"area_id":37,"name":"個人宅ブロック塀","lat":38.4804764,"long":141.1330648,"status":0.0,"note":null,"address":"美里町二郷字高玉二号１４番地","row_num":5140},{"area_id":37,"name":"個人宅ブロック塀","lat":38.4788622,"long":141.1308436,"status":0.0,"note":null,"address":"美里町二郷字前袋一号５番地１","row_num":5141},{"area_id":37,"name":"個人宅ブロック塀","lat":38.4773652,"long":141.1345335,"status":0.0,"note":null,"address":"美里町二郷字高玉五号１１番地１","row_num":5142},{"area_id":37,"name":"個人宅ブロック塀","lat":38.474621,"long":141.1334224,"status":0.0,"note":null,"address":"美里町二郷字高玉六号４番地","row_num":5143},{"area_id":37,"name":"個人宅ブロック塀","lat":38.4786308,"long":141.1329907,"status":0.0,"note":null,"address":"美里町二郷字慶半４９番地","row_num":5144},{"area_id":37,"name":"個人宅ブロック塀","lat":38.475228,"long":141.1316807,"status":0.0,"note":null,"address":"美里町二郷字慶半２６番地","row_num":5145},{"area_id":37,"name":"新みやぎ農業協同組合南郷支店二郷倉庫脇","lat":38.4723965,"long":141.1297793,"status":0.0,"note":null,"address":"美里町二郷字佐野四号８９０番地２","row_num":5146},{"area_id":37,"name":"旧みなみ幼稚園跡地","lat":38.4694587,"long":141.1302017,"status":0.0,"note":null,"address":"美里町二郷字佐野八号２１番地","row_num":5147},{"area_id":37,"name":"個人宅ブロック塀","lat":38.4691218,"long":141.1285181,"status":0.0,"note":null,"address":"美里町二郷字佐野八号４番地１","row_num":5148},{"area_id":37,"name":"個人宅ブロック塀","lat":38.4641153,"long":141.1248621,"status":0.0,"note":null,"address":"美里町二郷字権十郎二号５番地","row_num":5149},{"area_id":37,"name":"個人宅ブロック塀","lat":38.4618875,"long":141.1229905,"status":0.0,"note":null,"address":"美里町二郷字甚助二号２２番地","row_num":5150},{"area_id":37,"name":"個人宅ブロック塀","lat":38.4588406,"long":141.1181741,"status":0.0,"note":null,"address":"美里町二郷字蔵人主二号１番地","row_num":5151},{"area_id":37,"name":"下二郷運動公園西側","lat":38.4580845,"long":141.1132265,"status":0.0,"note":null,"address":"美里町二郷字砂山東９番地１","row_num":5152},{"area_id":37,"name":"砂山公会堂","lat":38.4581905,"long":141.1121361,"status":0.0,"note":null,"address":"美里町二郷字砂山川原１９番地１","row_num":5153},{"area_id":37,"name":"個人宅跡地前","lat":38.4564665,"long":141.1128926,"status":0.0,"note":null,"address":"美里町二郷字砂山４０番地１","row_num":5154},{"area_id":37,"name":"個人宅ブロック塀","lat":38.4468352,"long":141.1129117,"status":0.0,"note":null,"address":"美里町二郷字千代窪一号３２番地１","row_num":5155},{"area_id":37,"name":"個人宅ブロック塀","lat":38.4555351,"long":141.1622346,"status":0.0,"note":null,"address":"美里町二郷字小島１番地１","row_num":5156},{"area_id":37,"name":"個人宅ブロック塀","lat":38.4537966,"long":141.1600711,"status":0.0,"note":null,"address":"美里町二郷字小島４４番地","row_num":5157},{"area_id":37,"name":"個人宅ブロック塀","lat":38.4538484,"long":141.1645074,"status":0.0,"note":null,"address":"美里町二郷字前谷地１１５番地１","row_num":5158}]