[{"area_id":1,"name":"仙台市立上杉山通小学校東側","lat":38.2713026,"long":140.873753,"status":1.0,"note":null,"address":"仙台市青葉区上杉一丁目１０番１号","row_num":2},{"area_id":1,"name":"仙台市外記丁通公園北側","lat":38.2720492,"long":140.8719284,"status":1.0,"note":null,"address":"仙台市青葉区上杉一丁目１４番内","row_num":3},{"area_id":1,"name":"仙台市勝山公園東側","lat":38.27343,"long":140.87371,"status":1.0,"note":null,"address":"仙台市青葉区上杉二丁目１番内","row_num":4},{"area_id":1,"name":"仙台市勝山公園南側","lat":38.27312,"long":140.87331,"status":1.0,"note":null,"address":"仙台市青葉区上杉二丁目１番内","row_num":5},{"area_id":1,"name":"仙台市上杉公園南側","lat":38.2713245,"long":140.8798149,"status":1.0,"note":null,"address":"仙台市青葉区上杉四丁目１番内","row_num":6},{"area_id":1,"name":"仙台市錦町公園東側","lat":38.2661115,"long":140.8751418,"status":1.0,"note":null,"address":"仙台市青葉区本町二丁目２１番内","row_num":7},{"area_id":1,"name":"仙台市勾当台公園北側","lat":38.26746,"long":140.8709,"status":1.0,"note":null,"address":"仙台市青葉区本町三丁目９番内","row_num":8},{"area_id":1,"name":"仙台市勾当台公園南側","lat":38.26633,"long":140.87167,"status":1.0,"note":null,"address":"仙台市青葉区本町三丁目９番内","row_num":9},{"area_id":1,"name":"青葉区役所西側","lat":38.269075,"long":140.8704473,"status":1.0,"note":null,"address":"仙台市青葉区上杉一丁目５番1号","row_num":10},{"area_id":1,"name":"仙台市立木町通小学校北側","lat":38.2710134,"long":140.8645156,"status":1.0,"note":null,"address":"仙台市青葉区木町通一丁目７番３６号","row_num":11},{"area_id":1,"name":"仙台市北三番丁公園東側","lat":38.2704896,"long":140.8645032,"status":1.0,"note":null,"address":"仙台市青葉区木町通一丁目７番内","row_num":12},{"area_id":1,"name":"仙台市立第二中学校南側","lat":38.2736003,"long":140.8644094,"status":1.0,"note":null,"address":"仙台市青葉区木町通二丁目４番１号","row_num":13},{"area_id":1,"name":"東北大学加齢医学研究所南側","lat":38.2742253,"long":140.8603138,"status":0.0,"note":null,"address":"仙台市青葉区星陵町４番１号","row_num":14},{"area_id":1,"name":"東北大学病院南側","lat":38.2719482,"long":140.8608739,"status":1.0,"note":null,"address":"仙台市青葉区星陵町１番１号","row_num":15},{"area_id":1,"name":"（公財）仙台市建設公社駐車場","lat":38.2690793,"long":140.8635712,"status":1.0,"note":null,"address":"仙台市青葉区木町通一丁目3番内","row_num":16},{"area_id":1,"name":"仙台市春日町公園西側","lat":38.2670998,"long":140.8656261,"status":1.0,"note":null,"address":"仙台市青葉区春日町７番内","row_num":17},{"area_id":1,"name":"仙台市勾当台公園市民広場","lat":38.2669711,"long":140.8699785,"status":1.0,"note":null,"address":"仙台市青葉区国分町三丁目７番内","row_num":18},{"area_id":1,"name":"仙台市立木町通小学校西側","lat":38.2710134,"long":140.8645156,"status":1.0,"note":null,"address":"仙台市青葉区木町通一丁目７番３６号","row_num":19},{"area_id":1,"name":"仙台市立通町小学校南側","lat":38.2765746,"long":140.8631272,"status":0.0,"note":null,"address":"仙台市青葉区通町一丁目１番１号","row_num":20},{"area_id":1,"name":"柏木保育園北側","lat":38.275081,"long":140.8623262,"status":1.0,"note":null,"address":"仙台市青葉区柏木一丁目５番３５号","row_num":21},{"area_id":1,"name":"仙台北山郵便局南側","lat":38.2784069,"long":140.8610808,"status":0.0,"note":null,"address":"仙台市青葉区木町１４番内","row_num":22},{"area_id":1,"name":"輪王寺前バス停東側","lat":38.2834164,"long":140.8592582,"status":0.0,"note":null,"address":"仙台市青葉区北山一丁目７番内","row_num":23},{"area_id":1,"name":"仙台市通町公園南側","lat":38.2810474,"long":140.8636134,"status":0.0,"note":null,"address":"仙台市青葉区青葉町６番内","row_num":24},{"area_id":1,"name":"仙台市通町市営住宅北側","lat":38.2778817,"long":140.8670844,"status":1.0,"note":null,"address":"仙台市青葉区通町一丁目6番10号","row_num":25},{"area_id":1,"name":"仙台市立通町小学校西側","lat":38.2765746,"long":140.8631272,"status":1.0,"note":null,"address":"仙台市青葉区通町一丁目１番１号","row_num":26},{"area_id":1,"name":"月極駐車場エルタスパーク南側","lat":38.2799687,"long":140.8650274,"status":0.0,"note":null,"address":"仙台市青葉区通町二丁目３番内","row_num":27},{"area_id":1,"name":"仙台市立上杉山中学校西側","lat":38.2781874,"long":140.8737637,"status":1.0,"note":null,"address":"仙台市青葉区上杉六丁目７番１号","row_num":28},{"area_id":1,"name":"宮城教育大学附属中学校西側","lat":38.27792,"long":140.8756334,"status":1.0,"note":null,"address":"仙台市青葉区上杉六丁目４番１号","row_num":29},{"area_id":1,"name":"仙台厚生病院西側","lat":38.2763576,"long":140.8701572,"status":1.0,"note":null,"address":"仙台市青葉区堤通雨宮町１番２０号","row_num":30},{"area_id":1,"name":"仙台市立上杉山中学校北側","lat":38.2781874,"long":140.8737637,"status":1.0,"note":null,"address":"仙台市青葉区上杉六丁目７番１号","row_num":31},{"area_id":1,"name":"宮城県仙台合同庁舎西側","lat":38.2779919,"long":140.8677748,"status":1.0,"note":null,"address":"仙台市青葉区堤通雨宮町４番１７号","row_num":32},{"area_id":1,"name":"宮城教育大学附属小学校北側","lat":38.27792,"long":140.8756334,"status":1.0,"note":null,"address":"仙台市青葉区上杉六丁目４番１号","row_num":33},{"area_id":1,"name":"ファミリーマート堤町一丁目店北側","lat":38.2832612,"long":140.8704521,"status":0.0,"note":null,"address":"仙台市青葉区堤町一丁目３番内","row_num":34},{"area_id":1,"name":"日浄寺入口東側","lat":38.2832612,"long":140.8704521,"status":0.0,"note":null,"address":"仙台市青葉区堤町一丁目１０番内","row_num":35},{"area_id":1,"name":"仙台市立北六番丁小学校北側","lat":38.2762062,"long":140.882464,"status":1.0,"note":null,"address":"仙台市青葉区宮町四丁目４番１７号","row_num":36},{"area_id":1,"name":"東北電力宮町アパート","lat":38.274513,"long":140.8824633,"status":1.0,"note":null,"address":"仙台市青葉区宮町四丁目５番５７号","row_num":37},{"area_id":1,"name":"宮町四丁目３番内（個人宅地）","lat":38.2755124,"long":140.8805063,"status":1.0,"note":null,"address":"仙台市青葉区宮町四丁目３番４３号","row_num":38},{"area_id":1,"name":"仙台市立北六番丁小学校西側","lat":38.2762062,"long":140.882464,"status":1.0,"note":null,"address":"仙台市青葉区宮町四丁目４番１７号","row_num":39},{"area_id":1,"name":"仙台市立五城中学校北側","lat":38.279265,"long":140.8833694,"status":1.0,"note":null,"address":"仙台市青葉区東照宮一丁目３番１号","row_num":40},{"area_id":1,"name":"仙台市児童相談所西側","lat":38.2810727,"long":140.8829683,"status":1.0,"note":null,"address":"仙台市青葉区東照宮一丁目１８番１号","row_num":41},{"area_id":1,"name":"東急ドエルアルス東照宮明水館東側","lat":38.2771181,"long":140.8843467,"status":1.0,"note":null,"address":"仙台市青葉区宮町五丁目３番５号","row_num":42},{"area_id":1,"name":"仙台市上杉杜の公園","lat":38.2747942,"long":140.8788155,"status":1.0,"note":null,"address":"仙台市青葉区上杉五丁目５番内","row_num":43},{"area_id":1,"name":"仙台市立東六番丁小学校西側","lat":38.2660626,"long":140.8841655,"status":1.0,"note":null,"address":"仙台市青葉区宮町一丁目２番１号","row_num":44},{"area_id":1,"name":"仙台市小田原四丁目公園北側","lat":38.2692849,"long":140.8920119,"status":1.0,"note":null,"address":"仙台市青葉区小田原四丁目3番内","row_num":45},{"area_id":1,"name":"花京院緑地南側","lat":38.2638393,"long":140.8806623,"status":1.0,"note":null,"address":"仙台市青葉区花京院一丁目１番内","row_num":46},{"area_id":1,"name":"仙台駅自転車保管所北側（宮城野橋下）","lat":38.2631798,"long":140.881998,"status":1.0,"note":null,"address":"仙台市青葉区中央一丁目3番10号","row_num":47},{"area_id":1,"name":"宮城野橋南西側","lat":38.2628806,"long":140.8809099,"status":1.0,"note":null,"address":"仙台市青葉区中央一丁目３番内","row_num":48},{"area_id":1,"name":"宮町県職員宿舎","lat":38.270705,"long":140.8831138,"status":1.0,"note":null,"address":"仙台市青葉区宮町二丁目１番２３号","row_num":49},{"area_id":1,"name":"常盤木学園西側","lat":38.2693784,"long":140.8896248,"status":1.0,"note":null,"address":"仙台市青葉区小田原四丁目３番２０号","row_num":50},{"area_id":1,"name":"仙台市小田原青葉のまち公園","lat":38.2680718,"long":140.8916187,"status":1.0,"note":null,"address":"仙台市青葉区小田原四丁目１４番内","row_num":51},{"area_id":1,"name":"仙台市立東二番丁小学校東側","lat":38.2589858,"long":140.8750167,"status":1.0,"note":null,"address":"仙台市青葉区一番町二丁目１番４号","row_num":52},{"area_id":1,"name":"仙台市五橋公園東側","lat":38.2546982,"long":140.880603,"status":1.0,"note":null,"address":"仙台市青葉区五橋一丁目１番内","row_num":53},{"area_id":1,"name":"イムス明理会仙台総合病院","lat":38.2575658,"long":140.8773822,"status":1.0,"note":null,"address":"仙台市青葉区中央四丁目５番１号","row_num":54},{"area_id":1,"name":"仙台市五橋公園南側","lat":38.2546982,"long":140.880603,"status":1.0,"note":null,"address":"仙台市青葉区五橋一丁目１番内","row_num":55},{"area_id":1,"name":"仙台駅西口ペデストリアンデッキ北側","lat":38.2599491,"long":140.8810315,"status":1.0,"note":null,"address":"仙台市青葉区中央一丁目１番内","row_num":56},{"area_id":1,"name":"電力ビル本館西側","lat":38.2616873,"long":140.8734806,"status":1.0,"note":null,"address":"仙台市青葉区一番町三丁目７番１号","row_num":57},{"area_id":1,"name":"仙台駅西口ペデストリアンデッキ南側","lat":38.2599491,"long":140.8810315,"status":1.0,"note":null,"address":"仙台市青葉区中央一丁目１番内","row_num":58},{"area_id":1,"name":"仙台市立五橋中学校東側","lat":38.2521422,"long":140.8792063,"status":1.0,"note":null,"address":"仙台市青葉区五橋二丁目２番１号","row_num":59},{"area_id":1,"name":"仙台市立五橋中学校北側","lat":38.2521422,"long":140.8792063,"status":1.0,"note":null,"address":"仙台市青葉区五橋二丁目２番１号","row_num":60},{"area_id":1,"name":"東北学院大学職員用駐車場(テニスコート跡地）北側","lat":38.2492359,"long":140.8771047,"status":1.0,"note":null,"address":"仙台市青葉区土樋一丁目１０番内","row_num":61},{"area_id":1,"name":"東北大学電気通信研究所南側","lat":38.2515119,"long":140.8753007,"status":1.0,"note":null,"address":"仙台市青葉区片平二丁目１番１号","row_num":62},{"area_id":1,"name":"東北大学ナノスピン総合研究棟西側","lat":38.2515119,"long":140.8753007,"status":1.0,"note":null,"address":"仙台市青葉区片平二丁目１番１号","row_num":63},{"area_id":1,"name":"東北大学多元物質科学研究所南側","lat":38.2515119,"long":140.8753007,"status":1.0,"note":null,"address":"仙台市青葉区片平二丁目１番１号","row_num":64},{"area_id":1,"name":"東北大学金属材料研究所北側","lat":38.2515119,"long":140.8753007,"status":1.0,"note":null,"address":"仙台市青葉区片平二丁目１番１号","row_num":65},{"area_id":1,"name":"仙台市立片平丁小学校西側","lat":38.2560792,"long":140.8686337,"status":1.0,"note":null,"address":"仙台市青葉区片平一丁目７番１号","row_num":66},{"area_id":1,"name":"仙台市片平さんかく公園","lat":38.2572279,"long":140.8694059,"status":1.0,"note":null,"address":"仙台市青葉区一番町一丁目１７番内","row_num":67},{"area_id":1,"name":"仙台市大手町公園","lat":38.2569191,"long":140.8616934,"status":1.0,"note":null,"address":"仙台市青葉区大手町１０番内","row_num":68},{"area_id":1,"name":"仙台市評定河原野球場","lat":38.2565148,"long":140.8671451,"status":1.0,"note":null,"address":"仙台市青葉区花壇１番内","row_num":69},{"area_id":1,"name":"瑞鳳殿第２駐車場","lat":38.25181,"long":140.8662432,"status":1.0,"note":null,"address":"仙台市青葉区霊屋下１２番内","row_num":70},{"area_id":1,"name":"仙臺大神宮南西先","lat":38.2577529,"long":140.8643114,"status":1.0,"note":null,"address":"仙台市青葉区大手町６番内","row_num":71},{"area_id":1,"name":"仙台市片平市民センタ－東側","lat":38.2538803,"long":140.8705711,"status":1.0,"note":null,"address":"仙台市青葉区米ケ袋一丁目１番３５号","row_num":72},{"area_id":1,"name":"仙台市立片平丁小学校東側","lat":38.2560792,"long":140.8686337,"status":1.0,"note":null,"address":"仙台市青葉区片平一丁目７番１号","row_num":73},{"area_id":1,"name":"仙台市立立町小学校南側","lat":38.3032537,"long":140.8510983,"status":0.0,"note":null,"address":"仙台市青葉区立町８番１号","row_num":74},{"area_id":1,"name":"仙台市立立町小学校西側","lat":38.3032537,"long":140.8510983,"status":0.0,"note":null,"address":"仙台市青葉区立町８番１号","row_num":75},{"area_id":1,"name":"仙台市元鍛冶町公園北西側","lat":38.2642095,"long":140.8686478,"status":1.0,"note":null,"address":"仙台市青葉区国分町二丁目９番内","row_num":76},{"area_id":1,"name":"仙台市西公園（トークネットホール仙台南側)","lat":38.265326,"long":140.862909,"status":1.0,"note":null,"address":"仙台市青葉区桜ケ岡公園３番内","row_num":77},{"area_id":1,"name":"仙台市西公園(大町交番北側）","lat":38.2593981,"long":140.8634639,"status":1.0,"note":null,"address":"仙台市青葉区桜ケ岡公園１番内","row_num":78},{"area_id":1,"name":"西松建設㈱南側駐車場","lat":38.2593686,"long":140.8654329,"status":0.0,"note":null,"address":"仙台市青葉区大町二丁目４番内","row_num":79},{"area_id":1,"name":"仙台市肴町公園北側","lat":38.2608092,"long":140.8695813,"status":1.0,"note":null,"address":"仙台市青葉区国分町一丁目２番内","row_num":80},{"area_id":1,"name":"仙台市西公園（大町西公園駅前）南側","lat":38.2609851,"long":140.8623589,"status":1.0,"note":null,"address":"仙台市青葉区桜ケ岡公園１番内","row_num":81},{"area_id":1,"name":"川内大工町地内（仙台第二高等学校東南先）","lat":38.2627218,"long":140.858362,"status":1.0,"note":null,"address":"仙台市青葉区川内大工町無番地","row_num":82},{"area_id":1,"name":"仙台第二高等学校西側","lat":38.2636548,"long":140.8571033,"status":1.0,"note":null,"address":"仙台市青葉区川内澱橋通１番地","row_num":83},{"area_id":1,"name":"仙台市地下鉄川内駅前","lat":38.2605557,"long":140.8499455,"status":1.0,"note":null,"address":"仙台市青葉区川内４２番地内","row_num":84},{"area_id":1,"name":"仙台市川内亀岡公園西側","lat":38.2624278,"long":140.8469521,"status":1.0,"note":null,"address":"仙台市青葉区川内亀岡北裏丁地内","row_num":85},{"area_id":1,"name":"仙台市広瀬川牛越緑地南側（公衆トイレ付近）","lat":38.2682608,"long":140.8397943,"status":1.0,"note":null,"address":"仙台市青葉区荒巻字三居沢地内","row_num":86},{"area_id":1,"name":"博物館・国際センター・緑彩館前バス停","lat":38.2540456,"long":140.8603161,"status":1.0,"note":null,"address":"仙台市青葉区川内追廻無番地","row_num":87},{"area_id":1,"name":"東北大学川内北キャンパス前","lat":38.2592159,"long":140.8508118,"status":1.0,"note":null,"address":"仙台市青葉区川内４１番地","row_num":88},{"area_id":1,"name":"仙台市青葉山町内会集会所南側","lat":38.2488144,"long":140.824552,"status":0.0,"note":null,"address":"仙台市青葉区荒巻字青葉３４１番地の２","row_num":89},{"area_id":1,"name":"仙台市立折立小学校西側","lat":38.2602146,"long":140.8085736,"status":1.0,"note":null,"address":"仙台市青葉区折立四丁目２番１号","row_num":90},{"area_id":1,"name":"住宅供給公社アパート２号棟南側","lat":38.2617407,"long":140.8047623,"status":1.0,"note":null,"address":"仙台市青葉区折立四丁目１４番２号","row_num":91},{"area_id":1,"name":"西花苑一丁目・二丁目集会所北側","lat":38.2637265,"long":140.800111,"status":0.0,"note":null,"address":"仙台市青葉区西花苑二丁目１０番２０号","row_num":92},{"area_id":1,"name":"仙台市西花苑公園野球場南側","lat":38.2673922,"long":140.8011391,"status":1.0,"note":null,"address":"仙台市青葉区西花苑一丁目４番内","row_num":93},{"area_id":1,"name":"仙台市折立公園西側","lat":38.2657463,"long":140.8050287,"status":1.0,"note":null,"address":"仙台市青葉区折立三丁目４番地先","row_num":94},{"area_id":1,"name":"仙台市広瀬川浄化センター南側","lat":38.2633384,"long":140.8085862,"status":1.0,"note":null,"address":"仙台市青葉区折立三丁目２０番２号","row_num":95},{"area_id":1,"name":"折立一丁目２番内（地下道東側）","lat":38.2646627,"long":140.8119124,"status":1.0,"note":null,"address":"仙台市青葉区折立一丁目２番内","row_num":96},{"area_id":1,"name":"茂庭字湯ノ沢６３番地の１（個人宅地前畑）","lat":38.2529407,"long":140.8061959,"status":1.0,"note":null,"address":"仙台市青葉区茂庭字湯ノ沢６３番地の１","row_num":97},{"area_id":1,"name":"宮城第一高等学校西側","lat":38.2687723,"long":140.851595,"status":1.0,"note":null,"address":"仙台市青葉区八幡一丁目６番２号","row_num":98},{"area_id":1,"name":"尚絅学院高等学校グラウンド北側","lat":38.2672889,"long":140.8546688,"status":1.0,"note":null,"address":"仙台市青葉区八幡一丁目９番２７号","row_num":99},{"area_id":1,"name":"角五郎一丁目１番内東側","lat":38.2668552,"long":140.8543032,"status":0.0,"note":null,"address":"仙台市青葉区角五郎一丁目１番内","row_num":100},{"area_id":1,"name":"澱ポンプ場北側","lat":38.2656046,"long":140.8518965,"status":1.0,"note":null,"address":"仙台市青葉区角五郎一丁目９番内","row_num":101},{"area_id":1,"name":"八幡六丁目バス停西側","lat":38.2686811,"long":140.8336219,"status":1.0,"note":null,"address":"仙台市青葉区八幡六丁目７番先","row_num":102},{"area_id":1,"name":"角五郎国家公務員宿舎北側","lat":38.2659415,"long":140.8469591,"status":1.0,"note":null,"address":"仙台市青葉区角五郎二丁目１５番内","row_num":103},{"area_id":1,"name":"牛越橋北側","lat":38.2705963,"long":140.8413511,"status":1.0,"note":null,"address":"仙台市青葉区八幡五丁目１番内","row_num":104},{"area_id":1,"name":"聖橋南側","lat":38.2686811,"long":140.8336219,"status":1.0,"note":null,"address":"仙台市青葉区八幡六丁目１１番先","row_num":105},{"area_id":1,"name":"仙台市北五番丁公園南側","lat":38.2717062,"long":140.8556184,"status":1.0,"note":null,"address":"仙台市青葉区柏木二丁目３番内","row_num":106},{"area_id":1,"name":"八幡二丁目1番12号東側","lat":38.2723424,"long":140.8515499,"status":0.0,"note":null,"address":"仙台市青葉区八幡二丁目1番先","row_num":107},{"area_id":1,"name":"八幡一丁目2番12号東側","lat":38.2689965,"long":140.8549148,"status":0.0,"note":null,"address":"仙台市青葉区八幡一丁目2番先","row_num":108},{"area_id":1,"name":"仙台市立八幡小学校西側","lat":38.2715553,"long":140.853015,"status":1.0,"note":null,"address":"仙台市青葉区八幡二丁目９番１号","row_num":109},{"area_id":1,"name":"晃福ハイツ南側","lat":38.2713839,"long":140.8483538,"status":0.0,"note":null,"address":"仙台市青葉区八幡四丁目１０番１号","row_num":110},{"area_id":1,"name":"仙台市立第一中学校東側","lat":38.2720393,"long":140.8460624,"status":0.0,"note":null,"address":"仙台市青葉区八幡四丁目１６番１号","row_num":111},{"area_id":1,"name":"仙台市北六番丁市営住宅北側","lat":38.2722203,"long":140.8555238,"status":1.0,"note":null,"address":"仙台市青葉区柏木二丁目3番48号","row_num":112},{"area_id":1,"name":"東北電力八幡アパート１号棟北側","lat":38.2730038,"long":140.8516701,"status":1.0,"note":null,"address":"仙台市青葉区八幡二丁目１２番４号","row_num":113},{"area_id":1,"name":"東北大学昭和舎跡地西側","lat":38.2762401,"long":140.8585784,"status":1.0,"note":null,"address":"仙台市青葉区柏木三丁目１番１７号","row_num":114},{"area_id":1,"name":"東北大学加齢医学研究所北側","lat":38.2742253,"long":140.8603138,"status":0.0,"note":null,"address":"仙台市青葉区星陵町４番１号","row_num":115},{"area_id":1,"name":"仙台市柏木市民センター南側","lat":38.2767156,"long":140.8599714,"status":1.0,"note":null,"address":"仙台市青葉区柏木三丁目３番１号","row_num":116},{"area_id":1,"name":"県営新坂住宅東側","lat":38.276451,"long":140.8538057,"status":1.0,"note":null,"address":"仙台市青葉区柏木三丁目６番３号","row_num":117},{"area_id":1,"name":"仙台市北山市民センター東側","lat":38.2782237,"long":140.8548266,"status":1.0,"note":null,"address":"仙台市青葉区新坂町８番内","row_num":118},{"area_id":1,"name":"八雲神社南側","lat":38.2753162,"long":140.8545163,"status":1.0,"note":null,"address":"仙台市青葉区柏木三丁目５番１６号","row_num":119},{"area_id":1,"name":"東北大学昭和舎跡地南側","lat":38.2762401,"long":140.8585784,"status":1.0,"note":null,"address":"仙台市青葉区柏木三丁目１番１７号","row_num":120},{"area_id":1,"name":"仙台市立三条中学校東側","lat":38.2806096,"long":140.8536388,"status":1.0,"note":null,"address":"仙台市青葉区三条町３番１号","row_num":121},{"area_id":1,"name":"仙台市立三条中学校西側","lat":38.2806096,"long":140.8536388,"status":1.0,"note":null,"address":"仙台市青葉区三条町３番１号","row_num":122},{"area_id":1,"name":"三条町バス停南側","lat":38.2808126,"long":140.8526802,"status":1.0,"note":null,"address":"仙台市青葉区三条町１７番内","row_num":123},{"area_id":1,"name":"東北大学国際交流会館西側","lat":38.2787595,"long":140.8507024,"status":0.0,"note":null,"address":"仙台市青葉区三条町１９番１号","row_num":124},{"area_id":1,"name":"仙台市北山霊園西側入口付近","lat":38.2837539,"long":140.8543189,"status":0.0,"note":null,"address":"仙台市青葉区北山二丁目１０番内","row_num":125},{"area_id":1,"name":"仙台市亀ケ岡公園南西側","lat":38.268195,"long":140.869418,"status":0.0,"note":null,"address":"仙台市青葉区北山三丁目３番内","row_num":126},{"area_id":1,"name":"仙台市菊田山公園西側","lat":38.2845419,"long":140.8472614,"status":0.0,"note":null,"address":"仙台市青葉区菊田町７番内","row_num":127},{"area_id":1,"name":"仙台市立国見小学校北側","lat":38.2770519,"long":140.8444456,"status":1.0,"note":null,"address":"仙台市青葉区国見二丁目１６番１号","row_num":128},{"area_id":1,"name":"仙台市立国見小学校南側","lat":38.2770519,"long":140.8444456,"status":1.0,"note":null,"address":"仙台市青葉区国見二丁目１６番１号","row_num":129},{"area_id":1,"name":"国見四丁目バス停東側","lat":38.2735368,"long":140.8429886,"status":0.0,"note":null,"address":"仙台市青葉区国見三丁目１１番内","row_num":130},{"area_id":1,"name":"仙台市水道局荒巻配水所南側","lat":38.2735368,"long":140.8429886,"status":0.0,"note":null,"address":"仙台市青葉区国見三丁目６番内","row_num":131},{"area_id":1,"name":"仙台市国見コミュニティ広場南側","lat":38.2738733,"long":140.8380501,"status":0.0,"note":null,"address":"仙台市青葉区国見五丁目９番内","row_num":132},{"area_id":1,"name":"仙台市水道局国見浄水場南側","lat":38.2786127,"long":140.8312053,"status":0.0,"note":null,"address":"仙台市青葉区国見六丁目１２番内","row_num":133},{"area_id":1,"name":"国見第二駐車場南側","lat":38.2786127,"long":140.8312053,"status":0.0,"note":null,"address":"仙台市青葉区国見六丁目４０番内","row_num":134},{"area_id":1,"name":"国見六丁目７８番内北側","lat":38.2786127,"long":140.8312053,"status":0.0,"note":null,"address":"仙台市青葉区国見六丁目７８番内","row_num":135},{"area_id":1,"name":"仙台市立貝森小学校跡施設南側","lat":38.2866483,"long":140.8392603,"status":1.0,"note":null,"address":"仙台市青葉区貝ケ森五丁目６番１号","row_num":136},{"area_id":1,"name":"仙台市貝ケ森１号公園南側","lat":38.2863498,"long":140.8410017,"status":1.0,"note":null,"address":"仙台市青葉区貝ケ森五丁目４番内","row_num":137},{"area_id":1,"name":"貝ケ森三丁目調整池北側","lat":38.2845964,"long":140.8419701,"status":1.0,"note":null,"address":"仙台市青葉区貝ケ森三丁目３番内","row_num":138},{"area_id":1,"name":"仙台市貝ケ森中央公園東側","lat":38.282536,"long":140.8430105,"status":1.0,"note":null,"address":"仙台市青葉区貝ケ森一丁目３２番内","row_num":139},{"area_id":1,"name":"仙台市貝ケ森市民センター東側","lat":38.2815132,"long":140.8424171,"status":1.0,"note":null,"address":"仙台市青葉区貝ケ森一丁目４番６号","row_num":140},{"area_id":1,"name":"仙台市貝ケ森３号公園南側","lat":38.2814191,"long":140.8392397,"status":1.0,"note":null,"address":"仙台市青葉区貝ケ森三丁目２８番内","row_num":141},{"area_id":1,"name":"仙台市貝ケ森メープル公園北側","lat":38.2815277,"long":140.8443576,"status":0.0,"note":null,"address":"仙台市青葉区貝ケ森六丁目２９番内","row_num":142},{"area_id":1,"name":"仙台市立中山小学校西側","lat":38.2920393,"long":140.85,"status":0.0,"note":null,"address":"仙台市青葉区中山一丁目６番１号","row_num":143},{"area_id":1,"name":"仙台市立中山小学校南側","lat":38.2920393,"long":140.85,"status":0.0,"note":null,"address":"仙台市青葉区中山一丁目６番１号","row_num":144},{"area_id":1,"name":"仙台市たきみち公園西側","lat":38.2919377,"long":140.8527837,"status":0.0,"note":null,"address":"仙台市青葉区滝道８番内","row_num":145},{"area_id":1,"name":"ふれあいパーク北側","lat":38.293254,"long":140.8493554,"status":0.0,"note":null,"address":"仙台市青葉区滝道３３番内","row_num":146},{"area_id":1,"name":"仙台市川平一丁目公園東側","lat":38.3049101,"long":140.8396899,"status":0.0,"note":null,"address":"仙台市青葉区川平一丁目１５番内","row_num":147},{"area_id":1,"name":"中山二丁目４１番内北側","lat":38.2887487,"long":140.8437695,"status":0.0,"note":null,"address":"仙台市青葉区中山二丁目４１番内","row_num":148},{"area_id":1,"name":"認定こども園TOBINOKO南側","lat":38.2881835,"long":140.8464041,"status":0.0,"note":null,"address":"仙台市青葉区中山二丁目１７番１号","row_num":149},{"area_id":1,"name":"仙台市中山山の神公園南側","lat":38.2882472,"long":140.8413893,"status":0.0,"note":null,"address":"仙台市青葉区中山二丁目３２番内","row_num":150},{"area_id":1,"name":"仙台市立中山中学校西側","lat":38.2969071,"long":140.8397345,"status":0.0,"note":null,"address":"仙台市青葉区中山六丁目１６番１号","row_num":151},{"area_id":1,"name":"仙台市中山市民センター入口付近","lat":38.2918866,"long":140.8371348,"status":0.0,"note":null,"address":"仙台市青葉区中山三丁目１３番１号","row_num":152},{"area_id":1,"name":"仙台市水道局中山第一配水所東側","lat":38.2943058,"long":140.8357606,"status":0.0,"note":null,"address":"仙台市青葉区中山七丁目１番内","row_num":153},{"area_id":1,"name":"仙台市うどう沼公園北側","lat":38.2940737,"long":140.8335121,"status":0.0,"note":null,"address":"仙台市青葉区中山三丁目２０番内","row_num":154},{"area_id":1,"name":"仙台市中山公園東側","lat":38.2965685,"long":140.8340014,"status":0.0,"note":null,"address":"仙台市青葉区中山七丁目２１番内","row_num":155},{"area_id":1,"name":"仙台市中山北公園東側","lat":38.2969792,"long":140.8294568,"status":0.0,"note":null,"address":"仙台市青葉区中山八丁目３４番内","row_num":156},{"area_id":1,"name":"仙台市すぎとや西公園南側","lat":38.2997269,"long":140.8311827,"status":0.0,"note":null,"address":"仙台市青葉区中山九丁目４番内","row_num":157},{"area_id":1,"name":"仙台市西勝山公園北側","lat":38.2984524,"long":140.8380682,"status":0.0,"note":null,"address":"仙台市青葉区西勝山５番内","row_num":158},{"area_id":1,"name":"仙台市立川平小学校北側","lat":38.30581,"long":140.8383824,"status":0.0,"note":null,"address":"仙台市青葉区川平三丁目３６番１号","row_num":159},{"area_id":1,"name":"仙台市川平三丁目西公園西側","lat":38.3055157,"long":140.8397705,"status":0.0,"note":null,"address":"仙台市青葉区川平三丁目３５番内","row_num":160},{"area_id":1,"name":"仙台市川平市営住宅公園南側","lat":38.3049101,"long":140.8396899,"status":0.0,"note":null,"address":"仙台市青葉区川平五丁目１３番内","row_num":161},{"area_id":1,"name":"仙台市川平三丁目東公園南側","lat":38.3235569,"long":140.8883316,"status":0.0,"note":null,"address":"仙台市青葉区川平三丁目14番内","row_num":162},{"area_id":1,"name":"仙台市川平緑地西側","lat":38.3027404,"long":140.835661,"status":0.0,"note":null,"address":"仙台市青葉区川平四丁目１番内","row_num":163},{"area_id":1,"name":"仙台市川平北公園北側","lat":38.3049101,"long":140.8396899,"status":0.0,"note":null,"address":"仙台市青葉区川平四丁目９番内","row_num":164},{"area_id":1,"name":"仙台市川平四丁目公園東側","lat":38.3027404,"long":140.835661,"status":0.0,"note":null,"address":"仙台市青葉区川平四丁目３１番内","row_num":165},{"area_id":1,"name":"仙台市立桜丘小学校西側","lat":38.3032429,"long":140.8495324,"status":0.0,"note":null,"address":"仙台市青葉区桜ケ丘八丁目１番１号","row_num":166},{"area_id":1,"name":"仙台市桜ケ丘六丁目公園北側","lat":38.3026941,"long":140.8469905,"status":0.0,"note":null,"address":"仙台市青葉区桜ケ丘六丁目２３番内","row_num":167},{"area_id":1,"name":"仙台市桜ケ丘七丁目公園西側","lat":38.3052362,"long":140.8466935,"status":0.0,"note":null,"address":"仙台市青葉区桜ケ丘七丁目４番内","row_num":168},{"area_id":1,"name":"仙台市桜ケ丘公園野球場南側","lat":38.3055612,"long":140.8517938,"status":0.0,"note":null,"address":"仙台市青葉区桜ケ丘八丁目２番内","row_num":169},{"area_id":1,"name":"仙台市桜ケ丘四丁目公園西側","lat":38.3029689,"long":140.8521239,"status":0.0,"note":null,"address":"仙台市青葉区桜ケ丘四丁目１１番内","row_num":170},{"area_id":1,"name":"仙台市桜ケ丘三丁目公園西側","lat":38.3024551,"long":140.8557162,"status":0.0,"note":null,"address":"仙台市青葉区桜ケ丘三丁目３９番内","row_num":171},{"area_id":1,"name":"桜ケ丘団地入口バス停北側","lat":38.2979284,"long":140.8524719,"status":0.0,"note":null,"address":"仙台市青葉区桜ケ丘二丁目１７番内","row_num":172},{"area_id":1,"name":"県営桜ケ丘住宅１２号棟西側","lat":38.2963811,"long":140.8460412,"status":0.0,"note":null,"address":"仙台市青葉区桜ケ丘一丁目２７番１２号","row_num":173},{"area_id":1,"name":"仙台市立荒巻小学校(プール)西側","lat":38.2870474,"long":140.8597433,"status":0.0,"note":null,"address":"仙台市青葉区荒巻神明町１３番内","row_num":174},{"area_id":1,"name":"仙台市荒巻公園北側","lat":38.2866707,"long":140.8588584,"status":0.0,"note":null,"address":"仙台市青葉区荒巻神明町１２番内","row_num":175},{"area_id":1,"name":"山手町１番内東側（山手町バス停南側）","lat":38.2869484,"long":140.852253,"status":0.0,"note":null,"address":"仙台市青葉区山手町１番内","row_num":176},{"area_id":1,"name":"ヨークベニマル荒巻店東側","lat":38.2899746,"long":140.8526568,"status":0.0,"note":null,"address":"仙台市青葉区荒巻本沢二丁目１２番先","row_num":177},{"area_id":1,"name":"仙台市荒巻中央西公園東側","lat":38.2907229,"long":140.8578517,"status":0.0,"note":null,"address":"仙台市青葉区荒巻中央１５番内","row_num":178},{"area_id":1,"name":"仙台市山手町２号公園西側","lat":38.2882689,"long":140.8532255,"status":0.0,"note":null,"address":"仙台市青葉区山手町２３番内","row_num":179},{"area_id":1,"name":"仙台市荒巻学校給食センター対向","lat":38.2899746,"long":140.8526568,"status":0.0,"note":null,"address":"仙台市青葉区荒巻本沢二丁目６番先","row_num":180},{"area_id":1,"name":"ビバホーム荒巻店西側","lat":38.2899746,"long":140.8526568,"status":0.0,"note":null,"address":"仙台市青葉区荒巻本沢二丁目１番先","row_num":181},{"area_id":1,"name":"仙台市立北仙台中学校北側","lat":38.2932945,"long":140.8637775,"status":0.0,"note":null,"address":"仙台市青葉区東勝山二丁目３１番１号","row_num":182},{"area_id":1,"name":"仙台市東勝山二丁目公園西側","lat":38.3292179,"long":140.8785148,"status":1.0,"note":"住所相違あり","address":"仙台市青葉区東勝山二丁目３３番内","row_num":183},{"area_id":1,"name":"仙台市勝山南公園北側","lat":38.2935924,"long":140.8646885,"status":0.0,"note":null,"address":"仙台市青葉区東勝山二丁目２８番内","row_num":184},{"area_id":1,"name":"東勝山一丁目２５番内南側","lat":38.2984351,"long":140.8718604,"status":0.0,"note":null,"address":"仙台市青葉区東勝山一丁目２５番内","row_num":185},{"area_id":1,"name":"東勝山団地入口バス停（勝山橋)南側","lat":38.2967947,"long":140.8735104,"status":0.0,"note":null,"address":"仙台市青葉区藤松５番内","row_num":186},{"area_id":1,"name":"仙台市藤松保存緑地北側","lat":38.2931138,"long":140.8692784,"status":0.0,"note":null,"address":"仙台市青葉区鷺ケ森一丁目４番内","row_num":187},{"area_id":1,"name":"仙台市水の森一丁目公園東側","lat":38.2897389,"long":140.866399,"status":0.0,"note":null,"address":"仙台市青葉区鷺ケ森一丁目３７番内","row_num":188},{"area_id":1,"name":"クローバーズ・ピアワッセ西側","lat":38.3045871,"long":140.8801641,"status":0.0,"note":null,"address":"仙台市青葉区北根黒松２番先","row_num":189},{"area_id":1,"name":"森林公園大橋南側脇","lat":38.3045871,"long":140.8801641,"status":0.0,"note":null,"address":"仙台市青葉区北根黒松１８番内","row_num":190},{"area_id":1,"name":"北根三丁目バス停南側","lat":38.2998704,"long":140.8776619,"status":0.0,"note":null,"address":"仙台市青葉区北根三丁目１３番内","row_num":191},{"area_id":1,"name":"県道仙台泉線北根橋東側","lat":38.2998704,"long":140.8776619,"status":0.0,"note":null,"address":"仙台市青葉区北根三丁目２０番内","row_num":192},{"area_id":1,"name":"黒松団地入口バス停東側","lat":38.2998704,"long":140.8776619,"status":0.0,"note":null,"address":"仙台市青葉区北根三丁目２２番内","row_num":193},{"area_id":1,"name":"双葉ケ丘橋北側","lat":38.3036726,"long":140.8756782,"status":0.0,"note":null,"address":"仙台市青葉区双葉ケ丘一丁目３番先","row_num":194},{"area_id":1,"name":"仙台市北根黒松北公園東側","lat":38.306019,"long":140.8810354,"status":0.0,"note":null,"address":"仙台市青葉区北根黒松４番内","row_num":195},{"area_id":1,"name":"仙台市立台原小学校西側","lat":38.2867625,"long":140.8800747,"status":3.0,"note":"にゃんこ","address":"仙台市青葉区台原五丁目１６番１号","row_num":196},{"area_id":1,"name":"瞑想の松バス停東側","lat":38.2896766,"long":140.8837733,"status":0.0,"note":null,"address":"仙台市青葉区旭ケ丘一丁目２４番内","row_num":197},{"area_id":1,"name":"みやぎ生活協同組合台原店西側","lat":38.2822343,"long":140.8772376,"status":1.0,"note":null,"address":"仙台市青葉区台原五丁目１番２号","row_num":198},{"area_id":1,"name":"仙台市台原児童館北側","lat":38.2841829,"long":140.8789112,"status":1.0,"note":"にゃんこ","address":"仙台市青葉区台原五丁目２番５号","row_num":199},{"area_id":1,"name":"仙台市台原四丁目北公園南側","lat":38.2871939,"long":140.8780799,"status":3.0,"note":"にゃんこ","address":"仙台市青葉区台原森林公園１番内","row_num":200},{"area_id":1,"name":"仙台市台原コミュニティ・センター西側","lat":38.2892824,"long":140.8788352,"status":1.0,"note":null,"address":"仙台市青葉区台原森林公園１番３号","row_num":201},{"area_id":1,"name":"仙台市台原自転車保管所東側","lat":38.2887711,"long":140.8785789,"status":1.0,"note":null,"address":"仙台市青葉区台原森林公園１番内","row_num":202},{"area_id":1,"name":"青葉消防団小松島分団機械器具置場南側","lat":38.2665983,"long":140.8300461,"status":1.0,"note":null,"address":"仙台市青葉区旭ケ丘一丁目３１番内","row_num":203},{"area_id":1,"name":"台原二丁目８番内（一本杉橋）南西側","lat":38.2855126,"long":140.8732457,"status":0.0,"note":null,"address":"仙台市青葉区台原二丁目８番内","row_num":204},{"area_id":1,"name":"仙台市立旭丘小学校東側","lat":38.2964818,"long":140.8864197,"status":1.0,"note":null,"address":"仙台市青葉区旭ケ丘三丁目２７番１号","row_num":205},{"area_id":1,"name":"仙台市旭ケ丘市民センタ－南側","lat":38.2955291,"long":140.884169,"status":0.0,"note":null,"address":"仙台市青葉区旭ケ丘三丁目２５番１５号","row_num":206},{"area_id":1,"name":"日立システムズホール仙台北側","lat":38.2965211,"long":140.8844119,"status":1.0,"note":null,"address":"仙台市青葉区旭ケ丘三丁目２７番５号","row_num":207},{"area_id":1,"name":"仙台市旭ケ丘市民センタ－西側","lat":38.2955291,"long":140.884169,"status":1.0,"note":null,"address":"仙台市青葉区旭ケ丘三丁目２５番１５号","row_num":208},{"area_id":1,"name":"旭ケ丘三丁目３１番内西側","lat":38.2665983,"long":140.8300461,"status":1.0,"note":null,"address":"仙台市青葉区旭ケ丘三丁目３１番内","row_num":209},{"area_id":1,"name":"旭ケ丘一丁目２１番内（台原南小泉線北側）","lat":38.2896766,"long":140.8837733,"status":0.0,"note":null,"address":"仙台市青葉区旭ケ丘一丁目２１番内","row_num":210},{"area_id":1,"name":"仙台市科学館前バス停東側","lat":38.2998824,"long":140.8863892,"status":0.0,"note":null,"address":"仙台市青葉区旭ケ丘四丁目３４番内","row_num":211},{"area_id":1,"name":"旭ケ丘四丁目１０番内北側","lat":38.2998824,"long":140.8863892,"status":0.0,"note":null,"address":"仙台市青葉区旭ケ丘四丁目１０番内","row_num":212},{"area_id":1,"name":"仙台市立小松島小学校東側","lat":38.2808209,"long":140.8891296,"status":0.0,"note":null,"address":"仙台市青葉区小松島二丁目１番１号","row_num":213},{"area_id":1,"name":"仙台市立小松島小学校南側","lat":38.2808209,"long":140.8891296,"status":1.0,"note":null,"address":"仙台市青葉区小松島二丁目１番１号","row_num":214},{"area_id":1,"name":"仙台市小松島四丁目公園南側","lat":38.2880153,"long":140.8878867,"status":0.0,"note":null,"address":"仙台市青葉区小松島四丁目１４番内","row_num":215},{"area_id":1,"name":"仙台市小松島公園（小松島南光センター前）","lat":38.2859532,"long":140.8882963,"status":1.0,"note":null,"address":"仙台市青葉区小松島四丁目５番内","row_num":216},{"area_id":1,"name":"仙台市東照宮二丁目公園入口","lat":38.27777,"long":140.8855649,"status":1.0,"note":null,"address":"仙台市青葉区東照宮二丁目１番内","row_num":217},{"area_id":1,"name":"特別養護老人ホーム シオンの園南側","lat":38.2852811,"long":140.8922824,"status":0.0,"note":null,"address":"仙台市青葉区小松島新堤７番１号","row_num":218},{"area_id":1,"name":"宮城県立小松島支援学校北東先","lat":38.2858871,"long":140.8944799,"status":0.0,"note":null,"address":"仙台市青葉区小松島新堤４番内","row_num":219},{"area_id":1,"name":"仙台市小松島市営住宅南側","lat":38.2807245,"long":140.8961062,"status":0.0,"note":null,"address":"仙台市青葉区高松三丁目１７番３０号","row_num":220},{"area_id":1,"name":"広瀬文化センター北側","lat":38.2686354,"long":140.7641587,"status":1.0,"note":null,"address":"仙台市青葉区下愛子字観音堂５番地の1","row_num":221},{"area_id":1,"name":"仙台市立愛子小学校前","lat":38.2684178,"long":140.7585769,"status":1.0,"note":null,"address":"仙台市青葉区上愛子字新宮前1番地の２地内","row_num":222},{"area_id":1,"name":"宮城総合支所・愛子小学校バス停西側","lat":38.2676401,"long":140.7587414,"status":0.0,"note":null,"address":"仙台市青葉区上愛子字新宮前１７番地の２地内","row_num":223},{"area_id":1,"name":"HOTEL MUSEE愛子店南側457号線沿","lat":38.2722603,"long":140.7581023,"status":0.0,"note":null,"address":"仙台市青葉区愛子中央六丁目１４９番地の２地先","row_num":224},{"area_id":1,"name":"ＪＲ仙山線愛子駅南口自転車駐車場フェンス","lat":38.2728359,"long":140.7631614,"status":1.0,"note":null,"address":"仙台市青葉区愛子中央一丁目２０１番地の１","row_num":225},{"area_id":1,"name":"仙台市立広瀬中学校東側","lat":38.261827,"long":140.880183,"status":1.0,"note":null,"address":"仙台市青葉区愛子中央一丁目１０７","row_num":226},{"area_id":1,"name":"仙台市上原公園東側","lat":38.274375,"long":140.7573937,"status":1.0,"note":null,"address":"仙台市青葉区愛子中央三丁目２７番内（２３番地の３７）","row_num":227},{"area_id":1,"name":"仙台市立広瀬中学校西側","lat":38.273006,"long":140.7619065,"status":1.0,"note":null,"address":"仙台市青葉区愛子中央一丁目９番１号","row_num":228},{"area_id":1,"name":"仙台市宮城広瀬体育館西側","lat":38.2738455,"long":140.7361036,"status":6.0,"note":null,"address":"仙台市青葉区上愛子字松原４４番地の１","row_num":229},{"area_id":1,"name":"仙台市宮城広瀬グラウンド南側","lat":38.2741007,"long":140.7387336,"status":1.0,"note":null,"address":"仙台市青葉区上愛子字松原３９番地の１","row_num":230},{"area_id":1,"name":"仙台高等専門学校（入口）","lat":38.2739963,"long":140.745871,"status":1.0,"note":null,"address":"仙台市青葉区上愛子字街道99番地の2地先","row_num":231},{"area_id":1,"name":"二岩町内会集会所","lat":38.2722195,"long":140.7442859,"status":1.0,"note":null,"address":"仙台市青葉区上愛子字車４６番地の１","row_num":232},{"area_id":1,"name":"仙台市北内南公園","lat":38.2707884,"long":140.7506649,"status":0.0,"note":null,"address":"仙台市青葉区上愛子字北内３番地の１４地内","row_num":233},{"area_id":1,"name":"愛子観光バス（株）向","lat":38.2693786,"long":140.7346249,"status":0.0,"note":null,"address":"仙台市青葉区上愛子字大岩１番地の２","row_num":234},{"area_id":1,"name":"仙台市松原公園西側","lat":38.2714724,"long":140.7354739,"status":1.0,"note":null,"address":"仙台市青葉区上愛子字松原４７番地の１０","row_num":235},{"area_id":1,"name":"松原バス停東側","lat":38.2714864,"long":140.7290071,"status":1.0,"note":null,"address":"仙台市青葉区上愛子字松原９番地の１","row_num":236},{"area_id":1,"name":"仙台市交通局白沢出張所","lat":38.2753086,"long":140.7139673,"status":0.0,"note":null,"address":"仙台市青葉区上愛子字下十三枚田30番地の１","row_num":237},{"area_id":1,"name":"赤生木集会所","lat":38.2792364,"long":140.7021313,"status":0.0,"note":null,"address":"仙台市青葉区上愛子字大道３３番地の２","row_num":238},{"area_id":1,"name":"大針バス停","lat":38.2777805,"long":140.7085932,"status":0.0,"note":null,"address":"仙台市青葉区上愛子字大道２番地の２","row_num":239},{"area_id":1,"name":"上愛子字大針２番地","lat":38.2740647,"long":140.7087611,"status":0.0,"note":null,"address":"仙台市青葉区上愛子字大針２番地先","row_num":240},{"area_id":1,"name":"ＪＲ仙山線第２赤生木踏切南側","lat":38.2780365,"long":140.6990494,"status":0.0,"note":null,"address":"仙台市青葉区上愛子字赤生木３５番地の３","row_num":241},{"area_id":1,"name":"上愛子字白沢３８番地","lat":38.2863612,"long":140.6904171,"status":0.0,"note":null,"address":"仙台市青葉区上愛子字白沢３８番地","row_num":242},{"area_id":1,"name":"上愛子字白沢８番地の10地先","lat":38.2849267,"long":140.6908637,"status":0.0,"note":null,"address":"仙台市青葉区上愛子字白沢８番地の６５地先","row_num":243},{"area_id":1,"name":"国道４８号線(熊ヶ根橋)南側","lat":38.2880754,"long":140.6887425,"status":0.0,"note":null,"address":"仙台市青葉区上愛子字道半３６番地の５","row_num":244},{"area_id":1,"name":"宮城西市民センター東側","lat":38.2990509,"long":140.6843662,"status":0.0,"note":null,"address":"仙台市青葉区熊ケ根字石積４７番地","row_num":245},{"area_id":1,"name":"熊ヶ根橋バス停西側","lat":38.2925993,"long":140.6866072,"status":0.0,"note":null,"address":"仙台市青葉区熊ケ根字町一番の四番地先","row_num":246},{"area_id":1,"name":"熊ケ根字町二番４７番地","lat":38.2937933,"long":140.6894399,"status":0.0,"note":null,"address":"仙台市青葉区熊ケ根字町二番４７番地","row_num":247},{"area_id":1,"name":"熊ケ根字関一番２番地の３地先（店舗)東側","lat":38.3026651,"long":140.6729507,"status":0.0,"note":null,"address":"仙台市青葉区熊ケ根字関一番２番地の３地先","row_num":248},{"area_id":1,"name":"大手門集会所","lat":38.3073274,"long":140.6896613,"status":0.0,"note":null,"address":"仙台市青葉区大倉字新田５番地の４","row_num":249},{"area_id":1,"name":"新川生活センター西側","lat":38.3046815,"long":140.6393557,"status":0.0,"note":null,"address":"仙台市青葉区新川字清水尻３２番地の６地先","row_num":250},{"area_id":1,"name":"旧仙台市立作並小学校新川分校北側","lat":38.3030129,"long":140.6306022,"status":0.0,"note":null,"address":"仙台市青葉区新川字中屋敷４６番地の２地先","row_num":251},{"area_id":1,"name":"仙台市新川団地１号公園","lat":38.3064271,"long":140.6295852,"status":0.0,"note":null,"address":"仙台市青葉区作並字岩谷堂西１６番地の１０３","row_num":252},{"area_id":1,"name":"新川字佐手山５番地の845向","lat":38.298969,"long":140.654479,"status":0.0,"note":null,"address":"仙台市青葉区新川字佐手山５番地の84５地先","row_num":253},{"area_id":1,"name":"旧仙台市立作並小学校北側","lat":38.3170839,"long":140.6360463,"status":0.0,"note":null,"address":"仙台市青葉区作並字北子原5番地の１0地内","row_num":254},{"area_id":1,"name":"仙台ハイランド入口","lat":38.3082054,"long":140.6630679,"status":0.0,"note":null,"address":"仙台市青葉区作並字棒目木５番地の１","row_num":255},{"area_id":1,"name":"作並川崎バス停東側","lat":38.3094024,"long":140.6569384,"status":0.0,"note":null,"address":"仙台市青葉区作並字川崎７番地内","row_num":256},{"area_id":1,"name":"ニッカウヰスキー工場（ニッカ橋)南側","lat":38.3119917,"long":140.6473443,"status":0.0,"note":null,"address":"仙台市青葉区作並字小坂東１２番地の４地内","row_num":257},{"area_id":1,"name":"作並宿バス停西側","lat":38.3193331,"long":140.6239664,"status":0.0,"note":null,"address":"仙台市青葉区作並字檀ノ原１０番地の４","row_num":258},{"area_id":1,"name":"湯のまち作並観光交流館ラサンタ","lat":38.330708,"long":140.6159037,"status":0.0,"note":null,"address":"仙台市青葉区作並字元木２番地の７","row_num":259},{"area_id":1,"name":"定義交流センター","lat":38.3625015,"long":140.6715436,"status":0.0,"note":null,"address":"仙台市青葉区大倉字久保１番地の10","row_num":260},{"area_id":1,"name":"大倉字赤坂3番地の１地先","lat":38.3663702,"long":140.6662908,"status":0.0,"note":null,"address":"仙台市青葉区大倉字赤坂3番地の１地先","row_num":261},{"area_id":1,"name":"白木集会所","lat":38.3876357,"long":140.6458488,"status":0.0,"note":null,"address":"仙台市青葉区大倉字東菖蒲沼３番地の１","row_num":262},{"area_id":1,"name":"宮城消防団大倉分団白木支部東側","lat":38.355859,"long":140.7141481,"status":0.0,"note":null,"address":"仙台市青葉区大倉字向田１６番地の３０地先","row_num":263},{"area_id":1,"name":"大倉日向集会所入口","lat":38.3329589,"long":140.6999527,"status":0.0,"note":null,"address":"仙台市青葉区大倉字神明前１２番地先","row_num":264},{"area_id":1,"name":"栗生上バス停","lat":38.3351445,"long":140.6877594,"status":0.0,"note":null,"address":"仙台市青葉区大倉字栗生２３番地の２","row_num":265},{"area_id":1,"name":"仙台市水道局大倉送水ポンプ場","lat":38.352732,"long":140.6833218,"status":0.0,"note":null,"address":"仙台市青葉区大倉字伊呂波１６番地の１","row_num":266},{"area_id":1,"name":"宮城消防団大倉分団日向部","lat":38.336035,"long":140.6967866,"status":0.0,"note":null,"address":"仙台市青葉区大倉字薬師12番地先","row_num":267},{"area_id":1,"name":"小原バス停北側","lat":38.3025551,"long":140.7022366,"status":0.0,"note":null,"address":"仙台市青葉区大倉字一本木3番地の1地内","row_num":268},{"area_id":1,"name":"宮城消防団大倉分団下倉部南側","lat":38.3143421,"long":140.7049109,"status":0.0,"note":null,"address":"仙台市青葉区大倉字新山12番地の4","row_num":269},{"area_id":1,"name":"特別養護老人ホーム思行園入口","lat":38.2938005,"long":140.6961122,"status":0.0,"note":null,"address":"仙台市青葉区大倉字大原新田２１番地の２地先","row_num":270},{"area_id":1,"name":"西川前集会所","lat":38.2917483,"long":140.7061682,"status":1.0,"note":null,"address":"仙台市青葉区芋沢字宅地９３番地","row_num":271},{"area_id":1,"name":"芋沢字二尺木8番地東側","lat":38.2802669,"long":140.7068163,"status":1.0,"note":null,"address":"仙台市青葉区芋沢字二尺木４４番地の１地先","row_num":272},{"area_id":1,"name":"芋沢字柿崎南16番地の１斜向（明照庵）","lat":38.2756481,"long":140.7211674,"status":1.0,"note":null,"address":"仙台市青葉区芋沢字柿崎南５番地の２地内","row_num":273},{"area_id":1,"name":"青野木集落センター向","lat":38.2939165,"long":140.7310304,"status":1.0,"note":null,"address":"仙台市青葉区芋沢字沢田下３５番地の５地先","row_num":274},{"area_id":1,"name":"青野木中バス停","lat":38.2871471,"long":140.7226678,"status":0.0,"note":null,"address":"仙台市青葉区芋沢字青野木２３０番地先","row_num":275},{"area_id":1,"name":"千代福祉会ますみ学園東側","lat":38.2871471,"long":140.7226678,"status":0.0,"note":null,"address":"仙台市青葉区芋沢字青野木６６５番地先","row_num":276},{"area_id":1,"name":"芋沢字青野木359番地の10地先","lat":38.2824247,"long":140.7223998,"status":0.0,"note":null,"address":"仙台市青葉区芋沢字青野木３５９番地の１０地先","row_num":277},{"area_id":1,"name":"畑前バス停東側","lat":38.2871471,"long":140.7226678,"status":0.0,"note":null,"address":"仙台市青葉区芋沢字青野木６９番地の１","row_num":278},{"area_id":1,"name":"仙台市立川前小学校南東法面","lat":38.2893387,"long":140.74612,"status":0.0,"note":null,"address":"仙台市青葉区芋沢字赤坂１６番地の１","row_num":279},{"area_id":1,"name":"仙台市赤坂３号公園西側","lat":38.2926557,"long":140.7458152,"status":0.0,"note":null,"address":"仙台市青葉区赤坂三丁目３番地の１","row_num":280},{"area_id":1,"name":"仙台市立大沢中学校南側","lat":38.2921539,"long":140.7501592,"status":0.0,"note":null,"address":"仙台市青葉区赤坂一丁目２番地の１","row_num":281},{"area_id":1,"name":"赤坂ニュータウン集会所","lat":38.2928485,"long":140.7512901,"status":0.0,"note":null,"address":"仙台市青葉区赤坂一丁目１４番地の９","row_num":282},{"area_id":1,"name":"仙台市高野原四丁目公園西側","lat":38.2901387,"long":140.7574768,"status":0.0,"note":null,"address":"仙台市青葉区高野原四丁目３番内(3番地の8)","row_num":283},{"area_id":1,"name":"芋沢字大勝草上野原95番地の２地先","lat":38.2800905,"long":140.7777274,"status":1.0,"note":null,"address":"仙台市青葉区芋沢字大勝草上野原95番地の２地先","row_num":284},{"area_id":1,"name":"二本松バス停西側","lat":38.2840006,"long":140.767449,"status":1.0,"note":null,"address":"仙台市青葉区芋沢字大竹原２５番地の１","row_num":285},{"area_id":1,"name":"仙台市水道局中原浄水場東側","lat":38.2816393,"long":140.7593339,"status":1.0,"note":null,"address":"仙台市青葉区芋沢字花坂上野原１３番地の３地先","row_num":286},{"area_id":1,"name":"高野原集会所南側","lat":38.2880505,"long":140.7698349,"status":0.0,"note":null,"address":"仙台市青葉区高野原二丁目１２番地１","row_num":287},{"area_id":1,"name":"仙台市立大沢小学校西側","lat":38.3004824,"long":140.7742758,"status":0.0,"note":null,"address":"仙台市青葉区芋沢字長坂１番地の３","row_num":288},{"area_id":1,"name":"芋沢唄坂バス停","lat":38.2969024,"long":140.7775441,"status":0.0,"note":null,"address":"仙台市青葉区芋沢字唄坂１１番地の１","row_num":289},{"area_id":1,"name":"長泉寺前バス停西側","lat":38.292248,"long":140.7831631,"status":0.0,"note":null,"address":"仙台市青葉区芋沢字鹿野１２番地の２地内","row_num":290},{"area_id":1,"name":"横前バス停西側","lat":38.2925345,"long":140.760765,"status":0.0,"note":null,"address":"仙台市青葉区芋沢字横前39番地の2地内","row_num":291},{"area_id":1,"name":"芋沢平バス停東側","lat":38.3028099,"long":140.7714654,"status":0.0,"note":null,"address":"仙台市青葉区芋沢字平4番地の２地先","row_num":292},{"area_id":1,"name":"上区集会所北側","lat":38.3101277,"long":140.760037,"status":0.0,"note":null,"address":"仙台市青葉区芋沢字荒屋敷３６番地","row_num":293},{"area_id":1,"name":"塩野沢バス停","lat":38.3143821,"long":140.7810944,"status":0.0,"note":null,"address":"仙台市青葉区芋沢字塩野沢１５番地の３","row_num":294},{"area_id":1,"name":"みやぎ台集会所","lat":38.3111628,"long":140.7685949,"status":0.0,"note":null,"address":"仙台市青葉区みやぎ台三丁目２１番１号","row_num":295},{"area_id":1,"name":"みやぎ台入口バス停北側","lat":38.3050242,"long":140.7748738,"status":0.0,"note":null,"address":"仙台市青葉区みやぎ台一丁目９６番地の２０３地先","row_num":296},{"area_id":1,"name":"仙台市みやぎ台３号公園","lat":38.3064768,"long":140.7761875,"status":0.0,"note":null,"address":"仙台市青葉区みやぎ台一丁目２５番内(96番地の25)","row_num":297},{"area_id":1,"name":"仙台市みやぎ台１号公園南側","lat":38.3077043,"long":140.7716936,"status":0.0,"note":null,"address":"仙台市青葉区みやぎ台二丁目１４番内(96番地の336)","row_num":298},{"area_id":1,"name":"仙台市みやぎ台５号公園南側","lat":38.3091877,"long":140.7688727,"status":0.0,"note":null,"address":"仙台市青葉区みやぎ台三丁目１２番内(119番地の445)","row_num":299},{"area_id":1,"name":"仙台市みやぎ台５号公園北側","lat":38.3091877,"long":140.7688727,"status":0.0,"note":null,"address":"仙台市青葉区みやぎ台三丁目１２番内(119番地の445)","row_num":300},{"area_id":1,"name":"仙台市みやぎ台４号公園西側","lat":38.313905,"long":140.7658166,"status":0.0,"note":null,"address":"仙台市青葉区みやぎ台四丁目26番内（みやぎ台4丁目1番地の3）","row_num":301},{"area_id":1,"name":"仙台市みやぎ台２号公園","lat":38.3119212,"long":140.7656825,"status":0.0,"note":null,"address":"仙台市青葉区みやぎ台四丁目１６番内(1番地の123)","row_num":302},{"area_id":1,"name":"大竹集会所入口","lat":38.2819931,"long":140.7880793,"status":1.0,"note":null,"address":"仙台市青葉区芋沢字大竹中5番地","row_num":303},{"area_id":1,"name":"大竹バス停東側","lat":38.2798958,"long":140.7864171,"status":1.0,"note":null,"address":"仙台市青葉区芋沢字大竹１７番地の８地内","row_num":304},{"area_id":1,"name":"明仙橋西側","lat":38.2776191,"long":140.7918252,"status":1.0,"note":null,"address":"仙台市青葉区芋沢字大竹新田２０番地の１地先","row_num":305},{"area_id":1,"name":"大竹新田バス停北側","lat":38.2772769,"long":140.7915816,"status":1.0,"note":null,"address":"仙台市青葉区芋沢字大竹新田１０番地の２地先","row_num":306},{"area_id":1,"name":"芋沢字大竹南96番地８南側","lat":38.2775186,"long":140.7895185,"status":1.0,"note":null,"address":"仙台市青葉区芋沢字大竹南96番地8","row_num":307},{"area_id":1,"name":"仙台市南吉成四丁目公園","lat":38.2905288,"long":140.8153696,"status":0.0,"note":null,"address":"仙台市青葉区南吉成四丁目１６番内(16番地の3)","row_num":308},{"area_id":1,"name":"吉成集会所","lat":38.291991,"long":140.8192599,"status":1.0,"note":null,"address":"仙台市青葉区吉成二丁目１１番１６号","row_num":309},{"area_id":1,"name":"宮城総合支所吉成証明発行センタ－","lat":38.2907612,"long":140.8194975,"status":1.0,"note":null,"address":"仙台市青葉区吉成三丁目５番２８号","row_num":310},{"area_id":1,"name":"仙台市南吉成二丁目公園西側","lat":38.2851684,"long":140.8211579,"status":1.0,"note":null,"address":"仙台市青葉区南吉成二丁目８番内(8番地の3)","row_num":311},{"area_id":1,"name":"仙台市大石ケ原公園","lat":38.281917,"long":140.817212,"status":1.0,"note":null,"address":"仙台市青葉区南吉成七丁目９番内(9番地の5)","row_num":312},{"area_id":1,"name":"南吉成第二集会所","lat":38.2863963,"long":140.814443,"status":1.0,"note":null,"address":"仙台市青葉区南吉成四丁目１番地の３","row_num":313},{"area_id":1,"name":"南吉成第一集会所","lat":38.2842658,"long":140.8207761,"status":1.0,"note":null,"address":"仙台市青葉区南吉成二丁目９番地の１","row_num":314},{"area_id":1,"name":"仙台市南吉成コミュニティ・センター","lat":38.2992188,"long":140.8133535,"status":0.0,"note":null,"address":"仙台市青葉区中山台一丁目１０番地の５","row_num":315},{"area_id":1,"name":"仙台市中山台西公園","lat":38.3031561,"long":140.8118338,"status":0.0,"note":null,"address":"仙台市青葉区中山台西３０番内(30番地の１)","row_num":316},{"area_id":1,"name":"中山台四丁目15番地の17向","lat":38.2978005,"long":140.8094498,"status":0.0,"note":null,"address":"仙台市青葉区中山台四丁目17外","row_num":317},{"area_id":1,"name":"仙台市中山台二丁目公園(冒険公園）","lat":38.3016619,"long":140.8155713,"status":0.0,"note":null,"address":"仙台市青葉区中山台二丁目１８番内(18番地)","row_num":318},{"area_id":1,"name":"中山吉成1丁目17番地の23の2","lat":38.3016619,"long":140.8155713,"status":0.0,"note":null,"address":"仙台市青葉区中山台二丁目２２番内(22番地の11)","row_num":319},{"area_id":1,"name":"仙台市中山吉成一丁目公園南側","lat":38.2992291,"long":140.8193231,"status":0.0,"note":null,"address":"仙台市青葉区中山吉成一丁目１２番内(62番地の316)","row_num":320},{"area_id":1,"name":"仙台市中山吉成二丁目公園","lat":38.2970377,"long":140.8212581,"status":0.0,"note":null,"address":"仙台市青葉区中山吉成二丁目２番内(66番地の281)","row_num":321},{"area_id":1,"name":"郷六集会所","lat":38.2663511,"long":140.8161001,"status":1.0,"note":null,"address":"仙台市青葉区郷六字葛岡下２９番地","row_num":322},{"area_id":1,"name":"ＪＲ仙山線葛岡駅入口","lat":38.2672745,"long":140.8180648,"status":1.0,"note":null,"address":"仙台市青葉区郷六字葛岡下３２番地の５","row_num":323},{"area_id":1,"name":"ＪＲ仙山線葛岡駅（葛岡駐車場）","lat":38.268119,"long":140.8179329,"status":1.0,"note":null,"address":"仙台市青葉区郷六字葛岡下２６番地の６","row_num":324},{"area_id":1,"name":"花の店たんぽぽ斜向","lat":38.26537,"long":140.8194798,"status":1.0,"note":null,"address":"仙台市青葉区郷六字石山５８番地の２地内","row_num":325},{"area_id":1,"name":"コカ・コーラボトラーズジャパン（株）西隣","lat":38.2598432,"long":140.8199918,"status":1.0,"note":null,"address":"仙台市青葉区郷六字大霜５０番地の２","row_num":326},{"area_id":1,"name":"郷六字龍沢３４番地先（西仙台バッティングセンター)西側","lat":38.2691478,"long":140.8087697,"status":1.0,"note":null,"address":"仙台市青葉区郷六字龍沢３４番地先","row_num":327},{"area_id":1,"name":"（株）タカイ工業前","lat":38.2642923,"long":140.8157117,"status":1.0,"note":null,"address":"仙台市青葉区郷六字沼田８番地の３","row_num":328},{"area_id":1,"name":"仙台北環状線登り待避所","lat":38.2735689,"long":140.8155846,"status":0.0,"note":null,"address":"仙台市青葉区郷六字葛岡５１番地内","row_num":329},{"area_id":1,"name":"落合市民センター","lat":38.2731589,"long":140.7883703,"status":1.0,"note":null,"address":"仙台市青葉区落合二丁目１５番１５号","row_num":330},{"area_id":1,"name":"ＪＲ仙山線 大垣踏切北側","lat":38.2744473,"long":140.7845538,"status":0.0,"note":null,"address":"仙台市青葉区落合四丁目２番内","row_num":331},{"area_id":1,"name":"庄清ビル2号棟北側","lat":38.2668545,"long":140.7885351,"status":1.0,"note":null,"address":"仙台市青葉区栗生五丁目２９番内","row_num":332},{"area_id":1,"name":"落合保育所西側法面","lat":38.2731659,"long":140.791393,"status":1.0,"note":null,"address":"仙台市青葉区落合二丁目１２番7号","row_num":333},{"area_id":1,"name":"仙台市下愛子下河原公園","lat":38.27455,"long":140.7929363,"status":1.0,"note":null,"address":"仙台市青葉区落合二丁目１０１番地の４","row_num":334},{"area_id":1,"name":"仙台市栗生二丁目北公園","lat":38.2670674,"long":140.7962425,"status":1.0,"note":null,"address":"仙台市青葉区栗生二丁目６番内(6番地の1)","row_num":335},{"area_id":1,"name":"栗生一丁目団地入口","lat":38.2615155,"long":140.7953035,"status":0.0,"note":null,"address":"仙台市青葉区栗生一丁目２番内","row_num":336},{"area_id":1,"name":"仙台市立栗生小学校","lat":38.2677094,"long":140.7849108,"status":1.0,"note":null,"address":"仙台市青葉区栗生六丁目６番地の６","row_num":337},{"area_id":1,"name":"仙台市福沢市民センター","lat":38.2740964,"long":140.8890613,"status":1.0,"note":null,"address":"仙台市青葉区福沢町9番9号","row_num":338},{"area_id":1,"name":"仙台市中江西公園","lat":38.2741996,"long":140.8908697,"status":1.0,"note":null,"address":"仙台市青葉区中江一丁目１２番内","row_num":339},{"area_id":1,"name":"仙台市中江公園南側","lat":38.273349,"long":140.8928717,"status":1.0,"note":null,"address":"仙台市青葉区中江一丁目１７番内","row_num":340},{"area_id":1,"name":"東北財務局中江住宅東側","lat":38.272151,"long":140.8948865,"status":1.0,"note":null,"address":"仙台市青葉区中江二丁目15番1号","row_num":341},{"area_id":1,"name":"県営中江東アパート1号北側","lat":38.2736063,"long":140.8928944,"status":1.0,"note":null,"address":"仙台市青葉区中江一丁目17番1号","row_num":342},{"area_id":1,"name":"仙台市高松通公園北側","lat":38.2731773,"long":140.8894334,"status":1.0,"note":null,"address":"仙台市青葉区福沢町３番内","row_num":343},{"area_id":1,"name":"東北電力小田原アパート","lat":38.2714554,"long":140.8898029,"status":1.0,"note":null,"address":"仙台市青葉区小田原七丁目4番20号","row_num":344},{"area_id":1,"name":"仙台市旅篭町公園西側","lat":38.268195,"long":140.869418,"status":0.0,"note":null,"address":"仙台市青葉区小田原六丁目１番内","row_num":345},{"area_id":1,"name":"仙台市立吉成中学校西側","lat":38.2888591,"long":140.8248457,"status":1.0,"note":null,"address":"仙台市青葉区吉成一丁目12番1号","row_num":346},{"area_id":1,"name":"仙台市伊勢吉成３号公園","lat":38.2906928,"long":140.822907,"status":1.0,"note":null,"address":"仙台市青葉区吉成一丁目20番内（31番地の96）","row_num":347},{"area_id":1,"name":"吉成市民センター","lat":38.2944453,"long":140.8250636,"status":0.0,"note":null,"address":"仙台市青葉区国見ケ丘二丁目2番1号","row_num":348},{"area_id":1,"name":"仙台市国見ケ丘一丁目北公園（集いの丘公園）","lat":38.2946004,"long":140.8295922,"status":0.0,"note":null,"address":"仙台市青葉区国見ケ丘一丁目55番内（55番地）","row_num":349},{"area_id":1,"name":"国見ケ丘二丁目39番地の9向","lat":38.2875047,"long":140.8261566,"status":0.0,"note":null,"address":"仙台市青葉区国見ケ丘四丁目21番内（21番地）","row_num":350},{"area_id":1,"name":"国見ケ丘三丁目集会所北側","lat":38.287858,"long":140.8299423,"status":0.0,"note":null,"address":"仙台市青葉区国見ケ丘三丁目74番内（74番地の3）","row_num":351},{"area_id":1,"name":"仙台市臨済院公園（いにしえの丘）","lat":38.2851638,"long":140.8280264,"status":0.0,"note":null,"address":"仙台市青葉区臨済院地内（1番地）","row_num":352},{"area_id":1,"name":"国見ケ丘五丁目東公園南側","lat":38.2853047,"long":140.8308269,"status":0.0,"note":null,"address":"仙台市青葉区国見ケ丘五丁目11番内（150番地の121）","row_num":353},{"area_id":1,"name":"堤町三丁目１７番南側（堤町三丁目９号線）","lat":38.2887923,"long":140.8699463,"status":0.0,"note":null,"address":"仙台市青葉区堤町三丁目１７番先","row_num":354},{"area_id":1,"name":"仙台北郵便局北側","lat":38.2906012,"long":140.8731129,"status":0.0,"note":null,"address":"仙台市青葉区台原三丁目17番10号","row_num":355},{"area_id":1,"name":"仙台市台原二丁目公園南側","lat":38.2872707,"long":140.8723089,"status":0.0,"note":null,"address":"仙台市青葉区台原二丁目１２番内","row_num":356},{"area_id":1,"name":"堤町三丁目１番１１号南側","lat":38.2887923,"long":140.8699463,"status":0.0,"note":null,"address":"仙台市青葉区堤町三丁目１番内","row_num":357},{"area_id":1,"name":"SEIYU台原店東側歩道","lat":38.2887923,"long":140.8699463,"status":0.0,"note":null,"address":"仙台市青葉区堤町三丁目9番内","row_num":358},{"area_id":1,"name":"仙台市三本松市民センター南側","lat":38.2900078,"long":140.8684583,"status":0.0,"note":null,"address":"仙台市青葉区堤町三丁目23番1号","row_num":359},{"area_id":1,"name":"鷺ケ森歩道橋北側","lat":38.2927754,"long":140.8742184,"status":0.0,"note":null,"address":"仙台市青葉区北根一丁目１１番内","row_num":360},{"area_id":1,"name":"養護老人ホーム仙台長生園東側","lat":38.2856463,"long":140.8630742,"status":0.0,"note":null,"address":"仙台市青葉区葉山町8番1号","row_num":361},{"area_id":1,"name":"仙台市荒巻神明公園西側","lat":38.2860675,"long":140.8624818,"status":0.0,"note":null,"address":"仙台市青葉区荒巻神明町４番内","row_num":362},{"area_id":1,"name":"仙台市古海道東下公園東側","lat":38.2890765,"long":140.8606054,"status":0.0,"note":null,"address":"仙台市青葉区荒巻中央８番内","row_num":363},{"area_id":1,"name":"仙台市荒巻コミュニティ･センター東側","lat":38.2889801,"long":140.8621825,"status":0.0,"note":null,"address":"仙台市青葉区あけぼの町１２番２０号","row_num":364},{"area_id":1,"name":"仙台市水道局堤町二丁目減圧弁室","lat":38.2858509,"long":140.8683065,"status":0.0,"note":null,"address":"仙台市青葉区堤町二丁目２１番内","row_num":365},{"area_id":1,"name":"仙台市葉山町公園南側","lat":38.2850397,"long":140.8662087,"status":0.0,"note":null,"address":"仙台市青葉区葉山町３番内","row_num":366},{"area_id":1,"name":"仙台市あけぼの町公園東側","lat":38.2868025,"long":140.8655773,"status":0.0,"note":null,"address":"仙台市青葉区あけぼの町２番内","row_num":367},{"area_id":1,"name":"仙台市立北仙台小学校東側","lat":38.2977191,"long":140.8612064,"status":0.0,"note":null,"address":"仙台市青葉区東勝山三丁目６番１号","row_num":368},{"area_id":1,"name":"仙台市水の森市民センター入口付近","lat":38.2972608,"long":140.8593977,"status":0.0,"note":null,"address":"仙台市青葉区水の森四丁目１番１号","row_num":369},{"area_id":1,"name":"仙台市水の森三丁目公園東側","lat":38.2949999,"long":140.8579356,"status":0.0,"note":null,"address":"仙台市青葉区水の森三丁目１８番内","row_num":370},{"area_id":1,"name":"水の森三丁目交差点北東側","lat":38.2952537,"long":140.8558542,"status":0.0,"note":null,"address":"仙台市青葉区水の森三丁目４１番内","row_num":371},{"area_id":1,"name":"仙台市勝山東公園西側","lat":38.2980186,"long":140.866933,"status":0.0,"note":null,"address":"仙台市青葉区東勝山三丁目１番内","row_num":372},{"area_id":1,"name":"双葉ケ丘二丁目１１番内西側","lat":38.3003783,"long":140.8702507,"status":0.0,"note":null,"address":"仙台市青葉区双葉ケ丘二丁目11番内","row_num":373},{"area_id":1,"name":"仙台市双葉ケ丘二丁目公園北側","lat":38.3011839,"long":140.8729532,"status":0.0,"note":null,"address":"仙台市青葉区双葉ケ丘二丁目１番内","row_num":374},{"area_id":1,"name":"みやぎ生協愛子店北側","lat":38.2675208,"long":140.7786574,"status":1.0,"note":null,"address":"仙台市青葉区栗生七丁目17番","row_num":375},{"area_id":1,"name":"仙台市栗生西部１号公園","lat":38.2702777,"long":140.781947,"status":1.0,"note":null,"address":"仙台市青葉区落合六丁目31番地内（31番地）","row_num":376},{"area_id":1,"name":"仙台市広瀬川前公園西側","lat":38.2771903,"long":140.7704742,"status":0.0,"note":null,"address":"仙台市青葉区愛子東四丁目21番内（71番地の1）","row_num":377},{"area_id":1,"name":"ＪＲ仙山線第一勘太踏切北側","lat":38.2759678,"long":140.7710489,"status":0.0,"note":null,"address":"仙台市青葉区愛子東四丁目2番内（99番地の18）","row_num":378},{"area_id":1,"name":"仙台市下愛子町３号公園東側","lat":38.2722308,"long":140.7650596,"status":0.0,"note":null,"address":"仙台市青葉区愛子東六丁目8番内（30番地の9）","row_num":379},{"area_id":1,"name":"下愛子字稲荷前１３９番地内","lat":38.2680198,"long":140.7712487,"status":0.0,"note":null,"address":"仙台市青葉区下愛子字稲荷前１３９番地内","row_num":380},{"area_id":1,"name":"仙台市栗生西部3号公園","lat":38.2693507,"long":140.780681,"status":1.0,"note":null,"address":"仙台市青葉区栗生七丁目６番内（６番地の１）","row_num":381},{"area_id":1,"name":"愛子幼稚園入口西側","lat":38.2717904,"long":140.7663947,"status":1.0,"note":null,"address":"仙台市青葉区愛子東六丁目７番２７号先","row_num":382},{"area_id":1,"name":"仙台市錦ケ丘中央公園北側","lat":38.2562425,"long":140.7655389,"status":1.0,"note":null,"address":"仙台市青葉区錦ケ丘二丁目１８番内（７８番地の５２）","row_num":383},{"area_id":1,"name":"仙台市錦ケ丘三丁目公園西側","lat":38.2526551,"long":140.76746,"status":1.0,"note":null,"address":"仙台市青葉区錦ケ丘三丁目１１番内（１番地の１９０）","row_num":384},{"area_id":1,"name":"ミニストップ向側","lat":38.250541,"long":140.7589868,"status":1.0,"note":null,"address":"仙台市青葉区錦ケ丘五丁目29番地の47","row_num":385},{"area_id":1,"name":"仙台市錦ケ丘六丁目公園","lat":38.2526704,"long":140.7614442,"status":1.0,"note":null,"address":"仙台市青葉区錦ケ丘六丁目３０番内（３０番地の１）","row_num":386},{"area_id":1,"name":"錦ケ丘集会所","lat":38.256361,"long":140.7629288,"status":1.0,"note":null,"address":"仙台市青葉区錦ケ丘七丁目２番内（２番地の１５）","row_num":387},{"area_id":1,"name":"仙台市立錦ケ丘小学校西側","lat":38.2558245,"long":140.7600004,"status":1.0,"note":null,"address":"仙台市青葉区錦ケ丘七丁目２８番内（２８番地の１）","row_num":388},{"area_id":1,"name":"仙台市錦ケ丘八丁目公園西側","lat":38.2596056,"long":140.7580924,"status":1.0,"note":null,"address":"仙台市青葉区錦ケ丘八丁目２３番内（２３番地の１０）","row_num":389},{"area_id":1,"name":"セブンイレブン向側","lat":38.2558999,"long":140.760936,"status":1.0,"note":null,"address":"仙台市青葉区錦ケ丘七丁目29番地の26","row_num":390},{"area_id":2,"name":"宮城野区文化センター駐車場北側","lat":38.263959,"long":140.9114609,"status":1.0,"note":null,"address":"仙台市宮城野区銀杏町3番","row_num":391},{"area_id":2,"name":"仙台市宮城野区役所北側東駐車場南側","lat":38.2661838,"long":140.9099905,"status":0.0,"note":null,"address":"仙台市宮城野区五輪二丁目12番35号","row_num":392},{"area_id":2,"name":"仙台東郵便局西側（道路敷）","lat":38.2706968,"long":140.9111236,"status":1.0,"note":null,"address":"仙台市宮城野区原町六丁目2番","row_num":393},{"area_id":2,"name":"仙台市宮城野区役所立体駐車場北側","lat":38.2661838,"long":140.9099905,"status":1.0,"note":null,"address":"仙台市宮城野区五輪二丁目12番35号","row_num":394},{"area_id":2,"name":"宮城野区文化センター南側入口西側","lat":38.2655728,"long":140.9099667,"status":1.0,"note":null,"address":"仙台市宮城野区五輪二丁目12番70号","row_num":395},{"area_id":2,"name":"坂下交差点南東道路管理地西側","lat":38.2637795,"long":140.9052094,"status":0.0,"note":null,"address":"仙台市宮城野区五輪二丁目84番地24","row_num":396},{"area_id":2,"name":"コーポさとみ前北側","lat":38.2644426,"long":140.908306,"status":1.0,"note":null,"address":"仙台市宮城野区銀杏町5番3号","row_num":397},{"area_id":2,"name":"乳銀杏保育園向い（道路敷）","lat":38.2634843,"long":140.9067264,"status":1.0,"note":null,"address":"仙台市宮城野区銀杏町1番7号","row_num":398},{"area_id":2,"name":"（株）ブルースカイ駐車場東側","lat":38.2703643,"long":140.9247808,"status":0.0,"note":null,"address":"仙台市宮城野区苦竹二丁目2番","row_num":399},{"area_id":2,"name":"個人宅地南側","lat":38.2685697,"long":140.9162797,"status":0.0,"note":null,"address":"仙台市宮城野区苦竹一丁目6番47号","row_num":400},{"area_id":2,"name":"仙台市平成一丁目公園南側","lat":38.2711332,"long":140.9157192,"status":0.0,"note":null,"address":"仙台市宮城野区平成一丁目5番","row_num":401},{"area_id":2,"name":"苦竹駅自転車等駐車場北側","lat":38.2640527,"long":140.9189463,"status":1.0,"note":null,"address":"仙台市宮城野区南目館15番","row_num":402},{"area_id":2,"name":"日の出自動車学校北側","lat":38.2692508,"long":140.9328165,"status":1.0,"note":null,"address":"仙台市宮城野区日の出町二丁目1番13号","row_num":403},{"area_id":2,"name":"（有）芝原金物店向い駐車場北側","lat":38.2731249,"long":140.9201709,"status":0.0,"note":null,"address":"仙台市宮城野区新田一丁目14番","row_num":404},{"area_id":2,"name":"栄大建設(株)北向い（河川敷）","lat":38.2701151,"long":140.9372033,"status":1.0,"note":null,"address":"仙台市宮城野区日の出町一丁目３番","row_num":405},{"area_id":2,"name":"湘南荘北側","lat":38.2748624,"long":140.9180882,"status":0.0,"note":null,"address":"仙台市宮城野区新田一丁目16番11号","row_num":406},{"area_id":2,"name":"新田コミュニティ・センター東側","lat":38.276097,"long":140.9234302,"status":0.0,"note":null,"address":"仙台市宮城野区新田二丁目11番30号","row_num":407},{"area_id":2,"name":"個人宅地東側","lat":38.2781493,"long":140.930018,"status":0.0,"note":null,"address":"仙台市宮城野区新田三丁目18番19号","row_num":408},{"area_id":2,"name":"仙台市新田二丁目公園北側","lat":38.278382,"long":140.9247148,"status":0.0,"note":null,"address":"仙台市宮城野区新田二丁目22番","row_num":409},{"area_id":2,"name":"仙台市立新田小学校北側","lat":38.2762543,"long":140.9285537,"status":0.0,"note":null,"address":"仙台市宮城野区新田四丁目30番1号","row_num":410},{"area_id":2,"name":"仙台市新田公園西側","lat":38.273974,"long":140.92776,"status":0.0,"note":null,"address":"仙台市宮城野区新田四丁目20番","row_num":411},{"area_id":2,"name":"仙台市川北公園南側","lat":38.268195,"long":140.869418,"status":0.0,"note":null,"address":"仙台市宮城野区新田五丁目8番","row_num":412},{"area_id":2,"name":"仙台市屋舗公園北側","lat":38.2802206,"long":140.9298512,"status":0.0,"note":null,"address":"仙台市宮城野区新田三丁目24番","row_num":413},{"area_id":2,"name":"仙台市銀杏町緑地北側","lat":38.263959,"long":140.9114609,"status":1.0,"note":null,"address":"仙台市宮城野区銀杏町32番","row_num":414},{"area_id":2,"name":"ＪＲ北宮城野ＡＰ児童公園北側","lat":38.2702111,"long":140.9748768,"status":0.0,"note":null,"address":"仙台市宮城野区宮城野三丁目5番","row_num":415},{"area_id":2,"name":"仙台市南宮城野公園北側","lat":38.256151,"long":140.9103922,"status":0.0,"note":null,"address":"仙台市宮城野区宮千代一丁目36番","row_num":416},{"area_id":2,"name":"仙台市立宮城野小学校北側","lat":38.2608717,"long":140.916043,"status":0.0,"note":null,"address":"仙台市宮城野区東宮城野2番1号","row_num":417},{"area_id":2,"name":"仙台市南宮城野公園東側","lat":38.256151,"long":140.9103922,"status":0.0,"note":null,"address":"仙台市宮城野区宮千代一丁目36番","row_num":418},{"area_id":2,"name":"仙台市志波北公園東側","lat":38.2546263,"long":140.9142267,"status":0.0,"note":null,"address":"仙台市宮城野区萩野町二丁目7番","row_num":419},{"area_id":2,"name":"仙台市宮千代公園西側","lat":38.2540149,"long":140.9103092,"status":0.0,"note":null,"address":"仙台市宮城野区宮千代一丁目9番","row_num":420},{"area_id":2,"name":"仙台市志波北公園南側","lat":38.2546263,"long":140.9142267,"status":0.0,"note":null,"address":"仙台市宮城野区萩野町二丁目7番","row_num":421},{"area_id":2,"name":"仙台市立仙台工業高等学校北側","lat":38.2605328,"long":140.9177393,"status":0.0,"note":null,"address":"仙台市宮城野区東宮城野3番1号","row_num":422},{"area_id":2,"name":"仙台市立東宮城野小学校南側","lat":38.2593692,"long":140.919212,"status":0.0,"note":null,"address":"仙台市宮城野区東宮城野5番1号","row_num":423},{"area_id":2,"name":"仙台市立東宮城野小学校東側","lat":38.2593692,"long":140.919212,"status":0.0,"note":null,"address":"仙台市宮城野区東宮城野5番1号","row_num":424},{"area_id":2,"name":"仙台市萩野町公園南側","lat":38.2578835,"long":140.9196059,"status":0.0,"note":null,"address":"仙台市宮城野区萩野町三丁目10番","row_num":425},{"area_id":2,"name":"仙台市清水田公園南側","lat":38.2566693,"long":140.916611,"status":0.0,"note":null,"address":"仙台市宮城野区萩野町三丁目6番","row_num":426},{"area_id":2,"name":"仙台市谷地館公園東側","lat":38.25332,"long":140.9175884,"status":0.0,"note":null,"address":"仙台市宮城野区宮千代三丁目3番","row_num":427},{"area_id":2,"name":"仙台市谷地館公園南側","lat":38.25332,"long":140.9175884,"status":0.0,"note":null,"address":"仙台市宮城野区宮千代三丁目3番","row_num":428},{"area_id":2,"name":"仙台市宮城野一丁目公園北側","lat":38.2576754,"long":140.8972292,"status":1.0,"note":null,"address":"仙台市宮城野区宮城野一丁目13番","row_num":429},{"area_id":2,"name":"宮城野原公園総合運動場交番南側","lat":38.2581657,"long":140.9025332,"status":1.0,"note":null,"address":"仙台市宮城野区宮城野二丁目11番","row_num":430},{"area_id":2,"name":"宮城野原公園総合運動場南東側","lat":38.2702111,"long":140.9748768,"status":0.0,"note":null,"address":"仙台市宮城野区宮城野二丁目11番","row_num":431},{"area_id":2,"name":"宮城野原公園総合運動場正面入口","lat":38.2581657,"long":140.9025332,"status":1.0,"note":null,"address":"仙台市宮城野区宮城野二丁目11番","row_num":432},{"area_id":2,"name":"仙台市立東華中学校南側","lat":38.2545491,"long":140.8998012,"status":1.0,"note":null,"address":"仙台市宮城野区宮城野二丁目14番27号","row_num":433},{"area_id":2,"name":"仙台市立東華中学校北側","lat":38.2545491,"long":140.8998012,"status":1.0,"note":null,"address":"仙台市宮城野区宮城野二丁目14番27号","row_num":434},{"area_id":2,"name":"仙台市宮千代西公園西側","lat":38.2534993,"long":140.9066087,"status":0.0,"note":null,"address":"仙台市宮城野区宮千代一丁目22番","row_num":435},{"area_id":2,"name":"仙台市立宮城野中学校南側通用門脇","lat":38.2626006,"long":140.9000472,"status":1.0,"note":null,"address":"仙台市宮城野区五輪一丁目4番25号","row_num":436},{"area_id":2,"name":"杜のひろば・宮城野駐車場前北側","lat":38.2614016,"long":140.9003831,"status":1.0,"note":null,"address":"仙台市宮城野区五輪一丁目4番22号","row_num":437},{"area_id":2,"name":"仙台市五輪一丁目公園南側","lat":38.260895,"long":140.9027058,"status":1.0,"note":null,"address":"仙台市宮城野区宮城野二丁目20番","row_num":438},{"area_id":2,"name":"仙台育英学園北東側","lat":38.2610527,"long":140.9042122,"status":1.0,"note":null,"address":"仙台市宮城野区宮城野二丁目4番1号","row_num":439},{"area_id":2,"name":"交差点北側（道路敷）","lat":38.2637795,"long":140.9052094,"status":0.0,"note":null,"address":"仙台市宮城野区五輪二丁目7番","row_num":440},{"area_id":2,"name":"仙台育英学園南東側","lat":38.2610527,"long":140.9042122,"status":1.0,"note":null,"address":"仙台市宮城野区宮城野二丁目4番1号","row_num":441},{"area_id":2,"name":"FKビル駐車場北側","lat":38.2617855,"long":140.8987138,"status":1.0,"note":null,"address":"仙台市宮城野区五輪一丁目7番","row_num":442},{"area_id":2,"name":"仙台市榴岡公園北側西寄り","lat":38.2606741,"long":140.8970256,"status":1.0,"note":null,"address":"仙台市宮城野区五輪一丁目3番","row_num":443},{"area_id":2,"name":"仙台市榴岡四丁目西公園北側","lat":38.2578158,"long":140.8881657,"status":1.0,"note":null,"address":"仙台市宮城野区榴岡四丁目9番","row_num":444},{"area_id":2,"name":"榴ヶ岡駅自転車等駐車場南側","lat":38.2591726,"long":140.8928945,"status":1.0,"note":null,"address":"仙台市宮城野区榴岡五丁目12番","row_num":445},{"area_id":2,"name":"仙台市立榴岡小学校正門脇","lat":38.2615582,"long":140.8909033,"status":1.0,"note":null,"address":"仙台市宮城野区榴ケ岡103番地2","row_num":446},{"area_id":2,"name":"仙台市榴岡五丁目公園西側","lat":38.25769,"long":140.8929646,"status":1.0,"note":null,"address":"仙台市宮城野区榴岡五丁目4番","row_num":447},{"area_id":2,"name":"仙台市榴岡公園南側","lat":38.2606741,"long":140.8970256,"status":1.0,"note":null,"address":"仙台市宮城野区五輪一丁目3番","row_num":448},{"area_id":2,"name":"仙台市榴岡公園東側（道路敷）","lat":38.2606741,"long":140.8970256,"status":1.0,"note":null,"address":"仙台市宮城野区五輪一丁目3番","row_num":449},{"area_id":2,"name":"仙台市榴岡三丁目公園南側","lat":38.2606895,"long":140.8875497,"status":1.0,"note":null,"address":"仙台市宮城野区榴岡三丁目3番","row_num":450},{"area_id":2,"name":"仙台市榴岡三丁目公園東側","lat":38.2606895,"long":140.8875497,"status":1.0,"note":null,"address":"仙台市宮城野区榴岡三丁目3番","row_num":451},{"area_id":2,"name":"仙台市清水沼公園北側","lat":38.26578,"long":140.898317,"status":0.0,"note":null,"address":"仙台市宮城野区清水沼一丁目6番","row_num":452},{"area_id":2,"name":"仙台市清水沼公園西側","lat":38.26578,"long":140.898317,"status":0.0,"note":null,"address":"仙台市宮城野区清水沼一丁目6番","row_num":453},{"area_id":2,"name":"仙台市清水沼公園東側","lat":38.26578,"long":140.898317,"status":1.0,"note":null,"address":"仙台市宮城野区清水沼一丁目6番","row_num":454},{"area_id":2,"name":"仙台市立原町小学校正門脇","lat":38.2664749,"long":140.9040154,"status":0.0,"note":null,"address":"仙台市宮城野区原町二丁目6番1号","row_num":455},{"area_id":2,"name":"仙台市立原町小学校西側","lat":38.2664749,"long":140.9040154,"status":0.0,"note":null,"address":"仙台市宮城野区原町二丁目6番1号","row_num":456},{"area_id":2,"name":"グランデールコマツ北向い（道路敷）","lat":38.2637795,"long":140.9052094,"status":6.0,"note":"掲示板存在せず","address":"仙台市宮城野区五輪二丁目8番","row_num":457},{"area_id":2,"name":"仙台市原町カッコウ公園南側","lat":38.2657923,"long":140.906219,"status":1.0,"note":null,"address":"仙台市宮城野区原町二丁目4番","row_num":458},{"area_id":2,"name":"仙台市立原町小学校北東側","lat":38.2664749,"long":140.9040154,"status":1.0,"note":null,"address":"仙台市宮城野区原町二丁目6番1号","row_num":459},{"area_id":2,"name":"仙台市立幸町南小学校グラウンド東側","lat":38.2753464,"long":140.8968008,"status":0.0,"note":null,"address":"仙台市宮城野区幸町二丁目24番","row_num":460},{"area_id":2,"name":"仙台市立幸町南小学校グラウンド南側","lat":38.2753464,"long":140.8968008,"status":0.0,"note":null,"address":"仙台市宮城野区幸町二丁目24番","row_num":461},{"area_id":2,"name":"仙台市立幸町南小学校正門前","lat":38.2740914,"long":140.8994629,"status":1.0,"note":null,"address":"仙台市宮城野区幸町五丁目2番1号","row_num":462},{"area_id":2,"name":"仙台市幸町市営住宅６－1棟東側","lat":38.2736267,"long":140.904044,"status":0.0,"note":null,"address":"仙台市宮城野区幸町五丁目6番","row_num":463},{"area_id":2,"name":"仙台市宮城野障害者福祉センター正門西側","lat":38.2726287,"long":140.9074077,"status":0.0,"note":null,"address":"仙台市宮城野区大梶16番2号","row_num":464},{"area_id":2,"name":"レックスユウ宮城野南側（道路敷）","lat":38.2714621,"long":140.9000155,"status":0.0,"note":null,"address":"仙台市宮城野区大梶12番","row_num":465},{"area_id":2,"name":"仙台市幸町公園南側","lat":38.274815,"long":140.8932895,"status":1.0,"note":null,"address":"仙台市宮城野区幸町二丁目2番","row_num":466},{"area_id":2,"name":"仙台市ガス局幸町三丁目部品倉庫西側","lat":38.2749368,"long":140.9028506,"status":0.0,"note":null,"address":"仙台市宮城野区幸町三丁目12番1号","row_num":467},{"area_id":2,"name":"仙台市立幸町中学校東側","lat":38.2776225,"long":140.892817,"status":0.0,"note":null,"address":"仙台市宮城野区幸町一丁目15番1号","row_num":468},{"area_id":2,"name":"仙台市立幸町中学校南側","lat":38.2776225,"long":140.892817,"status":0.0,"note":null,"address":"仙台市宮城野区幸町一丁目15番1号","row_num":469},{"area_id":2,"name":"仙台市立幸町小学校北側","lat":38.2771291,"long":140.8983447,"status":0.0,"note":null,"address":"仙台市宮城野区幸町二丁目19番1号","row_num":470},{"area_id":2,"name":"仙台市幸町市民センター東側","lat":38.2767215,"long":140.903195,"status":0.0,"note":null,"address":"仙台市宮城野区幸町三丁目13番13号","row_num":471},{"area_id":2,"name":"仙台市ガス局正門脇","lat":38.2735323,"long":140.9070954,"status":0.0,"note":null,"address":"仙台市宮城野区幸町五丁目13番1号","row_num":472},{"area_id":2,"name":"仙台市ガス局技術センター東側","lat":38.2735323,"long":140.9070954,"status":1.0,"note":null,"address":"仙台市宮城野区幸町五丁目13番1号","row_num":473},{"area_id":2,"name":"仙台市安養寺一丁目公園南側","lat":38.2876479,"long":140.9006604,"status":0.0,"note":null,"address":"仙台市宮城野区安養寺一丁目1番","row_num":474},{"area_id":2,"name":"仙台市安養寺二丁目公園北側","lat":38.2842003,"long":140.9037128,"status":0.0,"note":null,"address":"仙台市宮城野区安養寺二丁目17番","row_num":475},{"area_id":2,"name":"仙台市枡江コミュニティ・センター南側（道路敷）","lat":38.2842389,"long":140.9061552,"status":0.0,"note":null,"address":"仙台市宮城野区安養寺二丁目2番1号","row_num":476},{"area_id":2,"name":"仙台市立枡江小学校西側（道路敷）","lat":38.2810036,"long":140.9038389,"status":0.0,"note":null,"address":"仙台市宮城野区枡江15番1号","row_num":477},{"area_id":2,"name":"仙台市立枡江小学校グラウンド西向い側（道路敷）","lat":38.2788064,"long":140.8997578,"status":0.0,"note":null,"address":"仙台市宮城野区二の森14番","row_num":478},{"area_id":2,"name":"小百合園東側（道路敷）","lat":38.2795956,"long":140.9074511,"status":0.0,"note":null,"address":"仙台市宮城野区枡江1番2号","row_num":479},{"area_id":2,"name":"仙台市与兵衛沼公園北側","lat":38.2831745,"long":140.9001792,"status":0.0,"note":null,"address":"仙台市宮城野区蟹沢5番","row_num":480},{"area_id":2,"name":"仙台市鶴ケ谷四丁目西公園北側","lat":38.2916594,"long":140.9073219,"status":0.0,"note":null,"address":"仙台市宮城野区鶴ケ谷四丁目12番","row_num":481},{"area_id":2,"name":"仙台市立鶴谷小学校正門脇","lat":38.2910936,"long":140.9107185,"status":0.0,"note":null,"address":"仙台市宮城野区鶴ケ谷三丁目17番","row_num":482},{"area_id":2,"name":"仙台市鶴ケ谷三丁目公園南側","lat":38.2896261,"long":140.9086298,"status":0.0,"note":null,"address":"仙台市宮城野区鶴ケ谷三丁目10番","row_num":483},{"area_id":2,"name":"仙台市鶴ケ谷二丁目公園北側","lat":38.2882028,"long":140.9140194,"status":0.0,"note":null,"address":"仙台市宮城野区鶴ケ谷二丁目3番","row_num":484},{"area_id":2,"name":"宮城県仙台第三高等学校北側（道路敷）","lat":38.2867674,"long":140.9083057,"status":0.0,"note":null,"address":"仙台市宮城野区鶴ケ谷一丁目19番","row_num":485},{"area_id":2,"name":"仙台市鶴ケ谷第一市営住宅３棟南側","lat":38.2872213,"long":140.91202,"status":0.0,"note":null,"address":"仙台市宮城野区鶴ケ谷二丁目4番","row_num":486},{"area_id":2,"name":"仙台市鶴ケ谷一丁目西公園東側","lat":38.2883842,"long":140.9048305,"status":0.0,"note":null,"address":"仙台市宮城野区鶴ケ谷一丁目34番","row_num":487},{"area_id":2,"name":"仙台市若葉公園東側","lat":38.287439,"long":140.896361,"status":0.0,"note":null,"address":"仙台市宮城野区安養寺一丁目14番","row_num":488},{"area_id":2,"name":"仙台市大久保山公園西側","lat":38.2984472,"long":140.9158642,"status":0.0,"note":null,"address":"仙台市宮城野区鶴ケ谷北二丁目11番","row_num":489},{"area_id":2,"name":"仙台市鶴ケ谷山沢公園東側","lat":38.2965379,"long":140.9135655,"status":0.0,"note":null,"address":"仙台市宮城野区鶴ケ谷北一丁目7番","row_num":490},{"area_id":2,"name":"仙台市鶴ケ谷五丁目公園南側","lat":38.2943731,"long":140.9135591,"status":0.0,"note":null,"address":"仙台市宮城野区鶴ケ谷五丁目16番","row_num":491},{"area_id":2,"name":"仙台市立鶴谷中学校北側","lat":38.2922536,"long":140.9152791,"status":0.0,"note":null,"address":"仙台市宮城野区鶴ケ谷五丁目24番","row_num":492},{"area_id":2,"name":"仙台市立鶴谷中学校南側","lat":38.2922536,"long":140.9152791,"status":0.0,"note":null,"address":"仙台市宮城野区鶴ケ谷五丁目24番","row_num":493},{"area_id":2,"name":"仙台市鶴ケ谷四丁目東公園東側","lat":38.2924731,"long":140.9100136,"status":0.0,"note":null,"address":"仙台市宮城野区鶴ケ谷四丁目22番","row_num":494},{"area_id":2,"name":"仙台市鶴ケ谷四丁目東公園西側","lat":38.2924731,"long":140.9100136,"status":0.0,"note":null,"address":"仙台市宮城野区鶴ケ谷四丁目22番","row_num":495},{"area_id":2,"name":"仙台市鶴ケ谷中央公園西側","lat":38.2923357,"long":140.9189914,"status":0.0,"note":null,"address":"仙台市宮城野区鶴ケ谷六丁目1番","row_num":496},{"area_id":2,"name":"仙台市鶴ケ谷八丁目公園南側","lat":38.2870188,"long":140.9172166,"status":0.0,"note":null,"address":"仙台市宮城野区鶴ケ谷八丁目6番","row_num":497},{"area_id":2,"name":"仙台市立鶴谷東小学校南側","lat":38.291882,"long":140.9227036,"status":0.0,"note":null,"address":"仙台市宮城野区鶴ケ谷六丁目2番","row_num":498},{"area_id":2,"name":"仙台市鶴ケ谷六丁目公園西側","lat":38.2915775,"long":140.9232998,"status":0.0,"note":null,"address":"仙台市宮城野区鶴ケ谷六丁目10番","row_num":499},{"area_id":2,"name":"仙台市鶴ケ谷中央公園南西側","lat":38.2923357,"long":140.9189914,"status":0.0,"note":null,"address":"仙台市宮城野区鶴ケ谷六丁目1番","row_num":500},{"area_id":2,"name":"仙台市鶴ケ谷七丁目北公園東側","lat":38.2888453,"long":140.9218948,"status":0.0,"note":null,"address":"仙台市宮城野区鶴ケ谷七丁目29番","row_num":501},{"area_id":2,"name":"仙台市鶴ケ谷七丁目南公園南側","lat":38.2866582,"long":140.9193378,"status":0.0,"note":null,"address":"仙台市宮城野区鶴ケ谷七丁目8番","row_num":502},{"area_id":2,"name":"仙台市鶴ケ谷一丁目東公園東側","lat":38.2858831,"long":140.9122743,"status":0.0,"note":null,"address":"仙台市宮城野区鶴ケ谷一丁目10番","row_num":503},{"area_id":2,"name":"仙台市立西山小学校正門脇","lat":38.2833419,"long":140.915059,"status":0.0,"note":null,"address":"仙台市宮城野区燕沢二丁目23番１号","row_num":504},{"area_id":2,"name":"つばめさわ教会東側（道路敷）","lat":38.2878161,"long":140.9196623,"status":0.0,"note":null,"address":"仙台市宮城野区鶴ケ谷七丁目35番地","row_num":505},{"area_id":2,"name":"仙台市燕沢二丁目北公園西側","lat":38.2854436,"long":140.9149636,"status":0.0,"note":null,"address":"仙台市宮城野区燕沢二丁目12番","row_num":506},{"area_id":2,"name":"個人宅地東側","lat":38.2837373,"long":140.9246055,"status":0.0,"note":null,"address":"仙台市宮城野区燕沢三丁目2番18号","row_num":507},{"area_id":2,"name":"仙台市安養寺下東公園北向い（道路敷）","lat":38.2808246,"long":140.9164203,"status":0.0,"note":null,"address":"仙台市宮城野区東仙台七丁目10番","row_num":508},{"area_id":2,"name":"仙台市安養寺下西公園南側","lat":38.2813761,"long":140.9131955,"status":0.0,"note":null,"address":"仙台市宮城野区東仙台七丁目4番","row_num":509},{"area_id":2,"name":"光ヶ丘スペルマン病院向側バス停脇（道路敷）","lat":38.276226,"long":140.9106231,"status":0.0,"note":null,"address":"仙台市宮城野区東仙台四丁目16番","row_num":510},{"area_id":2,"name":"交差点東側三角地帯（道路敷）","lat":38.2815945,"long":140.9213144,"status":0.0,"note":null,"address":"仙台市宮城野区燕沢一丁目25番","row_num":511},{"area_id":2,"name":"仙台市小鶴市営住宅1-7棟東側","lat":38.2812532,"long":140.9262521,"status":0.0,"note":null,"address":"仙台市宮城野区小鶴三丁目1番","row_num":512},{"area_id":2,"name":"仙台市立東仙台中学校東側（道路敷）","lat":38.2764052,"long":140.9168763,"status":0.0,"note":null,"address":"仙台市宮城野区東仙台二丁目16番","row_num":513},{"area_id":2,"name":"仙台市宮の杜なかのさと公園西側","lat":38.2756855,"long":140.9100158,"status":0.0,"note":null,"address":"仙台市宮城野区東仙台四丁目８番","row_num":514},{"area_id":2,"name":"仙台市案内公園南側","lat":38.2748789,"long":140.913556,"status":0.0,"note":null,"address":"仙台市宮城野区東仙台五丁目18番","row_num":515},{"area_id":2,"name":"仙台市立東仙台保育所西側","lat":38.2722669,"long":140.9099338,"status":1.0,"note":null,"address":"仙台市宮城野区東仙台三丁目6番45号","row_num":516},{"area_id":2,"name":"仙台市東仙台コミュニティ・センター東側","lat":38.2780488,"long":140.9150708,"status":0.0,"note":null,"address":"仙台市宮城野区東仙台五丁目32番17号","row_num":517},{"area_id":2,"name":"仙台市鶴ケ谷菖蒲沢公園南側","lat":38.2935792,"long":140.927942,"status":0.0,"note":null,"address":"仙台市宮城野区鶴ケ谷東三丁目6番","row_num":518},{"area_id":2,"name":"仙台市菖蒲沢東公園西側","lat":38.294532,"long":140.9335335,"status":0.0,"note":null,"address":"仙台市宮城野区岩切二丁目6番","row_num":519},{"area_id":2,"name":"仙台市鶴ケ谷南公園西側","lat":38.2908106,"long":140.9284557,"status":0.0,"note":null,"address":"仙台市宮城野区鶴ケ谷東二丁目18番","row_num":520},{"area_id":2,"name":"仙台市立燕沢小学校北側","lat":38.2881805,"long":140.9305245,"status":0.0,"note":null,"address":"仙台市宮城野区燕沢東三丁目8番1号","row_num":521},{"area_id":2,"name":"駐車場西側","lat":38.287265,"long":140.932049,"status":0.0,"note":null,"address":"仙台市宮城野区燕沢東二丁目2番","row_num":522},{"area_id":2,"name":"仙台市立燕沢小学校東側","lat":38.2881805,"long":140.9305245,"status":0.0,"note":null,"address":"仙台市宮城野区燕沢東三丁目8番1号","row_num":523},{"area_id":2,"name":"仙台市燕沢東一丁目きただ公園東側","lat":38.2874534,"long":140.9351375,"status":0.0,"note":null,"address":"仙台市宮城野区燕沢東一丁目9番","row_num":524},{"area_id":2,"name":"仙台市交通局東仙台営業所北側（道路敷）","lat":38.2815945,"long":140.9213144,"status":0.0,"note":null,"address":"仙台市宮城野区燕沢一丁目27番","row_num":525},{"area_id":2,"name":"個人宅地南側（道路敷）","lat":38.3095196,"long":140.9317727,"status":0.0,"note":null,"address":"仙台市宮城野区岩切字昭和北2番地16地先","row_num":526},{"area_id":2,"name":"個人宅地西側","lat":38.296593,"long":140.9379458,"status":0.0,"note":null,"address":"仙台市宮城野区岩切字今市5番地","row_num":527},{"area_id":2,"name":"仙台市鴻巣３号公園南側","lat":38.2960233,"long":140.954492,"status":0.0,"note":null,"address":"仙台市宮城野区岩切字堰下82番地","row_num":528},{"area_id":2,"name":"今市橋東側バス停脇(道路敷）","lat":38.3016296,"long":140.9495737,"status":0.0,"note":null,"address":"仙台市宮城野区岩切字土手外東5番地内","row_num":529},{"area_id":2,"name":"仙台市三所北２号公園北側","lat":38.303278,"long":140.9459288,"status":0.0,"note":null,"address":"仙台市宮城野区岩切字三所北42番地","row_num":530},{"area_id":2,"name":"仙台市立岩切小学校正門西側","lat":38.2999064,"long":140.9424844,"status":0.0,"note":null,"address":"仙台市宮城野区岩切字今市東1番地2","row_num":531},{"area_id":2,"name":"仙台市岩切市民センター東側","lat":38.3008145,"long":140.9457361,"status":0.0,"note":null,"address":"仙台市宮城野区岩切字三所南88番地2","row_num":532},{"area_id":2,"name":"仙台市鴻巣1号公園東側","lat":38.2978502,"long":140.949325,"status":0.0,"note":null,"address":"仙台市宮城野区岩切字鴻巣33番地","row_num":533},{"area_id":2,"name":"玉川重機工業（有）向い（道路敷）","lat":38.3006203,"long":140.9288698,"status":0.0,"note":null,"address":"仙台市宮城野区鶴ケ谷字金堀278番地先","row_num":534},{"area_id":2,"name":"仙台市田子袋河原公園西側","lat":38.2908796,"long":140.9580517,"status":0.0,"note":null,"address":"仙台市宮城野区田子字袋河原42番地","row_num":535},{"area_id":2,"name":"仙台市立田子中学校北側","lat":38.2785922,"long":140.9579984,"status":0.0,"note":null,"address":"仙台市宮城野区田子二丁目12番1号","row_num":536},{"area_id":2,"name":"仙台市上田子2号公園東側","lat":38.2823446,"long":140.9631228,"status":0.0,"note":null,"address":"仙台市宮城野区田子三丁目9番","row_num":537},{"area_id":2,"name":"仙台市立田子小学校正門脇","lat":38.280153,"long":140.9629546,"status":0.0,"note":null,"address":"仙台市宮城野区田子二丁目1番1号","row_num":538},{"area_id":2,"name":"仙台市田子要害東公園南側","lat":38.278626,"long":140.9628393,"status":0.0,"note":null,"address":"仙台市宮城野区田子一丁目13番","row_num":539},{"area_id":2,"name":"仙台市田子西市営住宅3棟西側植栽場","lat":38.2881865,"long":140.9567869,"status":0.0,"note":null,"address":"仙台市宮城野区田子西一丁目11番","row_num":540},{"area_id":2,"name":"仙台市福田町第一市営住宅4A棟東側","lat":38.2780797,"long":140.9631982,"status":0.0,"note":null,"address":"仙台市宮城野区田子一丁目25番","row_num":541},{"area_id":2,"name":"仙台市福田町第二市営住宅5A棟北側","lat":38.2829196,"long":140.9638564,"status":0.0,"note":null,"address":"仙台市宮城野区田子三丁目12番","row_num":542},{"area_id":2,"name":"仙台市仙石西公園東側","lat":38.2730747,"long":140.9461131,"status":0.0,"note":null,"address":"仙台市宮城野区仙石6番","row_num":543},{"area_id":2,"name":"仙台市福住町公園北側","lat":38.2731566,"long":140.9530531,"status":0.0,"note":null,"address":"仙台市宮城野区福住町9番","row_num":544},{"area_id":2,"name":"仙台市立高砂小学校西側","lat":38.2734529,"long":140.9578394,"status":0.0,"note":null,"address":"仙台市宮城野区福田町一丁目11番1号","row_num":545},{"area_id":2,"name":"防災資機材倉庫西側","lat":38.2728073,"long":140.95999,"status":0.0,"note":null,"address":"仙台市宮城野区福田町一丁目133番12号","row_num":546},{"area_id":2,"name":"仙台市中央卸売市場食肉市場西側","lat":38.2678506,"long":140.9562193,"status":0.0,"note":null,"address":"仙台市宮城野区扇町六丁目3番6号","row_num":547},{"area_id":2,"name":"個人宅地西側","lat":38.2696595,"long":140.9604215,"status":0.0,"note":null,"address":"仙台市宮城野区福田町二丁目4番6号","row_num":548},{"area_id":2,"name":"陸前高砂駅前ロータリー西側","lat":38.2724639,"long":140.964926,"status":0.0,"note":null,"address":"仙台市宮城野区福室二丁目395番地2","row_num":549},{"area_id":2,"name":"仙台市高砂市民センター東側","lat":38.2703053,"long":140.9737777,"status":0.0,"note":null,"address":"仙台市宮城野区高砂一丁目24番9号","row_num":550},{"area_id":2,"name":"仙台市高砂二丁目向田公園南側","lat":38.267995,"long":140.9702105,"status":0.0,"note":null,"address":"仙台市宮城野区高砂二丁目8番","row_num":551},{"area_id":2,"name":"仙台市高砂緑地公園宮城野消防署高砂分署西向い","lat":38.2692391,"long":140.9734724,"status":0.0,"note":null,"address":"仙台市宮城野区高砂一丁目28番","row_num":552},{"area_id":2,"name":"仙台市蒲生土手前２号公園東側","lat":38.2658592,"long":140.976953,"status":0.0,"note":null,"address":"仙台市宮城野区白鳥一丁目25番","row_num":553},{"area_id":2,"name":"仙台市立高砂中学校東側","lat":38.2648502,"long":140.9769977,"status":0.0,"note":null,"address":"仙台市宮城野区白鳥一丁目32番1号","row_num":554},{"area_id":2,"name":"仙台市蒲生土手前公園北側","lat":38.2628994,"long":140.9804497,"status":0.0,"note":null,"address":"仙台市宮城野区白鳥一丁目2番","row_num":555},{"area_id":2,"name":"仙台市蒲生蓬田前公園南側","lat":38.2648387,"long":140.980436,"status":0.0,"note":null,"address":"仙台市宮城野区白鳥一丁目8番","row_num":556},{"area_id":2,"name":"仙台市耳取公園北側","lat":38.2611885,"long":140.9850199,"status":0.0,"note":null,"address":"仙台市宮城野区白鳥二丁目24番","row_num":557},{"area_id":2,"name":"（仮称）蒲生北部１号公園北側","lat":38.2600317,"long":140.9943671,"status":0.0,"note":null,"address":"仙台市宮城野区蒲生五丁目19番","row_num":558},{"area_id":2,"name":"仙台市西原排水機場東側","lat":38.2622965,"long":140.9998915,"status":0.0,"note":null,"address":"仙台市宮城野区蒲生二丁目1番4号","row_num":559},{"area_id":2,"name":"仙台市福室上町東公園西側","lat":38.2800275,"long":140.9699225,"status":0.0,"note":null,"address":"仙台市宮城野区福室五丁目6番","row_num":560},{"area_id":2,"name":"仙台市福室上町南公園西側","lat":38.2786235,"long":140.9688546,"status":0.0,"note":null,"address":"仙台市宮城野区福室三丁目34番","row_num":561},{"area_id":2,"name":"仙台市福室市民センター駐車場西側","lat":38.2792212,"long":140.9712382,"status":0.0,"note":null,"address":"仙台市宮城野区福室五丁目9番36号","row_num":562},{"area_id":2,"name":"仙台市福室公園北側","lat":38.28258,"long":140.9715923,"status":0.0,"note":null,"address":"仙台市宮城野区福室五丁目11番","row_num":563},{"area_id":2,"name":"仙台市高砂市営住宅F-1号棟北側","lat":38.2798979,"long":140.9721665,"status":0.0,"note":null,"address":"仙台市宮城野区福室五丁目23番","row_num":564},{"area_id":2,"name":"仙台市立中野中学校東側","lat":38.2828946,"long":140.9746284,"status":0.0,"note":null,"address":"仙台市宮城野区中野字高橋前65番地","row_num":565},{"area_id":2,"name":"仙台市高砂市営住宅C棟南側","lat":38.2798979,"long":140.9721665,"status":0.0,"note":null,"address":"仙台市宮城野区福室五丁目23番","row_num":566},{"area_id":2,"name":"なかの一丁目西公園南側","lat":38.2739156,"long":140.9746072,"status":0.0,"note":null,"address":"仙台市宮城野区中野一丁目13番","row_num":567},{"area_id":2,"name":"仙台市宿在家公園東側","lat":38.282852,"long":140.9794448,"status":0.0,"note":null,"address":"仙台市宮城野区栄三丁目5番","row_num":568},{"area_id":2,"name":"仙台市立中野栄小学校正門脇","lat":38.2805054,"long":140.9809703,"status":0.0,"note":null,"address":"仙台市宮城野区栄三丁目12番1号","row_num":569},{"area_id":2,"name":"仙台市栄公園西側","lat":38.2805054,"long":140.9809703,"status":0.0,"note":null,"address":"仙台市宮城野区栄四丁目4番","row_num":570},{"area_id":2,"name":"仙台市福在公園東側","lat":38.2812094,"long":140.9801297,"status":0.0,"note":null,"address":"仙台市宮城野区栄二丁目16番","row_num":571},{"area_id":2,"name":"仙台市中野栄駅前公園北側","lat":38.2804801,"long":140.9840358,"status":0.0,"note":null,"address":"仙台市宮城野区栄四丁目10番","row_num":572},{"area_id":2,"name":"仙台市栄五丁目公園南側","lat":38.282797,"long":140.9875124,"status":0.0,"note":null,"address":"仙台市宮城野区栄五丁目15番","row_num":573},{"area_id":2,"name":"仙台市出花二丁目公園西側","lat":38.278517,"long":140.987865,"status":0.0,"note":null,"address":"仙台市宮城野区出花二丁目7番","row_num":574},{"area_id":2,"name":"仙台市出花一丁目公園西側","lat":38.2769937,"long":140.9840942,"status":0.0,"note":null,"address":"仙台市宮城野区出花一丁目12番","row_num":575},{"area_id":2,"name":"洞ノ口交差点西側交差点南側（道路敷）","lat":38.3056936,"long":140.9482551,"status":0.0,"note":null,"address":"仙台市宮城野区岩切字若宮前72番地内","row_num":576},{"area_id":2,"name":"仙台市岩切東コミュニティ・センター南側","lat":38.3064812,"long":140.9535371,"status":0.0,"note":null,"address":"仙台市宮城野区岩切字青津目137番地8","row_num":577},{"area_id":2,"name":"仙台市岩切分台三丁目公園東側","lat":38.3087636,"long":140.9559239,"status":0.0,"note":null,"address":"仙台市宮城野区岩切分台三丁目3番","row_num":578},{"area_id":2,"name":"仙台市岩切分台二丁目さんかく公園東側","lat":38.3076846,"long":140.9588475,"status":0.0,"note":null,"address":"仙台市宮城野区岩切分台二丁目29番","row_num":579},{"area_id":2,"name":"みやぎ生活協同組合岩切店西側","lat":38.3051483,"long":140.956069,"status":0.0,"note":null,"address":"仙台市宮城野区岩切分台一丁目1番地2","row_num":580},{"area_id":2,"name":"仙台市交通局バス回転場北側","lat":38.3012659,"long":140.9554792,"status":0.0,"note":null,"address":"仙台市宮城野区岩切字洞ノ口191番地","row_num":581},{"area_id":2,"name":"岩切駅前ロータリー西側","lat":38.3032315,"long":140.9529074,"status":0.0,"note":null,"address":"仙台市宮城野区岩切字洞ノ口95番地3","row_num":582},{"area_id":2,"name":"仙台市東河原公園北側","lat":38.268195,"long":140.869418,"status":1.0,"note":null,"address":"仙台市宮城野区岩切字東河原330番地","row_num":583},{"area_id":2,"name":"上岡田公会堂北側","lat":38.253861,"long":140.9658201,"status":0.0,"note":null,"address":"仙台市宮城野区岡田字下高土手54番地","row_num":584},{"area_id":2,"name":"仙台市立岡田小学校南西側","lat":38.2566883,"long":140.9786521,"status":0.0,"note":null,"address":"仙台市宮城野区岡田字北在家67番地","row_num":585},{"area_id":2,"name":"仙台市上屋倉公園南側","lat":38.2551512,"long":140.986977,"status":0.0,"note":null,"address":"仙台市宮城野区蒲生字上屋倉24番地","row_num":586},{"area_id":2,"name":"仙台市港南西公園南側","lat":38.2584267,"long":140.9818511,"status":0.0,"note":null,"address":"仙台市宮城野区蒲生字南屋ケ城1番地","row_num":587},{"area_id":2,"name":"仙台市港南東公園南側","lat":38.2580633,"long":140.9855463,"status":0.0,"note":null,"address":"仙台市宮城野区蒲生字南城道田5番地","row_num":588},{"area_id":2,"name":"個人宅地南側","lat":38.2451142,"long":140.9829659,"status":0.0,"note":null,"address":"仙台市宮城野区岡田字堀切前12番地2","row_num":589},{"area_id":2,"name":"（有）菊ペン塗装店駐車場西側","lat":38.2441506,"long":140.986086,"status":0.0,"note":null,"address":"仙台市宮城野区岡田字浜通22番地","row_num":590},{"area_id":2,"name":"仙台市岡田ポンプ場西側","lat":38.2492576,"long":140.9888674,"status":0.0,"note":null,"address":"仙台市宮城野区蒲生字中通108番地3","row_num":591},{"area_id":2,"name":"個人宅地西側","lat":38.2529463,"long":140.9896166,"status":0.0,"note":null,"address":"仙台市宮城野区蒲生字鍋沼33番地","row_num":592},{"area_id":2,"name":"仙台市福田町砂押公園西側","lat":38.266232,"long":140.9646478,"status":0.0,"note":null,"address":"仙台市宮城野区福田町二丁目30番","row_num":593},{"area_id":2,"name":"仙台市扇町六丁目公園北西側","lat":38.2661975,"long":140.958469,"status":0.0,"note":null,"address":"仙台市宮城野区扇町六丁目5番","row_num":594},{"area_id":2,"name":"個人宅地東側","lat":38.2621769,"long":140.9618848,"status":0.0,"note":null,"address":"仙台市宮城野区福田町四丁目13番6号","row_num":595},{"area_id":2,"name":"仙台市福田町南一丁目公園北側","lat":38.2592554,"long":140.9606646,"status":0.0,"note":null,"address":"仙台市宮城野区福田町南一丁目7番","row_num":596},{"area_id":2,"name":"仙台市鶴巻一丁目西公園南側","lat":38.2627939,"long":140.9638479,"status":0.0,"note":null,"address":"仙台市宮城野区鶴巻一丁目10番","row_num":597},{"area_id":2,"name":"仙台市立鶴巻小学校西側","lat":38.2629114,"long":140.9677667,"status":0.0,"note":null,"address":"仙台市宮城野区鶴巻一丁目15番1号","row_num":598},{"area_id":2,"name":"仙台市福田町四丁目公園南側","lat":38.2640289,"long":140.9607579,"status":0.0,"note":null,"address":"仙台市宮城野区福田町四丁目5番","row_num":599},{"area_id":2,"name":"仙台市新田東総合運動場北側（道路敷）","lat":38.279317,"long":140.9365805,"status":0.0,"note":null,"address":"仙台市宮城野区新田東四丁目1番","row_num":600},{"area_id":2,"name":"仙台市新田東総合運動場西側","lat":38.2774978,"long":140.9370497,"status":0.0,"note":null,"address":"仙台市宮城野区新田東四丁目1番の1","row_num":601},{"area_id":2,"name":"仙台市新田東総合運動場南側","lat":38.2774978,"long":140.9370497,"status":0.0,"note":null,"address":"仙台市宮城野区新田東四丁目1番の1","row_num":602},{"area_id":2,"name":"小鶴新田駅前ロータリー南側","lat":38.2735393,"long":140.9351926,"status":1.0,"note":null,"address":"仙台市宮城野区新田東三丁目6番","row_num":603},{"area_id":2,"name":"仙台市新田東中央公園北側","lat":38.2778449,"long":140.9333461,"status":0.0,"note":null,"address":"仙台市宮城野区新田東一丁目11番","row_num":604},{"area_id":2,"name":"仙台市新田東中央公園西側","lat":38.2778449,"long":140.9333461,"status":0.0,"note":null,"address":"仙台市宮城野区新田東一丁目11番","row_num":605},{"area_id":2,"name":"仙台市新田東二丁目公園南側","lat":38.275497,"long":140.9317091,"status":0.0,"note":null,"address":"仙台市宮城野区新田東二丁目2番","row_num":606},{"area_id":2,"name":"水道局用地南西側","lat":38.2774841,"long":140.9325425,"status":0.0,"note":null,"address":"仙台市宮城野区新田東一丁目11番の2","row_num":607},{"area_id":3,"name":"南小泉中学校塀西側","lat":38.2441791,"long":140.9063052,"status":0.0,"note":null,"address":"仙台市若林区一本杉町2-1","row_num":608},{"area_id":3,"name":"南小泉中学校塀北側","lat":38.2441791,"long":140.9063052,"status":0.0,"note":null,"address":"仙台市若林区一本杉町2-1","row_num":609},{"area_id":3,"name":"若林区役所北側","lat":38.2441529,"long":140.9007965,"status":1.0,"note":null,"address":"仙台市若林区保春院前丁3-1","row_num":610},{"area_id":3,"name":"若林区文化センター前敷地北側","lat":38.2425647,"long":140.9010572,"status":1.0,"note":null,"address":"仙台市若林区南小泉一丁目1-1","row_num":611},{"area_id":3,"name":"南小泉茂庭線歩道柵（一本杉町8-7西側）","lat":38.2426031,"long":140.9081547,"status":0.0,"note":null,"address":"仙台市若林区一本杉町8-7先","row_num":612},{"area_id":3,"name":"歩道柵（南小泉四丁目17-10南側）","lat":38.2381109,"long":140.9052966,"status":0.0,"note":null,"address":"仙台市若林区南小泉四丁目17-10先","row_num":613},{"area_id":3,"name":"増尾造園(株)前敷地南側","lat":38.2415578,"long":140.9006479,"status":1.0,"note":null,"address":"仙台市若林区南小泉一丁目9-17","row_num":614},{"area_id":3,"name":"若林老人憩の家塀西側","lat":38.2302158,"long":140.900329,"status":0.0,"note":null,"address":"仙台市若林区若林四丁目2-1","row_num":615},{"area_id":3,"name":"若林市民センター塀東側","lat":38.2313598,"long":140.9019476,"status":0.0,"note":null,"address":"仙台市若林区若林三丁目15-20","row_num":616},{"area_id":3,"name":"歩道柵（若林七丁目8-20北東側）","lat":38.2271688,"long":140.9063668,"status":0.0,"note":null,"address":"仙台市若林区若林七丁目8-20先","row_num":617},{"area_id":3,"name":"若林公園南側","lat":37.9802499,"long":140.6595311,"status":0.0,"note":null,"address":"仙台市若林区若林四丁目4地内（若林四丁目43-74）","row_num":618},{"area_id":3,"name":"若林市営住宅敷地（集会所前植込）","lat":38.2297346,"long":140.9019666,"status":0.0,"note":null,"address":"仙台市若林区若林四丁目2-20","row_num":619},{"area_id":3,"name":"南小泉交通公園西側","lat":38.2323036,"long":140.9064185,"status":0.0,"note":null,"address":"仙台市若林区古城三丁目26-10","row_num":620},{"area_id":3,"name":"若林西市営住宅集会所前","lat":38.2316003,"long":140.895528,"status":0.0,"note":null,"address":"仙台市若林区若林二丁目7-1","row_num":621},{"area_id":3,"name":"早昌不動産・若林一丁目3-10敷地南側","lat":38.2347122,"long":140.8919384,"status":0.0,"note":null,"address":"仙台市若林区若林一丁目3-10","row_num":622},{"area_id":3,"name":"南材木町小学校塀南側","lat":38.2410943,"long":140.8890845,"status":1.0,"note":null,"address":"仙台市若林区南材木町84","row_num":623},{"area_id":3,"name":"南材木町小学校塀北側","lat":38.2410943,"long":140.8890845,"status":1.0,"note":null,"address":"仙台市若林区南材木町84","row_num":624},{"area_id":3,"name":"八軒中学校塀西側","lat":38.2414171,"long":140.8926101,"status":1.0,"note":null,"address":"仙台市若林区南小泉字八軒小路9-1","row_num":625},{"area_id":3,"name":"南材コミュニティ・センター敷地西側","lat":38.2402484,"long":140.8934782,"status":1.0,"note":null,"address":"仙台市若林区南小泉字八軒小路5-4","row_num":626},{"area_id":3,"name":"歩道柵（ポケットパーク内）","lat":38.2430934,"long":140.8878616,"status":1.0,"note":null,"address":"仙台市若林区舟丁27-2先","row_num":627},{"area_id":3,"name":"弘進ゴム(株)塀北側","lat":38.2396545,"long":140.8925915,"status":1.0,"note":null,"address":"仙台市若林区河原町二丁目1-11","row_num":628},{"area_id":3,"name":"河原町駐車場柵北側","lat":38.2387793,"long":140.8894751,"status":1.0,"note":null,"address":"仙台市若林区河原町一丁目4-20先","row_num":629},{"area_id":3,"name":"水路柵（南染師町59南側）","lat":38.2442063,"long":140.8926148,"status":1.0,"note":null,"address":"仙台市若林区南染師町59先","row_num":630},{"area_id":3,"name":"荒町小学校西側正門右側柵","lat":38.2485509,"long":140.8810051,"status":1.0,"note":null,"address":"仙台市若林区荒町86","row_num":631},{"area_id":3,"name":"愛宕橋欄干北東側","lat":38.2464339,"long":140.881465,"status":1.0,"note":null,"address":"仙台市若林区土樋225-2先（土樋223-8地先）","row_num":632},{"area_id":3,"name":"荒町公園西側","lat":38.248126,"long":140.884204,"status":1.0,"note":null,"address":"仙台市若林区荒町36-6外","row_num":633},{"area_id":3,"name":"荒町市民センター北側植栽","lat":38.2490762,"long":140.881866,"status":1.0,"note":null,"address":"仙台市若林区荒町86-2","row_num":634},{"area_id":3,"name":"地下鉄愛宕橋駅出入口前植込","lat":38.2473988,"long":140.8810994,"status":1.0,"note":null,"address":"仙台市若林区土樋一丁目11-8先","row_num":635},{"area_id":3,"name":"東北電力(株)石名坂アパート塀東側","lat":38.2435321,"long":140.8862767,"status":1.0,"note":null,"address":"仙台市若林区石名坂83","row_num":636},{"area_id":3,"name":"歩道柵（東海住宅北目町歩道橋南東側付近）","lat":38.2550871,"long":140.8823288,"status":1.0,"note":null,"address":"仙台市若林区五橋三丁目1-1先（五橋三丁目324-9地先）","row_num":637},{"area_id":3,"name":"歩道柵（南鍛冶町68-1東側・南鍛冶町橋下）","lat":38.248277,"long":140.8888927,"status":1.0,"note":null,"address":"仙台市若林区南鍛冶町68-1先","row_num":638},{"area_id":3,"name":"連坊小路小学校塀東側","lat":38.2523199,"long":140.888423,"status":1.0,"note":null,"address":"仙台市若林区連坊一丁目7-27","row_num":639},{"area_id":3,"name":"新寺三丁目公園南側","lat":38.2550635,"long":140.8880334,"status":0.0,"note":null,"address":"仙台市若林区新寺三丁目6","row_num":640},{"area_id":3,"name":"新寺四丁目公園北側","lat":38.2538753,"long":140.8914668,"status":0.0,"note":null,"address":"仙台市若林区新寺四丁目2地内","row_num":641},{"area_id":3,"name":"新寺五丁目公園西側","lat":38.2560487,"long":140.8959155,"status":0.0,"note":null,"address":"仙台市若林区新寺五丁目9地内","row_num":642},{"area_id":3,"name":"地下鉄連坊駅エレベーター出入口前植込（仙台第一高等学校北側）","lat":38.2501485,"long":140.8938565,"status":1.0,"note":null,"address":"仙台市若林区元茶畑4先","row_num":643},{"area_id":3,"name":"柴田町公園南側","lat":38.0565346,"long":140.7658363,"status":0.0,"note":null,"address":"仙台市若林区表柴田町2-1","row_num":644},{"area_id":3,"name":"連坊あづま児童公園南側","lat":38.2511451,"long":140.8931589,"status":1.0,"note":null,"address":"仙台市若林区連坊二丁目10-33先(連坊二丁目328-1)","row_num":645},{"area_id":3,"name":"歩道柵（東漸寺北側）","lat":38.2499336,"long":140.8902717,"status":1.0,"note":null,"address":"仙台市若林区元茶畑10-16先","row_num":646},{"area_id":3,"name":"若林消防団連坊分団連坊部コミュニティ消防センター柵","lat":38.2539763,"long":140.8938165,"status":1.0,"note":null,"address":"仙台市若林区連坊二丁目6-5先","row_num":647},{"area_id":3,"name":"聖ウルスラ学院木ノ下キャンパス南側植込","lat":38.250026,"long":140.8965014,"status":1.0,"note":null,"address":"仙台市若林区木ノ下一丁目25-25先","row_num":648},{"area_id":3,"name":"白萩公園南側","lat":38.2505724,"long":140.9083255,"status":0.0,"note":null,"address":"仙台市若林区白萩25地内（白萩町62番地）","row_num":649},{"area_id":3,"name":"東北電力(株)木ノ下アパート塀西側","lat":38.2477105,"long":140.9033697,"status":0.0,"note":null,"address":"仙台市若林区木ノ下五丁目7-30","row_num":650},{"area_id":3,"name":"水路上歩道柵（木ノ下五丁目4-7東側）","lat":38.2491613,"long":140.9056534,"status":1.0,"note":null,"address":"仙台市若林区木ノ下五丁目4-7先","row_num":651},{"area_id":3,"name":"椌木緑地西側","lat":38.2483287,"long":140.8987653,"status":1.0,"note":null,"address":"仙台市若林区椌木通61-1先(61-13)","row_num":652},{"area_id":3,"name":"連坊コミュニティ・センター別館木ノ下コミュニティ防災センター前","lat":38.2499653,"long":140.8989256,"status":1.0,"note":null,"address":"仙台市若林区木ノ下一丁目23-23","row_num":653},{"area_id":3,"name":"薬師堂駅駐輪場南側植込","lat":38.2498121,"long":140.9051829,"status":1.0,"note":null,"address":"仙台市若林区木ノ下三丁目16地内","row_num":654},{"area_id":3,"name":"南小泉小学校塀北側","lat":38.2442551,"long":140.9060334,"status":0.0,"note":null,"address":"仙台市若林区一本杉町17-10","row_num":655},{"area_id":3,"name":"一本杉町公園西側","lat":38.2458575,"long":140.903203,"status":0.0,"note":null,"address":"仙台市若林区一本杉町25地内","row_num":656},{"area_id":3,"name":"大和町一丁目東公園西側","lat":38.2462829,"long":140.9089936,"status":0.0,"note":null,"address":"仙台市若林区大和町一丁目22地内","row_num":657},{"area_id":3,"name":"大和町一丁目南公園南側","lat":38.2476378,"long":140.9086654,"status":0.0,"note":null,"address":"仙台市若林区大和町一丁目19地内（大和町一丁目205-32）","row_num":658},{"area_id":3,"name":"歩道柵（薬師高砂堀通り若林区役所北東交差点付近）","lat":38.2453338,"long":140.9021694,"status":0.0,"note":null,"address":"仙台市若林区一本杉町19-22先","row_num":659},{"area_id":3,"name":"宮城の萩大通り道路植栽地（整骨院西側）","lat":38.2453006,"long":140.9095785,"status":0.0,"note":null,"address":"仙台市若林区中倉一丁目4-10先","row_num":660},{"area_id":3,"name":"中倉一丁目公園北側","lat":38.2438303,"long":140.9098071,"status":0.0,"note":null,"address":"仙台市若林区中倉一丁目11地内（102-15）","row_num":661},{"area_id":3,"name":"大和小学校塀北側","lat":38.2469133,"long":140.9168278,"status":0.0,"note":null,"address":"仙台市若林区大和町三丁目16-1","row_num":662},{"area_id":3,"name":"大和小学校塀東側","lat":38.2469133,"long":140.9168278,"status":0.0,"note":null,"address":"仙台市若林区大和町三丁目16-1","row_num":663},{"area_id":3,"name":"牛踏公園北側","lat":38.249307,"long":140.9186813,"status":0.0,"note":null,"address":"仙台市若林区大和町四丁目21地内","row_num":664},{"area_id":3,"name":"松木公園西側","lat":38.2496359,"long":140.924471,"status":0.0,"note":null,"address":"仙台市若林区大和町五丁目7地内","row_num":665},{"area_id":3,"name":"仙台市中央卸売市場塀（正門脇バス停付近）","lat":38.2584087,"long":140.9343733,"status":1.0,"note":null,"address":"仙台市若林区卸町四丁目3-1","row_num":666},{"area_id":3,"name":"県営中倉住宅塀南側","lat":38.2438322,"long":140.9191541,"status":0.0,"note":null,"address":"仙台市若林区中倉二丁目24-1","row_num":667},{"area_id":3,"name":"大和町市営住宅入口フェンス","lat":38.2467385,"long":140.9239395,"status":0.0,"note":null,"address":"仙台市若林区大和町五丁目29-26","row_num":668},{"area_id":3,"name":"地下鉄卸町駅南側出入口植込","lat":38.2501471,"long":140.9170697,"status":0.0,"note":null,"address":"仙台市若林区大和町四丁目19地内","row_num":669},{"area_id":3,"name":"遠見塚小学校塀西側","lat":38.2383685,"long":140.9131188,"status":0.0,"note":null,"address":"仙台市若林区遠見塚一丁目22-1","row_num":670},{"area_id":3,"name":"遠見塚二丁目南公園","lat":38.2397966,"long":140.913504,"status":0.0,"note":null,"address":"仙台市若林区遠見塚二丁目22-28先","row_num":671},{"area_id":3,"name":"遠見塚二丁目２号公園北側","lat":38.240002,"long":140.9106872,"status":0.0,"note":null,"address":"仙台市若林区遠見塚二丁目16地内","row_num":672},{"area_id":3,"name":"遠見塚二丁目公園東側","lat":38.2411259,"long":140.9114325,"status":0.0,"note":null,"address":"仙台市若林区遠見塚二丁目15-24先","row_num":673},{"area_id":3,"name":"遠見塚東公園北側","lat":38.2357115,"long":140.9140766,"status":0.0,"note":null,"address":"仙台市若林区遠見塚東9地内","row_num":674},{"area_id":3,"name":"宮城の萩大通り・遠見塚一丁目4-33西側歩道植込","lat":38.2379009,"long":140.9075013,"status":0.0,"note":null,"address":"仙台市若林区遠見塚一丁目4-33先","row_num":675},{"area_id":3,"name":"南小泉保育所塀東側","lat":38.2379326,"long":140.9100792,"status":0.0,"note":null,"address":"仙台市若林区遠見塚一丁目14-1","row_num":676},{"area_id":3,"name":"若林消防署敷地東側","lat":38.2427951,"long":140.9139975,"status":0.0,"note":null,"address":"仙台市若林区遠見塚二丁目25-20","row_num":677},{"area_id":3,"name":"蒲町小学校塀東側","lat":38.2423959,"long":140.929292,"status":0.0,"note":null,"address":"仙台市若林区蒲町41-1","row_num":678},{"area_id":3,"name":"蒲町中学校塀南側","lat":38.2474864,"long":140.9278515,"status":0.0,"note":null,"address":"仙台市若林区蒲町9-1","row_num":679},{"area_id":3,"name":"なないろの里２号公園南側","lat":38.241453,"long":140.9278513,"status":0.0,"note":null,"address":"仙台市若林区なないろの里一丁目11-18","row_num":680},{"area_id":3,"name":"蒲町公園西側","lat":38.2429509,"long":140.9249714,"status":0.0,"note":null,"address":"仙台市若林区蒲町32地内","row_num":681},{"area_id":3,"name":"交通局霞の目営業所塀南側","lat":38.2403987,"long":140.9205668,"status":0.0,"note":null,"address":"仙台市若林区かすみ町9-1","row_num":682},{"area_id":3,"name":"七郷中央公園西側","lat":38.245276,"long":140.9327813,"status":0.0,"note":null,"address":"仙台市若林区蒲町東11-1","row_num":683},{"area_id":3,"name":"浪分神社柵南側","lat":38.2353928,"long":140.9276854,"status":0.0,"note":null,"address":"仙台市若林区霞目二丁目15-37","row_num":684},{"area_id":3,"name":"なないろの里５号公園北側","lat":38.2385489,"long":140.9344427,"status":0.0,"note":null,"address":"仙台市若林区なないろの里三丁目5-19","row_num":685},{"area_id":3,"name":"なないろの里６号公園北側","lat":38.2374579,"long":140.9307206,"status":0.0,"note":null,"address":"仙台市若林区なないろの里三丁目2-29","row_num":686},{"area_id":3,"name":"七郷小学校塀南側","lat":38.2409413,"long":140.9421237,"status":0.0,"note":null,"address":"仙台市若林区荒井三丁目17-1","row_num":687},{"area_id":3,"name":"七郷市民センター塀北側","lat":38.2426051,"long":140.9410587,"status":0.0,"note":null,"address":"仙台市若林区荒井三丁目7-2","row_num":688},{"area_id":3,"name":"荒井駅南側バスプール","lat":38.2421005,"long":140.9495941,"status":1.0,"note":null,"address":"仙台市若林区荒井東一丁目9","row_num":689},{"area_id":3,"name":"四ツ谷公会堂","lat":38.2369278,"long":140.9614835,"status":0.0,"note":null,"address":"仙台市若林区荒井字四ツ谷東69","row_num":690},{"area_id":3,"name":"歩道柵（笹新田西バス停西側）","lat":38.2270685,"long":140.9633961,"status":0.0,"note":null,"address":"仙台市若林区荒井字五才北138先（荒井字五才北161-2）","row_num":691},{"area_id":3,"name":"荒井字宅地10塀北側","lat":38.2223782,"long":140.9480205,"status":0.0,"note":null,"address":"仙台市若林区荒井字宅地10","row_num":692},{"area_id":3,"name":"荒井東市営住宅敷地西側","lat":38.2363381,"long":140.9508354,"status":0.0,"note":null,"address":"仙台市若林区荒井東二丁目1-1","row_num":693},{"area_id":3,"name":"荒井南１号公園南側","lat":38.2376669,"long":140.942344,"status":0.0,"note":null,"address":"仙台市若林区荒井南67","row_num":694},{"area_id":3,"name":"荒井７丁目公園東側","lat":38.2404345,"long":140.9467961,"status":1.0,"note":null,"address":"仙台市若林区荒井七丁目14-1","row_num":695},{"area_id":3,"name":"荒井小学校塀北側","lat":38.2476801,"long":140.9407374,"status":0.0,"note":null,"address":"仙台市若林区伊在三丁目2-1","row_num":696},{"area_id":3,"name":"荒井小学校塀西側","lat":38.2476801,"long":140.9407374,"status":0.0,"note":null,"address":"仙台市若林区伊在三丁目2-1","row_num":697},{"area_id":3,"name":"六丁の目北町1-68塀南側","lat":38.2509919,"long":140.9479427,"status":0.0,"note":null,"address":"仙台市若林区六丁の目北町1-68","row_num":698},{"area_id":3,"name":"六丁の目北町公園西側","lat":38.2515538,"long":140.9494606,"status":0.0,"note":null,"address":"仙台市若林区六丁の目北町9-3","row_num":699},{"area_id":3,"name":"六丁の目南町公園北側","lat":38.2493611,"long":140.9414065,"status":0.0,"note":null,"address":"仙台市若林区六丁の目南町6-2","row_num":700},{"area_id":3,"name":"卸町東二丁目公園南側","lat":38.2590644,"long":140.9475534,"status":0.0,"note":null,"address":"仙台市若林区卸町東二丁目4-1","row_num":701},{"area_id":3,"name":"六丁の目中町西公園北側","lat":38.2529605,"long":140.9391634,"status":1.0,"note":null,"address":"仙台市若林区六丁の目中町9-1","row_num":702},{"area_id":3,"name":"伊在二丁目公園南側","lat":38.2462578,"long":140.9378473,"status":0.0,"note":null,"address":"仙台市若林区伊在二丁目21-1","row_num":703},{"area_id":3,"name":"東六郷コミュニティ・センター塀北側","lat":38.1987694,"long":140.949906,"status":0.0,"note":null,"address":"仙台市若林区二木字山王77-2","row_num":704},{"area_id":3,"name":"歩道柵（種次入口バス停北側）","lat":38.2018517,"long":140.9443996,"status":0.0,"note":null,"address":"仙台市若林区種次字道元47-2先（二木字笠神341先）","row_num":705},{"area_id":3,"name":"歩道柵（東六郷コミュニティ・センター前バス停東側）","lat":38.1997231,"long":140.9512398,"status":0.0,"note":null,"address":"仙台市若林区二木字山王3-2先","row_num":706},{"area_id":3,"name":"種次公会堂南側フェンス","lat":38.196441,"long":140.9444113,"status":0.0,"note":null,"address":"仙台市若林区種次字中屋敷47-1先","row_num":707},{"area_id":3,"name":"歩道柵（長屋敷作業組合穀物共同乾燥調製施設向側）","lat":38.2170375,"long":140.9549029,"status":0.0,"note":null,"address":"仙台市若林区三本塚字下新田222-1先（三本塚字下新田374）","row_num":708},{"area_id":3,"name":"歩道柵（井土浜バス停前）","lat":38.1995754,"long":140.9573797,"status":0.0,"note":null,"address":"仙台市若林区二木字大口5先","row_num":709},{"area_id":3,"name":"中野バス停西側","lat":38.1935832,"long":140.9504748,"status":0.0,"note":null,"address":"仙台市若林区種次字南番古55-1","row_num":710},{"area_id":3,"name":"三本塚公会堂敷地南側","lat":38.2097422,"long":140.9531694,"status":0.0,"note":null,"address":"仙台市若林区三本塚字権太125","row_num":711},{"area_id":3,"name":"六郷小学校塀北側","lat":38.215389,"long":140.9331421,"status":0.0,"note":null,"address":"仙台市若林区六郷11-11","row_num":712},{"area_id":3,"name":"六郷中学校塀西側","lat":38.2134536,"long":140.9340645,"status":0.0,"note":null,"address":"仙台市若林区六郷13-1","row_num":713},{"area_id":3,"name":"飯田前公園（今泉神社前バス停付近）","lat":38.2126273,"long":140.9271026,"status":0.0,"note":null,"address":"仙台市若林区今泉二丁目3-33先","row_num":714},{"area_id":3,"name":"若林消防署六郷分署塀北側（入口西側）","lat":38.2112301,"long":140.9342088,"status":0.0,"note":null,"address":"仙台市若林区今泉字久保田東32-65","row_num":715},{"area_id":3,"name":"土手畑２号公園南側","lat":38.2172421,"long":140.9133023,"status":0.0,"note":null,"address":"仙台市若林区上飯田二丁目17地内（上飯田二丁目145-29）","row_num":716},{"area_id":3,"name":"歩道柵（上飯田三丁目バス停南側）","lat":38.2184118,"long":140.9210229,"status":0.0,"note":null,"address":"仙台市若林区上飯田三丁目1-3先","row_num":717},{"area_id":3,"name":"今泉運動場駐車場塀北側","lat":38.2051349,"long":140.9271617,"status":0.0,"note":null,"address":"仙台市若林区今泉字鹿子穴140","row_num":718},{"area_id":3,"name":"ニッペリア敷地東側","lat":38.2138542,"long":140.9205927,"status":0.0,"note":null,"address":"仙台市若林区日辺字沖田東15","row_num":719},{"area_id":3,"name":"六郷市民センター塀南側","lat":38.2149069,"long":140.9275154,"status":0.0,"note":null,"address":"仙台市若林区今泉一丁目3-19","row_num":720},{"area_id":3,"name":"上飯田大町６号公園北側","lat":38.2170459,"long":140.9295867,"status":0.0,"note":null,"address":"仙台市若林区上飯田四丁目17-3先","row_num":721},{"area_id":3,"name":"沖野小学校塀西側","lat":38.2259822,"long":140.9140646,"status":0.0,"note":null,"address":"仙台市若林区沖野三丁目20-1","row_num":722},{"area_id":3,"name":"中柵東７号公園西側","lat":38.2265976,"long":140.915683,"status":0.0,"note":null,"address":"仙台市若林区沖野三丁目31地内（沖野三丁目91-5）","row_num":723},{"area_id":3,"name":"館西３号公園南側","lat":38.2303239,"long":140.915021,"status":0.0,"note":null,"address":"仙台市若林区沖野二丁目26地内","row_num":724},{"area_id":3,"name":"新神柵公園北側","lat":38.2297116,"long":140.9113072,"status":0.0,"note":null,"address":"仙台市若林区沖野二丁目14地内","row_num":725},{"area_id":3,"name":"水路北側（沖野一丁目41-3南側）","lat":38.2314346,"long":140.9110581,"status":0.0,"note":null,"address":"仙台市若林区沖野一丁目41-3先","row_num":726},{"area_id":3,"name":"沖野中学校塀西側","lat":38.2289947,"long":140.9160719,"status":0.0,"note":null,"address":"仙台市若林区沖野二丁目29-50","row_num":727},{"area_id":3,"name":"六郷幼稚園塀東側","lat":38.2237221,"long":140.9105941,"status":0.0,"note":null,"address":"仙台市若林区沖野五丁目4-33","row_num":728},{"area_id":3,"name":"沖野二丁目15-30塀東側","lat":38.2286499,"long":140.9119853,"status":0.0,"note":null,"address":"仙台市若林区沖野二丁目15-30","row_num":729},{"area_id":3,"name":"沖野東小学校塀西側","lat":38.2225725,"long":140.9225803,"status":0.0,"note":null,"address":"仙台市若林区沖野字高野南89","row_num":730},{"area_id":3,"name":"沖野市民センター塀東側","lat":38.2249957,"long":140.9222325,"status":0.0,"note":null,"address":"仙台市若林区沖野七丁目34-43","row_num":731},{"area_id":3,"name":"中柵東４号公園南側","lat":38.2271623,"long":140.9172377,"status":0.0,"note":null,"address":"仙台市若林区沖野七丁目11地内","row_num":732},{"area_id":3,"name":"河原下６号公園南側","lat":38.2244045,"long":140.9166169,"status":0.0,"note":null,"address":"仙台市若林区沖野六丁目16地内","row_num":733},{"area_id":3,"name":"館南９号公園北側","lat":38.2252599,"long":140.9196145,"status":0.0,"note":null,"address":"仙台市若林区沖野六丁目29-3先","row_num":734},{"area_id":3,"name":"天神公園南側","lat":38.2182982,"long":140.9266417,"status":0.0,"note":null,"address":"仙台市若林区上飯田字天神41-1先","row_num":735},{"area_id":3,"name":"つどいの家・コペル塀西側","lat":38.2205371,"long":140.9174608,"status":0.0,"note":null,"address":"仙台市若林区上飯田一丁目17-58","row_num":736},{"area_id":3,"name":"古城小学校塀西側","lat":38.2361507,"long":140.8970807,"status":0.0,"note":null,"address":"仙台市若林区古城二丁目1-1","row_num":737},{"area_id":3,"name":"若林一丁目北公園北側","lat":38.2355729,"long":140.897573,"status":0.0,"note":null,"address":"仙台市若林区若林一丁目8-6-1先（若林一丁目79-24）","row_num":738},{"area_id":3,"name":"古城コミュニティ・センター塀南側","lat":38.2380194,"long":140.8961715,"status":0.0,"note":null,"address":"仙台市若林区古城一丁目1-15","row_num":739},{"area_id":3,"name":"文化町２号公園南側","lat":38.2407437,"long":140.8958359,"status":1.0,"note":null,"address":"仙台市若林区文化町15地内","row_num":740},{"area_id":3,"name":"水路柵（文化町9-3北側）","lat":38.2427157,"long":140.8969494,"status":1.0,"note":null,"address":"仙台市若林区文化町9-3先（78-9地先）","row_num":741},{"area_id":3,"name":"水路柵（古城二丁目バス停付近・北側のバス停の東側）","lat":38.2373879,"long":140.899031,"status":0.0,"note":null,"address":"仙台市若林区南小泉三丁目21-22先（135-1地先）","row_num":742},{"area_id":3,"name":"若林一丁目公園南側","lat":38.2343834,"long":140.8984121,"status":0.0,"note":null,"address":"仙台市若林区若林一丁目8-24先（83-30）","row_num":743},{"area_id":3,"name":"宮城刑務所（南小泉三丁目バス停南側）","lat":38.2366631,"long":140.9003141,"status":0.0,"note":null,"address":"仙台市若林区古城二丁目5地内","row_num":744},{"area_id":3,"name":"大和コミュニティ・センター西側","lat":38.2473247,"long":140.9148247,"status":0.0,"note":null,"address":"仙台市若林区大和町二丁目9-15","row_num":745},{"area_id":3,"name":"大和児童館南側フェンス","lat":38.2457152,"long":140.9171166,"status":0.0,"note":null,"address":"仙台市若林区中倉二丁目19-25","row_num":746},{"area_id":3,"name":"市道２６７号南側植栽地（大和町二丁目1-14北側）","lat":38.2487378,"long":140.9120745,"status":0.0,"note":null,"address":"仙台市若林区大和町二丁目1-14先","row_num":747},{"area_id":3,"name":"市道２６７号北側植栽地（大和町二丁目バス停付近）","lat":38.2492303,"long":140.9121214,"status":0.0,"note":null,"address":"仙台市若林区志波町4-18先","row_num":748},{"area_id":3,"name":"宮城の萩大通り道路植栽地（ピザ店西側）","lat":38.2466437,"long":140.9101319,"status":0.0,"note":null,"address":"仙台市若林区大和町二丁目29-18先","row_num":749},{"area_id":3,"name":"尼坪公園北側","lat":38.2462223,"long":140.9165792,"status":0.0,"note":null,"address":"仙台市若林区大和町三丁目18","row_num":750},{"area_id":3,"name":"尼坪公園西側","lat":38.2462223,"long":140.9165792,"status":0.0,"note":null,"address":"仙台市若林区大和町三丁目18","row_num":751},{"area_id":3,"name":"ヨークマルシェ大和町店南側植栽地","lat":38.2492783,"long":140.9144661,"status":0.0,"note":null,"address":"仙台市若林区大和町四丁目6-1先","row_num":752},{"area_id":4,"name":"太白障害者福祉ｾﾝﾀｰ西側（植栽）","lat":38.2241825,"long":140.8803644,"status":0.0,"note":null,"address":"仙台市太白区長町南一丁目6-10","row_num":753},{"area_id":4,"name":"長町南三丁目北公園東側","lat":38.2231776,"long":140.8759848,"status":1.0,"note":null,"address":"仙台市太白区長町南三丁目5地内","row_num":754},{"area_id":4,"name":"地底の森ﾐｭｰｼﾞｱﾑ駐車場（植栽）","lat":38.223052,"long":140.8732552,"status":1.0,"note":null,"address":"仙台市太白区長町南四丁目3地内","row_num":755},{"area_id":4,"name":"仙台南県税事務所","lat":38.1910832,"long":140.8783609,"status":0.0,"note":null,"address":"仙台市太白区長町七丁目22-20","row_num":756},{"area_id":4,"name":"鹿野三丁目公園西側","lat":38.2257061,"long":140.8698915,"status":0.0,"note":null,"address":"仙台市太白区鹿野三丁目7地内","row_num":757},{"area_id":4,"name":"泉崎二丁目公園北西側","lat":38.2226977,"long":140.8666178,"status":0.0,"note":null,"address":"仙台市太白区泉崎二丁目9地内","row_num":758},{"area_id":4,"name":"長町南小学校西側","lat":38.2262465,"long":140.8742192,"status":0.0,"note":null,"address":"仙台市太白区長町七丁目23-1","row_num":759},{"area_id":4,"name":"地下鉄長町南駅駐輪場（植栽）","lat":38.22461,"long":140.8766,"status":1.0,"note":null,"address":"仙台市太白区長町南三丁目1地内","row_num":760},{"area_id":4,"name":"長町南四丁目北公園西側","lat":38.2229853,"long":140.8715743,"status":1.0,"note":null,"address":"仙台市太白区長町南四丁目2地内","row_num":761},{"area_id":4,"name":"土手前公園","lat":38.2095976,"long":140.8805329,"status":0.0,"note":null,"address":"仙台市太白区大野田三丁目12地内","row_num":762},{"area_id":4,"name":"大野田ｺﾐｭﾆﾃｨ･ｾﾝﾀｰ","lat":38.2158379,"long":140.8751182,"status":0.0,"note":null,"address":"仙台市太白区大野田五丁目23地内","row_num":763},{"area_id":4,"name":"長町南四丁目南公園北側","lat":38.22,"long":140.8741821,"status":0.0,"note":null,"address":"仙台市太白区長町南四丁目21地内","row_num":764},{"area_id":4,"name":"地下鉄富沢駅西側（植栽）","lat":38.2142704,"long":140.870577,"status":1.0,"note":null,"address":"仙台市太白区富沢四丁目2-22","row_num":765},{"area_id":4,"name":"大野田観音堂公園北側","lat":38.2109864,"long":140.8749958,"status":0.0,"note":null,"address":"仙台市太白区大野田四丁目27地内","row_num":766},{"area_id":4,"name":"大野田小学校東側","lat":38.21673,"long":140.874188,"status":0.0,"note":null,"address":"仙台市太白区大野田五丁目27-2","row_num":767},{"area_id":4,"name":"歩道ﾌｪﾝｽ（館腰線、袋東公園西側）","lat":38.2179398,"long":140.8783487,"status":0.0,"note":null,"address":"仙台市太白区大野田一丁目4地内","row_num":768},{"area_id":4,"name":"太子堂公園","lat":38.2141654,"long":140.8817366,"status":0.0,"note":null,"address":"仙台市太白区太子堂4地内","row_num":769},{"area_id":4,"name":"土手内一丁目東公園","lat":38.2275262,"long":140.8617276,"status":0.0,"note":null,"address":"仙台市太白区土手内一丁目7地内","row_num":770},{"area_id":4,"name":"歩道ﾌｪﾝｽ(鹿野小学校北側)","lat":38.2288592,"long":140.8718852,"status":0.0,"note":null,"address":"仙台市太白区鹿野二丁目9地内","row_num":771},{"area_id":4,"name":"東北工業大学長町ｷｬﾝﾊﾟｽ西側(長岫橋と大学入口の間のﾌｪﾝｽ)","lat":38.235505,"long":140.8727752,"status":0.0,"note":null,"address":"仙台市太白区二ツ沢10地内","row_num":772},{"area_id":4,"name":"二ツ沢公園","lat":38.2351851,"long":140.8666429,"status":0.0,"note":null,"address":"仙台市太白区緑ケ丘三丁目38地内","row_num":773},{"area_id":4,"name":"緑ケ丘2号緑地","lat":38.2310092,"long":140.8671948,"status":0.0,"note":null,"address":"仙台市太白区緑ケ丘一丁目9地内","row_num":774},{"area_id":4,"name":"水路ﾌｪﾝｽ(鹿野橋ﾊﾞｽ停付近)","lat":38.232484,"long":140.8723706,"status":1.0,"note":null,"address":"仙台市太白区鹿野本町6地内","row_num":775},{"area_id":4,"name":"長町中学校南東側","lat":38.2299851,"long":140.8736364,"status":0.0,"note":null,"address":"仙台市太白区鹿野一丁目8-1","row_num":776},{"area_id":4,"name":"緑ケ丘4号緑地","lat":38.2335103,"long":140.8662849,"status":0.0,"note":null,"address":"仙台市太白区緑ケ丘三丁目5地内","row_num":777},{"area_id":4,"name":"桜木町公園南側","lat":38.2441907,"long":140.8527744,"status":0.0,"note":null,"address":"仙台市太白区桜木町13地内","row_num":778},{"area_id":4,"name":"八木山本町一丁目公園","lat":38.2425483,"long":140.8477807,"status":1.0,"note":null,"address":"仙台市太白区八木山本町一丁目18地内","row_num":779},{"area_id":4,"name":"水路ﾌｪﾝｽ（八木山本町二丁目ﾊﾞｽ停付近）","lat":38.2434027,"long":140.8464445,"status":0.0,"note":null,"address":"仙台市太白区八木山本町一丁目40地内","row_num":780},{"area_id":4,"name":"八木山小学校西側","lat":38.2387196,"long":140.8485827,"status":1.0,"note":null,"address":"仙台市太白区八木山本町一丁目40-1","row_num":781},{"area_id":4,"name":"八木山中学校南東側（法面）","lat":38.2369646,"long":140.8461052,"status":0.0,"note":null,"address":"仙台市太白区八木山東二丁目27-1","row_num":782},{"area_id":4,"name":"八木山中学校北西側（ﾌｪﾝｽ）","lat":38.2369646,"long":140.8461052,"status":0.0,"note":null,"address":"仙台市太白区八木山東二丁目27-1","row_num":783},{"area_id":4,"name":"歩道ﾌｪﾝｽ（地下鉄八木山動物公園駅西出口側）","lat":38.2440366,"long":140.8424728,"status":1.0,"note":null,"address":"仙台市太白区八木山本町一丁目43地内","row_num":784},{"area_id":4,"name":"松風公園南側","lat":38.2389042,"long":140.8408654,"status":0.0,"note":null,"address":"仙台市太白区八木山本町二丁目38地内","row_num":785},{"area_id":4,"name":"青山二丁目公園","lat":38.2382642,"long":140.8611268,"status":0.0,"note":null,"address":"仙台市太白区青山二丁目27地内","row_num":786},{"area_id":4,"name":"青山保育所南側","lat":38.2406604,"long":140.8584145,"status":0.0,"note":null,"address":"仙台市太白区青山一丁目10-28","row_num":787},{"area_id":4,"name":"市道敷","lat":38.2441907,"long":140.8527744,"status":0.0,"note":null,"address":"仙台市太白区桜木町39地内","row_num":788},{"area_id":4,"name":"歩道ﾌｪﾝｽ（仙台城南高校入口付近）","lat":38.2410989,"long":140.8623207,"status":0.0,"note":null,"address":"仙台市太白区八木山弥生町4地内","row_num":789},{"area_id":4,"name":"市道敷（水路ｶﾞｰﾄﾞﾚｰﾙ）","lat":38.2381617,"long":140.8606833,"status":0.0,"note":null,"address":"仙台市太白区青山二丁目40地内","row_num":790},{"area_id":4,"name":"青山二丁目3号公園南側","lat":38.236921,"long":140.8624611,"status":0.0,"note":null,"address":"仙台市太白区青山二丁目23地内","row_num":791},{"area_id":4,"name":"水路ﾌｪﾝｽ（市道幅員の広い箇所）","lat":38.2409161,"long":140.856072,"status":0.0,"note":null,"address":"仙台市太白区青山一丁目32地内","row_num":792},{"area_id":4,"name":"太白消防署八木山出張所（植栽）","lat":38.2459583,"long":140.8571609,"status":0.0,"note":null,"address":"仙台市太白区八木山香澄町25-20","row_num":793},{"area_id":4,"name":"向山小学校東側(向山児童館脇植栽)","lat":38.243791,"long":140.8669661,"status":0.0,"note":null,"address":"仙台市太白区向山三丁目19-1","row_num":794},{"area_id":4,"name":"萩ケ丘公園（植栽）","lat":38.2397901,"long":140.8663997,"status":0.0,"note":null,"address":"仙台市太白区萩ケ丘28地内","row_num":795},{"area_id":4,"name":"大泉山保存緑地北側（市道沿いﾌｪﾝｽ）","lat":38.2410989,"long":140.8623207,"status":0.0,"note":null,"address":"仙台市太白区八木山弥生町17地内","row_num":796},{"area_id":4,"name":"市道敷（萩ケ丘ﾊﾞｽ停付近ｶﾞｰﾄﾞﾚｰﾙ）","lat":38.2376555,"long":140.8680842,"status":0.0,"note":null,"address":"仙台市太白区長嶺14地内","row_num":797},{"area_id":4,"name":"仙台城南高等学校ｸﾞﾗｳﾝﾄﾞ（南西側法面）","lat":38.2467914,"long":140.8593467,"status":0.0,"note":null,"address":"仙台市太白区八木山香澄町12地内","row_num":798},{"area_id":4,"name":"愛宕中学校(向山ｺﾐｭﾆﾃｨ・ｾﾝﾀｰ西側法面)","lat":38.2408102,"long":140.8709961,"status":0.0,"note":null,"address":"仙台市太白区萩ケ丘9-1","row_num":799},{"area_id":4,"name":"民地（向山四丁目ﾊﾞｽ停付近）","lat":38.2437961,"long":140.8763757,"status":0.0,"note":null,"address":"仙台市太白区向山四丁目28地内","row_num":800},{"area_id":4,"name":"歩道脇水道局フェンス（ますみ保育園隣）","lat":38.2437961,"long":140.8763757,"status":0.0,"note":null,"address":"仙台市太白区向山四丁目26地内","row_num":801},{"area_id":4,"name":"歩道ﾌｪﾝｽ(東北電子産業向)","lat":38.24249,"long":140.8687312,"status":0.0,"note":null,"address":"仙台市太白区向山三丁目1地内","row_num":802},{"area_id":4,"name":"向山公園","lat":38.2437961,"long":140.8763757,"status":0.0,"note":null,"address":"仙台市太白区向山四丁目27地内","row_num":803},{"area_id":4,"name":"歩道ﾌｪﾝｽ(越路ﾊﾞｽ停近く)","lat":38.2447511,"long":140.8802385,"status":1.0,"note":null,"address":"仙台市太白区越路17地内","row_num":804},{"area_id":4,"name":"野草園（正門右側ﾌｪﾝｽ）","lat":38.2387997,"long":140.8739392,"status":0.0,"note":null,"address":"仙台市太白区茂ケ崎二丁目1-1","row_num":805},{"area_id":4,"name":"向山一丁目公園南側","lat":38.2491435,"long":140.8649556,"status":0.0,"note":null,"address":"仙台市太白区向山一丁目8地内","row_num":806},{"area_id":4,"name":"歩道ﾌｪﾝｽ（大年寺前ﾊﾞｽ停付近）","lat":38.2350823,"long":140.878942,"status":0.0,"note":null,"address":"仙台市太白区門前町4地内","row_num":807},{"area_id":4,"name":"交通局長町営業所北側","lat":38.2244405,"long":140.8660943,"status":0.0,"note":null,"address":"仙台市太白区長町五丁目8-18","row_num":808},{"area_id":4,"name":"長町小学校南側","lat":38.2452654,"long":140.8738492,"status":0.0,"note":null,"address":"仙台市太白区長町四丁目6-1","row_num":809},{"area_id":4,"name":"長町二丁目公園南側","lat":38.2336877,"long":140.8844138,"status":0.0,"note":null,"address":"仙台市太白区長町二丁目4地内","row_num":810},{"area_id":4,"name":"長町小学校東側","lat":38.2452654,"long":140.8738492,"status":0.0,"note":null,"address":"仙台市太白区長町四丁目6-1","row_num":811},{"area_id":4,"name":"歩道ﾌｪﾝｽ（県第二総合運動場西側）","lat":38.2390582,"long":140.8832095,"status":0.0,"note":null,"address":"仙台市太白区根岸町15地内","row_num":812},{"area_id":4,"name":"福寿さくら公園","lat":38.2316583,"long":140.8772229,"status":0.0,"note":null,"address":"仙台市太白区鹿野一丁目2地内","row_num":813},{"area_id":4,"name":"長町駅西口広場公園（植栽）","lat":38.227296,"long":140.8852212,"status":1.0,"note":null,"address":"仙台市太白区長町五丁目1地内","row_num":814},{"area_id":4,"name":"水路ﾌｪﾝｽ(仙台南高校前ﾊﾞｽ停付近)","lat":38.2342243,"long":140.882561,"status":0.0,"note":null,"address":"仙台市太白区長町二丁目1地内","row_num":815},{"area_id":4,"name":"あすと長町中央公園西側（植栽）","lat":38.2247396,"long":140.8875105,"status":0.0,"note":null,"address":"仙台市太白区あすと長町四丁目4地内","row_num":816},{"area_id":4,"name":"JR長町駅東口広場（駐輪場脇植栽）","lat":38.22724,"long":140.886157,"status":1.0,"note":null,"address":"仙台市太白区あすと長町一丁目6地内","row_num":817},{"area_id":4,"name":"仙台市立病院東側（植栽）","lat":38.2319186,"long":140.8883235,"status":1.0,"note":null,"address":"仙台市太白区あすと長町一丁目1-1","row_num":818},{"area_id":4,"name":"〆木公園北側","lat":38.2253527,"long":140.894584,"status":0.0,"note":null,"address":"仙台市太白区郡山三丁目6地内","row_num":819},{"area_id":4,"name":"八本松小学校東側","lat":38.2259791,"long":140.8978568,"status":0.0,"note":null,"address":"仙台市太白区八本松一丁目16-1","row_num":820},{"area_id":4,"name":"資材倉庫(旧環境事業所西側ﾌｪﾝｽ)","lat":38.2216038,"long":140.8954029,"status":0.0,"note":null,"address":"仙台市太白区郡山三丁目27-10","row_num":821},{"area_id":4,"name":"八本松市民ｾﾝﾀｰ（ﾌｪﾝｽ）","lat":38.2289174,"long":140.8925718,"status":0.0,"note":null,"address":"仙台市太白区八本松二丁目4-20","row_num":822},{"area_id":4,"name":"八本松公園（児童館側入口西側植栽)","lat":38.2281835,"long":140.8918814,"status":0.0,"note":null,"address":"仙台市太白区八本松二丁目5地内","row_num":823},{"area_id":4,"name":"長町副都心1号公園北側","lat":38.2238965,"long":140.8891533,"status":0.0,"note":null,"address":"仙台市太白区郡山二丁目2地内","row_num":824},{"area_id":4,"name":"宮城自動車学校南側（ﾌｪﾝｽ)","lat":38.2232738,"long":140.9022538,"status":0.0,"note":null,"address":"仙台市太白区東郡山一丁目10-1","row_num":825},{"area_id":4,"name":"飯田公園","lat":38.2213914,"long":140.900748,"status":0.0,"note":null,"address":"仙台市太白区東郡山二丁目17地内","row_num":826},{"area_id":4,"name":"郡山小学校西側","lat":38.2164832,"long":140.8996866,"status":0.0,"note":null,"address":"仙台市太白区郡山字行新田1-1","row_num":827},{"area_id":4,"name":"郡山源兵衛東公園","lat":38.2190479,"long":140.9068241,"status":0.0,"note":null,"address":"仙台市太白区東郡山二丁目25地内","row_num":828},{"area_id":4,"name":"谷地田西公園","lat":38.2141713,"long":140.8949726,"status":0.0,"note":null,"address":"仙台市太白区郡山字谷地田西3地内","row_num":829},{"area_id":4,"name":"郡山新橋北公園","lat":38.2173939,"long":140.896382,"status":0.0,"note":null,"address":"仙台市太白区郡山字新橋北8地内","row_num":830},{"area_id":4,"name":"郡山老人福祉ｾﾝﾀｰ前（ｶﾞｰﾄﾞﾊﾟｲﾌﾟ）","lat":38.2154849,"long":140.9024413,"status":0.0,"note":null,"address":"仙台市太白区郡山字深町2地内","row_num":831},{"area_id":4,"name":"郡山中学校南側","lat":38.2199684,"long":140.8933617,"status":0.0,"note":null,"address":"仙台市太白区郡山五丁目10-1","row_num":832},{"area_id":4,"name":"東長町小学校東側","lat":38.2189361,"long":140.8892438,"status":0.0,"note":null,"address":"仙台市太白区郡山六丁目5-1","row_num":833},{"area_id":4,"name":"天王前公園南側","lat":38.2124078,"long":140.889587,"status":0.0,"note":null,"address":"仙台市太白区郡山八丁目7地内","row_num":834},{"area_id":4,"name":"ＪＲ太子堂駅東口広場（駐輪場脇植栽）","lat":38.217142,"long":140.884908,"status":1.0,"note":null,"address":"仙台市太白区あすと長町三丁目12地内","row_num":835},{"area_id":4,"name":"市道敷（仙台南部道路北側）","lat":38.2089547,"long":140.8866353,"status":0.0,"note":null,"address":"仙台市太白区東大野田地内","row_num":836},{"area_id":4,"name":"東大野田西公園西側","lat":38.2103729,"long":140.8865339,"status":0.0,"note":null,"address":"仙台市太白区東大野田10地内","row_num":837},{"area_id":4,"name":"東大野田公園（東大野田ﾊﾞｽ停付近）","lat":38.2098863,"long":140.8843746,"status":0.0,"note":null,"address":"仙台市太白区東大野田2地内","row_num":838},{"area_id":4,"name":"郡山市営住宅西側（植栽）","lat":38.2198115,"long":140.8873239,"status":0.0,"note":null,"address":"仙台市太白区郡山六丁目6-6","row_num":839},{"area_id":4,"name":"市道ｶﾞｰﾄﾞﾌｪﾝｽ（四郎丸小学校前ﾊﾞｽ停脇）","lat":38.1908148,"long":140.9088191,"status":0.0,"note":null,"address":"仙台市太白区四郎丸字渡道37地内","row_num":840},{"area_id":4,"name":"吹上1号公園東側","lat":38.1939595,"long":140.9147768,"status":0.0,"note":null,"address":"仙台市太白区四郎丸字吹上77地内","row_num":841},{"area_id":4,"name":"四郎丸小学校北側（ｶﾞｰﾄﾞﾊﾟｲﾌﾟ）","lat":38.1937422,"long":140.9108018,"status":0.0,"note":null,"address":"仙台市太白区四郎丸字吹上6-3","row_num":842},{"area_id":4,"name":"東中田市民ｾﾝﾀｰ","lat":38.1929607,"long":140.9140372,"status":0.0,"note":null,"address":"仙台市太白区四郎丸字吹上51","row_num":843},{"area_id":4,"name":"袋原保育所東側","lat":38.1978181,"long":140.9151253,"status":0.0,"note":null,"address":"仙台市太白区袋原五丁目1-10","row_num":844},{"area_id":4,"name":"小平公園北側","lat":38.1968285,"long":140.9123659,"status":0.0,"note":null,"address":"仙台市太白区袋原六丁目17地内","row_num":845},{"area_id":4,"name":"向日葵ﾌｧﾐﾘｰ正面西側（植栽）","lat":38.1956585,"long":140.9178742,"status":0.0,"note":null,"address":"仙台市太白区袋原五丁目17-33","row_num":846},{"area_id":4,"name":"四郎丸昭和裏3号公園","lat":38.1890328,"long":140.9155329,"status":0.0,"note":null,"address":"仙台市太白区四郎丸字昭和裏26地内","row_num":847},{"area_id":4,"name":"四郎丸市営住宅1号棟南側（植栽）","lat":38.1939077,"long":140.9175124,"status":0.0,"note":null,"address":"仙台市太白区四郎丸字大宮26-1","row_num":848},{"area_id":4,"name":"四郎丸東市営住宅1号棟南側（植栽）","lat":38.1959222,"long":140.919847,"status":0.0,"note":null,"address":"仙台市太白区四郎丸字落合23-1","row_num":849},{"area_id":4,"name":"東四郎丸小学校西側","lat":38.1933779,"long":140.9251316,"status":0.0,"note":null,"address":"仙台市太白区四郎丸字昭和北1","row_num":850},{"area_id":4,"name":"昭和中公園","lat":38.1907831,"long":140.9230568,"status":0.0,"note":null,"address":"仙台市太白区四郎丸字昭和中78地内","row_num":851},{"area_id":4,"name":"四郎丸東市営住宅3号棟東側（植栽）","lat":38.1959222,"long":140.919847,"status":0.0,"note":null,"address":"仙台市太白区四郎丸字落合23-1","row_num":852},{"area_id":4,"name":"四郎丸戸ノ内2号公園","lat":38.1892019,"long":140.9172736,"status":0.0,"note":null,"address":"仙台市太白区四郎丸字戸ノ内93地内","row_num":853},{"area_id":4,"name":"四郎丸市営住宅7号棟西側（植栽）","lat":38.1939077,"long":140.9175124,"status":0.0,"note":null,"address":"仙台市太白区四郎丸字大宮26-1","row_num":854},{"area_id":4,"name":"寺浦公園東側","lat":38.1947662,"long":140.899675,"status":0.0,"note":null,"address":"仙台市太白区中田町字寺浦10地内","row_num":855},{"area_id":4,"name":"中田境東公園（堰場ﾊﾞｽ停東南方向）","lat":38.1897266,"long":140.9049481,"status":0.0,"note":null,"address":"仙台市太白区中田町字境29地内","row_num":856},{"area_id":4,"name":"中田中央公園南側（駐車場入口脇ﾌｪﾝｽ）","lat":38.1995724,"long":140.8990559,"status":0.0,"note":null,"address":"仙台市太白区東中田五丁目13地内","row_num":857},{"area_id":4,"name":"中法地公園西側","lat":38.2017114,"long":140.8981092,"status":0.0,"note":null,"address":"仙台市太白区東中田二丁目20地内","row_num":858},{"area_id":4,"name":"JCHO仙台南病院前（ｶﾞｰﾄﾞﾊﾟｲﾌﾟ）","lat":38.1906772,"long":140.8997262,"status":0.0,"note":null,"address":"仙台市太白区中田町前沖143地内","row_num":859},{"area_id":4,"name":"中田二軒橋公園","lat":38.1964854,"long":140.8954571,"status":0.0,"note":null,"address":"仙台市太白区中田町字二軒橋14地内","row_num":860},{"area_id":4,"name":"南首長北公園東側","lat":38.2018769,"long":140.9029104,"status":0.0,"note":null,"address":"仙台市太白区東中田三丁目5地内","row_num":861},{"area_id":4,"name":"袋原北公園南側","lat":38.2027387,"long":140.9122269,"status":0.0,"note":null,"address":"仙台市太白区袋原二丁目11地内","row_num":862},{"area_id":4,"name":"袋原・原公園","lat":38.2009872,"long":140.9083616,"status":0.0,"note":null,"address":"仙台市太白区袋原一丁目19地内","row_num":863},{"area_id":4,"name":"中田二丁目公園","lat":38.2033318,"long":140.8897382,"status":0.0,"note":null,"address":"仙台市太白区中田二丁目15地内","row_num":864},{"area_id":4,"name":"中田小学校北側","lat":38.200436,"long":140.8872191,"status":0.0,"note":null,"address":"仙台市太白区中田四丁目1-1","row_num":865},{"area_id":4,"name":"JR南仙台駅東口広場（駐輪場側植栽）","lat":38.1966447,"long":140.887594,"status":0.0,"note":null,"address":"仙台市太白区中田五丁目2地内","row_num":866},{"area_id":4,"name":"中田市民ｾﾝﾀｰ南側","lat":38.1993769,"long":140.8876401,"status":0.0,"note":null,"address":"仙台市太白区中田四丁目1-5","row_num":867},{"area_id":4,"name":"ｺﾐｭﾆﾃｨ消防ｾﾝﾀｰ（植栽）","lat":38.1969065,"long":140.8888264,"status":0.0,"note":null,"address":"仙台市太白区中田五丁目14-1","row_num":868},{"area_id":4,"name":"中田六丁目西公園","lat":38.1924264,"long":140.8852677,"status":0.0,"note":null,"address":"仙台市太白区中田六丁目6地内","row_num":869},{"area_id":4,"name":"くりっこ保育園駐車場","lat":38.1905948,"long":140.887901,"status":0.0,"note":null,"address":"仙台市太白区中田七丁目16地内","row_num":870},{"area_id":4,"name":"中田老人憩の家","lat":38.2004859,"long":140.895268,"status":0.0,"note":null,"address":"仙台市太白区東中田二丁目9-26","row_num":871},{"area_id":4,"name":"西中田市営住宅3号棟北側（ﾌｪﾝｽ）","lat":38.1902036,"long":140.8812342,"status":0.0,"note":null,"address":"仙台市太白区西中田六丁目20-3","row_num":872},{"area_id":4,"name":"西中田公園北側","lat":38.1935312,"long":140.8785528,"status":0.0,"note":null,"address":"仙台市太白区西中田七丁目1地内","row_num":873},{"area_id":4,"name":"西中田小学校東側","lat":38.1927967,"long":140.876136,"status":0.0,"note":null,"address":"仙台市太白区西中田七丁目7-1","row_num":874},{"area_id":4,"name":"安久公園東側","lat":38.1981687,"long":140.8763032,"status":0.0,"note":null,"address":"仙台市太白区西中田三丁目19地内","row_num":875},{"area_id":4,"name":"JR南仙台駅西口広場（中央部植栽）","lat":38.1958871,"long":140.8817722,"status":0.0,"note":null,"address":"仙台市太白区西中田四丁目1地内","row_num":876},{"area_id":4,"name":"柳生天神公園南側","lat":38.2020827,"long":140.8792972,"status":0.0,"note":null,"address":"仙台市太白区西中田二丁目12地内","row_num":877},{"area_id":4,"name":"西中田三丁目公園西側","lat":38.1993664,"long":140.8797459,"status":0.0,"note":null,"address":"仙台市太白区西中田三丁目1地内","row_num":878},{"area_id":4,"name":"栗ノ木公園西側","lat":38.1914398,"long":140.8755801,"status":0.0,"note":null,"address":"仙台市太白区西中田七丁目31地内","row_num":879},{"area_id":4,"name":"安久東公園南側","lat":38.1966096,"long":140.8809836,"status":0.0,"note":null,"address":"仙台市太白区西中田四丁目4地内","row_num":880},{"area_id":4,"name":"市道敷（西中田二丁目ﾊﾞｽ停付近）","lat":38.2025659,"long":140.8758207,"status":0.0,"note":null,"address":"仙台市太白区柳生字野添6地内","row_num":881},{"area_id":4,"name":"柳生小学校北側","lat":38.1987171,"long":140.8715809,"status":0.0,"note":null,"address":"仙台市太白区柳生字台畑100","row_num":882},{"area_id":4,"name":"柳生市民ｾﾝﾀｰ北駐車場南側","lat":38.1994719,"long":140.8683396,"status":0.0,"note":null,"address":"仙台市太白区柳生七丁目21地内","row_num":883},{"area_id":4,"name":"荒田公園東側","lat":38.195917,"long":140.8724495,"status":0.0,"note":null,"address":"仙台市太白区柳生二丁目11地内","row_num":884},{"area_id":4,"name":"柳生六丁目公園北側","lat":38.1968573,"long":140.8626301,"status":0.0,"note":null,"address":"仙台市太白区柳生六丁目7地内","row_num":885},{"area_id":4,"name":"柳生一丁目公園東側","lat":38.1975544,"long":140.8711119,"status":0.0,"note":null,"address":"仙台市太白区柳生一丁目11地内","row_num":886},{"area_id":4,"name":"柳生四丁目公園南側","lat":38.1948698,"long":140.8672058,"status":0.0,"note":null,"address":"仙台市太白区柳生四丁目11地内","row_num":887},{"area_id":4,"name":"柳生七丁目公園西側","lat":38.1985982,"long":140.8655968,"status":0.0,"note":null,"address":"仙台市太白区柳生七丁目24地内","row_num":888},{"area_id":4,"name":"みやぎ生協西多賀店東側（市道沿い植栽）","lat":38.2221342,"long":140.8563689,"status":0.0,"note":null,"address":"仙台市太白区西多賀三丁目１-1","row_num":889},{"area_id":4,"name":"富沢三丁目公園西側","lat":38.2173179,"long":140.8600779,"status":0.0,"note":null,"address":"仙台市太白区富沢三丁目11地内","row_num":890},{"area_id":4,"name":"富沢中学校正門脇","lat":38.2186109,"long":140.8636114,"status":0.0,"note":null,"address":"仙台市太白区富沢二丁目4-1","row_num":891},{"area_id":4,"name":"西多賀小学校正門脇","lat":38.2198183,"long":140.8588856,"status":0.0,"note":null,"address":"仙台市太白区西多賀二丁目3-1","row_num":892},{"area_id":4,"name":"富沢二丁目公園","lat":38.2196701,"long":140.8641244,"status":0.0,"note":null,"address":"仙台市太白区富沢二丁目6地内","row_num":893},{"area_id":4,"name":"富沢公園南側","lat":38.2173577,"long":140.8704544,"status":1.0,"note":null,"address":"仙台市太白区富沢一丁目2地内","row_num":894},{"area_id":4,"name":"八坂神社前（富田ちびっ子広場東側）","lat":38.2124989,"long":140.8480575,"status":0.0,"note":null,"address":"仙台市太白区富田字上野中4番1","row_num":895},{"area_id":4,"name":"歩道ﾌｪﾝｽ（唐松橋西側）","lat":38.2162523,"long":140.853179,"status":0.0,"note":null,"address":"仙台市太白区富田字八幡東29地内","row_num":896},{"area_id":4,"name":"西の平二丁目2号公園南側","lat":38.231358,"long":140.8504312,"status":0.0,"note":null,"address":"仙台市太白区西の平二丁目27地内","row_num":897},{"area_id":4,"name":"はたとや公園","lat":38.2321926,"long":140.8596094,"status":0.0,"note":null,"address":"仙台市太白区大塒町39地内","row_num":898},{"area_id":4,"name":"大塒3号公園","lat":38.2350502,"long":140.8574106,"status":0.0,"note":null,"address":"仙台市太白区大塒町13地内","row_num":899},{"area_id":4,"name":"芦ノ口羽黒台公園","lat":38.2310769,"long":140.8563822,"status":0.0,"note":null,"address":"仙台市太白区芦の口2地内","row_num":900},{"area_id":4,"name":"歩道ﾌｪﾝｽ（芦口小学校正門脇）","lat":38.2306861,"long":140.8559816,"status":0.0,"note":null,"address":"仙台市太白区芦の口1-1","row_num":901},{"area_id":4,"name":"西の平二丁目公園","lat":38.2333323,"long":140.8492636,"status":0.0,"note":null,"address":"仙台市太白区西の平二丁目9地内","row_num":902},{"area_id":4,"name":"市道ﾌｪﾝｽ（大塒緑地北東側）","lat":38.2340163,"long":140.8588846,"status":0.0,"note":null,"address":"仙台市太白区大塒町1地内","row_num":903},{"area_id":4,"name":"名召公園","lat":38.2226073,"long":140.8477188,"status":0.0,"note":null,"address":"仙台市太白区西多賀四丁目23地内","row_num":904},{"area_id":4,"name":"鈎取寺西公園","lat":38.222788,"long":140.8401725,"status":0.0,"note":null,"address":"仙台市太白区鈎取四丁目6地内","row_num":905},{"area_id":4,"name":"鈎取三丁目2号公園","lat":38.2281243,"long":140.8394211,"status":0.0,"note":null,"address":"仙台市太白区鈎取三丁目1地内","row_num":906},{"area_id":4,"name":"光塩幼稚園第二ｸﾞﾗｳﾝﾄﾞ東側","lat":38.2275584,"long":140.8418433,"status":0.0,"note":null,"address":"仙台市太白区鈎取二丁目9地内","row_num":907},{"area_id":4,"name":"鈎取四丁目東公園","lat":38.2254134,"long":140.8408875,"status":0.0,"note":null,"address":"仙台市太白区鈎取四丁目17地内","row_num":908},{"area_id":4,"name":"鈎取四丁目西公園","lat":38.2249753,"long":140.839843,"status":0.0,"note":null,"address":"仙台市太白区鈎取四丁目17地内","row_num":909},{"area_id":4,"name":"後田公園","lat":38.2275584,"long":140.8418433,"status":0.0,"note":null,"address":"仙台市太白区鈎取二丁目2地内","row_num":910},{"area_id":4,"name":"西多賀中学校ｸﾞﾗｳﾝﾄﾞ東側","lat":38.2258688,"long":140.8522727,"status":0.0,"note":null,"address":"仙台市太白区西多賀三丁目10-1","row_num":911},{"area_id":4,"name":"金剛沢小学校北側","lat":38.2291087,"long":140.8485837,"status":0.0,"note":null,"address":"仙台市太白区金剛沢一丁目1-1","row_num":912},{"area_id":4,"name":"横森2号公園","lat":38.2306933,"long":140.8445588,"status":0.0,"note":null,"address":"仙台市太白区金剛沢一丁目24地内","row_num":913},{"area_id":4,"name":"金剛沢一丁目公園","lat":38.2287389,"long":140.8439149,"status":0.0,"note":null,"address":"仙台市太白区金剛沢一丁目24地内","row_num":914},{"area_id":4,"name":"横森ひかり公園東側","lat":38.2282397,"long":140.8468274,"status":0.0,"note":null,"address":"仙台市太白区三神峯二丁目15地内","row_num":915},{"area_id":4,"name":"金剛沢ｺﾐｭﾆﾃｨ･ｾﾝﾀｰ前","lat":38.2313838,"long":140.8465159,"status":0.0,"note":null,"address":"仙台市太白区金剛沢一丁目7-1","row_num":916},{"area_id":4,"name":"金山公園北側","lat":38.2279335,"long":140.8573145,"status":0.0,"note":null,"address":"仙台市太白区西の平一丁目7地内","row_num":917},{"area_id":4,"name":"金剛沢一丁目5号公園","lat":38.2300791,"long":140.8470613,"status":0.0,"note":null,"address":"仙台市太白区金剛沢一丁目10地内","row_num":918},{"area_id":4,"name":"金剛沢羽黒台公園（法面）","lat":38.2330373,"long":140.8397282,"status":0.0,"note":null,"address":"仙台市太白区金剛沢三丁目18地内","row_num":919},{"area_id":4,"name":"八木山南一丁目東公園","lat":38.2374632,"long":140.8357719,"status":0.0,"note":null,"address":"仙台市太白区八木山南一丁目6地内","row_num":920},{"area_id":4,"name":"鈎取三丁目7号公園西側","lat":38.2305954,"long":140.8384512,"status":0.0,"note":null,"address":"仙台市太白区鈎取三丁目12地内","row_num":921},{"area_id":4,"name":"八木山南公園北西側","lat":38.2359132,"long":140.834872,"status":0.0,"note":null,"address":"仙台市太白区八木山南三丁目4地内","row_num":922},{"area_id":4,"name":"八木山南小学校正門脇","lat":38.2334825,"long":140.8316497,"status":0.0,"note":null,"address":"仙台市太白区八木山南五丁目3-2","row_num":923},{"area_id":4,"name":"八木山南四丁目緑地公園北側","lat":38.2340921,"long":140.8378841,"status":0.0,"note":null,"address":"仙台市太白区八木山南四丁目4地内","row_num":924},{"area_id":4,"name":"金剛沢公園東側","lat":38.2317932,"long":140.8406072,"status":0.0,"note":null,"address":"仙台市太白区金剛沢二丁目8地内","row_num":925},{"area_id":4,"name":"民地（個人宅地 南側植栽）","lat":38.2215579,"long":140.8351616,"status":0.0,"note":null,"address":"仙台市太白区鈎取本町一丁目12-60","row_num":926},{"area_id":4,"name":"ひより台東部町内会集会所","lat":38.2289327,"long":140.8257929,"status":0.0,"note":null,"address":"仙台市太白区ひより台23-12","row_num":927},{"area_id":4,"name":"上野山保育所南側","lat":38.2257404,"long":140.8286044,"status":0.0,"note":null,"address":"仙台市太白区上野山一丁目21-8","row_num":928},{"area_id":4,"name":"上野山保存緑地(月ケ丘ﾊﾞｽ停付近)","lat":38.2270806,"long":140.8320567,"status":0.0,"note":null,"address":"仙台市太白区上野山一丁目22地内","row_num":929},{"area_id":4,"name":"上野山公園（法面）","lat":38.2259387,"long":140.8235357,"status":0.0,"note":null,"address":"仙台市太白区上野山二丁目40地内","row_num":930},{"area_id":4,"name":"上野山児童館南側","lat":38.2268716,"long":140.8319208,"status":0.0,"note":null,"address":"仙台市太白区上野山一丁目11-1","row_num":931},{"area_id":4,"name":"鈎取本町二丁目南公園","lat":38.2238232,"long":140.8369962,"status":0.0,"note":null,"address":"仙台市太白区鈎取本町二丁目4地内","row_num":932},{"area_id":4,"name":"山田羽黒堂中公園","lat":38.2187134,"long":140.8226407,"status":0.0,"note":null,"address":"仙台市太白区山田本町24地内","row_num":933},{"area_id":4,"name":"仙台市鈎取球場北側","lat":38.222659,"long":140.8287468,"status":0.0,"note":null,"address":"仙台市太白区山田北前町9地内","row_num":934},{"area_id":4,"name":"山田中学校ｸﾞﾗｳﾝﾄﾞ南側","lat":38.2204979,"long":140.8288095,"status":0.0,"note":null,"address":"仙台市太白区山田北前町36-1","row_num":935},{"area_id":4,"name":"山田羽黒堂公園","lat":38.2223967,"long":140.8181818,"status":0.0,"note":null,"address":"仙台市太白区旗立二丁目1地内","row_num":936},{"area_id":4,"name":"山田上ノ台町1号公園","lat":38.2165563,"long":140.8308584,"status":0.0,"note":null,"address":"仙台市太白区山田上ノ台町21地内","row_num":937},{"area_id":4,"name":"太白消防署","lat":38.2203441,"long":140.8303897,"status":0.0,"note":null,"address":"仙台市太白区山田北前町15-1","row_num":938},{"area_id":4,"name":"縄文の森広場駐車場東側","lat":38.2187836,"long":140.8319645,"status":0.0,"note":null,"address":"仙台市太白区山田上ノ台町11地内","row_num":939},{"area_id":4,"name":"仙台南ﾆｭｰﾀｳﾝ市民運動広場東側(南ﾆｭｰﾀｳﾝ西ﾊﾞｽ停付近ﾌｪﾝｽ）","lat":38.2247691,"long":140.8066272,"status":0.0,"note":null,"address":"仙台市太白区人来田一丁目30地内","row_num":940},{"area_id":4,"name":"日本平公園","lat":38.2212337,"long":140.8119467,"status":0.0,"note":null,"address":"仙台市太白区日本平16地内","row_num":941},{"area_id":4,"name":"生出前公園東側","lat":38.2256714,"long":140.8048894,"status":0.0,"note":null,"address":"仙台市太白区人来田一丁目34地内","row_num":942},{"area_id":4,"name":"人来田1号緑地(人来田小学校北東側ﾌｪﾝｽ）","lat":38.2247691,"long":140.8066272,"status":0.0,"note":null,"address":"仙台市太白区人来田一丁目1地内","row_num":943},{"area_id":4,"name":"日本平緑地公園西側","lat":38.2212724,"long":140.8087117,"status":0.0,"note":null,"address":"仙台市太白区日本平49地内","row_num":944},{"area_id":4,"name":"人来田保育所東側","lat":38.2234026,"long":140.8095716,"status":0.0,"note":null,"address":"仙台市太白区人来田一丁目3-1","row_num":945},{"area_id":4,"name":"人来田山1号公園","lat":38.2217884,"long":140.8064229,"status":0.0,"note":null,"address":"仙台市太白区人来田二丁目13地内","row_num":946},{"area_id":4,"name":"太白公園南東側","lat":38.2330985,"long":140.8187524,"status":0.0,"note":null,"address":"仙台市太白区太白一丁目23地内","row_num":947},{"area_id":4,"name":"太白小学校正門脇","lat":38.2313785,"long":140.8173024,"status":0.0,"note":null,"address":"仙台市太白区太白一丁目5-1","row_num":948},{"area_id":4,"name":"太白団地市営住宅20-11棟前（法面）","lat":38.2352494,"long":140.8175284,"status":0.0,"note":null,"address":"仙台市太白区太白二丁目20-11","row_num":949},{"area_id":4,"name":"太白三丁目東公園","lat":38.2305958,"long":140.8152203,"status":0.0,"note":null,"address":"仙台市太白区太白三丁目4地内","row_num":950},{"area_id":4,"name":"市道法面(太白ｺﾐｭﾆﾃｨ･ｾﾝﾀｰ北側)","lat":38.2303089,"long":140.8148285,"status":0.0,"note":null,"address":"仙台市太白区太白三丁目7地内","row_num":951},{"area_id":4,"name":"太白団地市営住宅9-1棟前（法面）","lat":38.2322408,"long":140.8143854,"status":0.0,"note":null,"address":"仙台市太白区太白二丁目9-1","row_num":952},{"area_id":4,"name":"旗立西公園北側","lat":38.2281038,"long":140.8103417,"status":0.0,"note":null,"address":"仙台市太白区山田自由ケ丘36地内","row_num":953},{"area_id":4,"name":"茂庭台市民ｾﾝﾀｰ西側（植栽)","lat":38.2356138,"long":140.7820929,"status":0.0,"note":null,"address":"仙台市太白区茂庭台四丁目1-10","row_num":954},{"area_id":4,"name":"市道沿い緑地帯（茂庭台四丁目ﾊﾞｽ停付近市営住宅側）","lat":38.2378331,"long":140.7847053,"status":0.0,"note":null,"address":"仙台市太白区茂庭台四丁目26地内","row_num":955},{"area_id":4,"name":"茂庭台小学校北側","lat":38.237484,"long":140.7839493,"status":0.0,"note":null,"address":"仙台市太白区茂庭台四丁目17-1","row_num":956},{"area_id":4,"name":"茂庭台一丁目南公園(茂庭台一丁目ﾊﾞｽ停付近)","lat":38.2310423,"long":140.7822429,"status":0.0,"note":null,"address":"仙台市太白区茂庭台一丁目11地内","row_num":957},{"area_id":4,"name":"茂庭台三丁目南公園東側","lat":38.2349841,"long":140.7870045,"status":0.0,"note":null,"address":"仙台市太白区茂庭台三丁目7地内","row_num":958},{"area_id":4,"name":"茂庭台三丁目北公園西側","lat":38.2381687,"long":140.787706,"status":0.0,"note":null,"address":"仙台市太白区茂庭台三丁目25地内","row_num":959},{"area_id":4,"name":"市道沿い緑地帯（茂庭台五丁目ﾊﾞｽ停付近市営住宅側）","lat":38.2378331,"long":140.7847053,"status":0.0,"note":null,"address":"仙台市太白区茂庭台四丁目25地内","row_num":960},{"area_id":4,"name":"茂庭台二丁目公園東側","lat":38.2317166,"long":140.7836972,"status":0.0,"note":null,"address":"仙台市太白区茂庭台二丁目14地内","row_num":961},{"area_id":4,"name":"歩道ﾌｪﾝｽ（国道286号線南側、茂庭荘入口ﾊﾞｽ停付近）","lat":38.216475,"long":140.8032153,"status":0.0,"note":null,"address":"仙台市太白区茂庭字人来田中24-1","row_num":962},{"area_id":4,"name":"民地（個人宅地 東側ﾌﾞﾛｯｸ塀)","lat":38.2153518,"long":140.8022696,"status":0.0,"note":null,"address":"仙台市太白区茂庭字人来田西92","row_num":963},{"area_id":4,"name":"生出市民ｾﾝﾀｰ西側","lat":38.2213219,"long":140.7901493,"status":0.0,"note":null,"address":"仙台市太白区茂庭二丁目8-1","row_num":964},{"area_id":4,"name":"市道敷（竜鳳前）","lat":38.2213257,"long":140.7860727,"status":0.0,"note":null,"address":"仙台市太白区茂庭字門野18地内","row_num":965},{"area_id":4,"name":"民地（茂庭ﾊﾞｽ停付近)","lat":38.2192254,"long":140.7872288,"status":1.0,"note":null,"address":"仙台市太白区茂庭字大沢46-3","row_num":966},{"area_id":4,"name":"市道敷(茂庭字本郷､嶺岸､西前境界付近)","lat":38.2236867,"long":140.7865727,"status":0.0,"note":null,"address":"仙台市太白区茂庭字本郷地内","row_num":967},{"area_id":4,"name":"人来田西公園","lat":38.2139785,"long":140.7994883,"status":0.0,"note":null,"address":"仙台市太白区茂庭字人来田西65-44","row_num":968},{"area_id":4,"name":"茂庭中ノ瀬公園東側","lat":38.2196934,"long":140.792419,"status":0.0,"note":null,"address":"仙台市太白区茂庭字中ノ瀬中1地内","row_num":969},{"area_id":4,"name":"歩道ﾌｪﾝｽ（中ノ瀬東交差点付近）","lat":38.2224997,"long":140.795127,"status":0.0,"note":null,"address":"仙台市太白区茂庭一丁目9地内","row_num":970},{"area_id":4,"name":"県道法面(飲食店龍宝向)","lat":38.2143511,"long":140.762323,"status":0.0,"note":null,"address":"仙台市太白区茂庭字川添西地内","row_num":971},{"area_id":4,"name":"市道敷（赤石交差点付近）","lat":38.2160261,"long":140.7550055,"status":0.0,"note":null,"address":"仙台市太白区茂庭字合ノ沢南47付近","row_num":972},{"area_id":4,"name":"民地（個人宅地　ビニールハウス前植栽）","lat":38.212587,"long":140.7532978,"status":0.0,"note":null,"address":"仙台市太白区坪沼字大苗23","row_num":973},{"area_id":4,"name":"国道286号線赤石ﾊﾟｰｷﾝｸﾞｴﾘｱ（植栽）","lat":38.2122419,"long":140.74836,"status":0.0,"note":null,"address":"仙台市太白区坪沼字山田69地内","row_num":974},{"area_id":4,"name":"民地（秋保ｳﾞｨﾚｯｼﾞ前、中谷地ﾊﾞｽ停付近）","lat":38.217884,"long":140.7459889,"status":0.0,"note":null,"address":"仙台市太白区茂庭字中谷地南42-3","row_num":975},{"area_id":4,"name":"善敬寺（北東側市道交差点付近法面）","lat":38.1929213,"long":140.7832327,"status":0.0,"note":null,"address":"仙台市太白区坪沼字寺山1","row_num":976},{"area_id":4,"name":"畑法面(乗合ﾀｸｼｰ営団入口乗場付近)","lat":38.1981846,"long":140.774871,"status":1.0,"note":null,"address":"仙台市太白区坪沼字北ノ上66","row_num":977},{"area_id":4,"name":"ろりぽっぷ小学校南側（ﾌｪﾝｽ)","lat":38.191971,"long":140.7713518,"status":0.0,"note":null,"address":"仙台市太白区坪沼字長田中9-1","row_num":978},{"area_id":4,"name":"歩道ﾌｪﾝｽ（県道沿いｺﾝﾋﾞﾆ店向）","lat":38.190464,"long":140.7771957,"status":0.0,"note":null,"address":"仙台市太白区坪沼字長田西26地内","row_num":979},{"area_id":4,"name":"歩道ﾌｪﾝｽ(町内会集会所、乗合ﾀｸｼｰ舘前中乗場付近)","lat":38.1925467,"long":140.7650541,"status":1.0,"note":null,"address":"仙台市太白区坪沼字館前中41地内","row_num":980},{"area_id":4,"name":"除緑地敷地","lat":38.2208558,"long":140.7359438,"status":0.0,"note":null,"address":"仙台市太白区秋保町湯元字除4-92","row_num":981},{"area_id":4,"name":"湯元小学校校門向緑地","lat":38.2291994,"long":140.7225785,"status":0.0,"note":null,"address":"仙台市太白区秋保町湯向30-4","row_num":982},{"area_id":4,"name":"民地（個人宅地 東側)","lat":38.2332195,"long":140.710853,"status":0.0,"note":null,"address":"仙台市太白区秋保町湯元字太夫83-2","row_num":983},{"area_id":4,"name":"民地（個人宅地 ﾌｪﾝｽ）","lat":38.2236046,"long":140.7324161,"status":0.0,"note":null,"address":"仙台市太白区秋保町湯元字枇杷原11-32","row_num":984},{"area_id":4,"name":"湯元保育所北側","lat":38.2293689,"long":140.7231063,"status":0.0,"note":null,"address":"仙台市太白区秋保町湯元字湯向24-11","row_num":985},{"area_id":4,"name":"ﾎﾃﾙ佐勘正面","lat":38.2277906,"long":140.7198493,"status":0.0,"note":null,"address":"仙台市太白区秋保町湯元字薬師28","row_num":986},{"area_id":4,"name":"ﾎﾃﾙ佐勘西側市道植樹帯","lat":38.2283148,"long":140.7191588,"status":0.0,"note":null,"address":"仙台市太白区秋保町湯元字薬師32-8","row_num":987},{"area_id":4,"name":"民地（個人宅地 ﾌﾞﾛｯｸ)","lat":38.2244236,"long":140.7273612,"status":0.0,"note":null,"address":"仙台市太白区秋保町湯元字寺田原46-17","row_num":988},{"area_id":4,"name":"県道敷（湯元送水ポンプ場向い側）","lat":38.2232194,"long":140.7208647,"status":0.0,"note":null,"address":"仙台市太白区秋保町湯元字釜土南25-4","row_num":989},{"area_id":4,"name":"民地（秋保神社向い側　個人宅地）","lat":38.2640401,"long":140.6606735,"status":0.0,"note":null,"address":"仙台市太白区秋保町長袋字諏訪北14-1","row_num":990},{"area_id":4,"name":"菅原医院","lat":38.2599832,"long":140.6706221,"status":0.0,"note":null,"address":"仙台市太白区秋保町長袋字大原31","row_num":991},{"area_id":4,"name":"市道敷（個人宅地　入口付近）","lat":38.2400718,"long":140.6966075,"status":0.0,"note":null,"address":"仙台市太白区秋保町境野字羽山12-1地先","row_num":992},{"area_id":4,"name":"国道457号線道路敷（個人宅地 脇）","lat":38.2536777,"long":140.6753351,"status":0.0,"note":null,"address":"仙台市太白区秋保町長袋字下河原4","row_num":993},{"area_id":4,"name":"民地（個人宅地 東側）","lat":38.2560848,"long":140.6792435,"status":0.0,"note":null,"address":"仙台市太白区秋保町長袋字町12","row_num":994},{"area_id":4,"name":"民地（自動販売機 南側)","lat":38.2558515,"long":140.6793529,"status":0.0,"note":null,"address":"仙台市太白区秋保町長袋字町32-1","row_num":995},{"area_id":4,"name":"秋保総合支所南側（植栽）","lat":38.2585346,"long":140.6712816,"status":0.0,"note":null,"address":"仙台市太白区秋保町長袋字大原45-1","row_num":996},{"area_id":4,"name":"県道仙台山寺線道路敷（境野濱井場待避所）","lat":38.2383526,"long":140.7049682,"status":0.0,"note":null,"address":"仙台市太白区秋保町境野字濱井場51-2","row_num":997},{"area_id":4,"name":"民地（個人宅地 ﾌﾞﾛｯｸ）","lat":38.2473475,"long":140.6899636,"status":0.0,"note":null,"address":"仙台市太白区秋保町境野字中原96","row_num":998},{"area_id":4,"name":"民地（個人宅地 ﾌﾞﾛｯｸ）","lat":38.2674612,"long":140.6515344,"status":0.0,"note":null,"address":"仙台市太白区秋保町長袋字宿12","row_num":999},{"area_id":4,"name":"民地（個人宅地前）","lat":38.2685452,"long":140.6487993,"status":0.0,"note":null,"address":"仙台市太白区秋保町馬場字町北5","row_num":1000},{"area_id":4,"name":"秋保大滝駐車場向更地","lat":38.2728069,"long":140.6024274,"status":0.0,"note":null,"address":"仙台市太白区秋保町馬場字鷹ノ巣7-1","row_num":1001},{"area_id":4,"name":"民地（個人宅地前）","lat":38.2677724,"long":140.6466362,"status":0.0,"note":null,"address":"仙台市太白区秋保町馬場字町南18-1","row_num":1002},{"area_id":4,"name":"県道敷（個人宅地 入口付近）","lat":38.271128,"long":140.631579,"status":0.0,"note":null,"address":"仙台市太白区秋保町馬場字上の原23-6","row_num":1003},{"area_id":4,"name":"市道敷(個人宅地前)","lat":38.2777175,"long":140.6169294,"status":0.0,"note":null,"address":"仙台市太白区秋保町馬場字中84-3","row_num":1004},{"area_id":4,"name":"県道敷（個人宅地前）","lat":38.2720588,"long":140.6185301,"status":0.0,"note":null,"address":"仙台市太白区秋保町馬場字新田町75-6先","row_num":1005},{"area_id":4,"name":"滝原交流ｾﾝﾀｰ東側","lat":38.2723838,"long":140.6133371,"status":0.0,"note":null,"address":"仙台市太白区秋保町馬場字新田町45-2","row_num":1006},{"area_id":4,"name":"民地（個人宅地 北側）","lat":38.269324,"long":140.575637,"status":0.0,"note":null,"address":"仙台市太白区秋保町馬場字野尻町南23","row_num":1007},{"area_id":4,"name":"県道仙台山寺線道路敷（野尻ﾗｲﾌﾞｶﾒﾗ西側）","lat":38.2673783,"long":140.5780614,"status":0.0,"note":null,"address":"仙台市太白区秋保町馬場字野尻町南89","row_num":1008},{"area_id":4,"name":"富沢小学校東側","lat":38.2096641,"long":140.8629398,"status":0.0,"note":null,"address":"仙台市太白区富沢西四丁目12-1","row_num":1009},{"area_id":4,"name":"市水道局正面（植栽）","lat":38.2091497,"long":140.8729294,"status":0.0,"note":null,"address":"仙台市太白区南大野田29-1","row_num":1010},{"area_id":4,"name":"南大野田公園北西側","lat":38.2106624,"long":140.8723181,"status":0.0,"note":null,"address":"仙台市太白区南大野田11地内","row_num":1011},{"area_id":4,"name":"富沢南一丁目南公園北側","lat":38.2125987,"long":140.8668537,"status":0.0,"note":null,"address":"仙台市太白区富沢南一丁目22地内","row_num":1012},{"area_id":4,"name":"富沢南一丁目北公園西側","lat":38.2141758,"long":140.8658435,"status":0.0,"note":null,"address":"仙台市太白区富沢南一丁目10地内","row_num":1013},{"area_id":4,"name":"富沢南二丁目公園東側","lat":38.2109636,"long":140.8669709,"status":0.0,"note":null,"address":"仙台市太白区富沢南二丁目15地内","row_num":1014},{"area_id":4,"name":"市道敷(杉の下橋付近ｶﾞｰﾄﾞﾌｪﾝｽ)","lat":38.2143506,"long":140.8612338,"status":0.0,"note":null,"address":"仙台市太白区富沢西一丁目21地内","row_num":1015},{"area_id":4,"name":"地下鉄高架下ﾌｪﾝｽ（ｸｲｰﾝﾊﾟﾙ斎藤東側）","lat":38.2109101,"long":140.866994,"status":0.0,"note":null,"address":"仙台市太白区富沢南二丁目1地内","row_num":1016},{"area_id":5,"name":"旧 仙台徳洲会病院（跡地）南側Y字路交差点","lat":38.328495,"long":140.8702732,"status":0.0,"note":null,"address":"仙台市泉区七北田字駕篭沢１５地先","row_num":1017},{"area_id":5,"name":"県営七北田住宅西側","lat":38.3232805,"long":140.8784633,"status":0.0,"note":null,"address":"仙台市泉区泉中央一丁目２１－１","row_num":1018},{"area_id":5,"name":"泉中央５号公園北側","lat":38.3218314,"long":140.8747996,"status":0.0,"note":null,"address":"仙台市泉区泉中央一丁目４６地内","row_num":1019},{"area_id":5,"name":"地下鉄泉中央駅前タクシープール南側","lat":38.322908,"long":140.8806849,"status":1.0,"note":null,"address":"仙台市泉区泉中央一丁目７地内","row_num":1020},{"area_id":5,"name":"泉区役所東側","lat":38.3263979,"long":140.8806402,"status":0.0,"note":null,"address":"仙台市泉区泉中央二丁目１－１","row_num":1021},{"area_id":5,"name":"泉中央公園東側","lat":38.3271706,"long":140.8801134,"status":1.0,"note":null,"address":"仙台市泉区泉中央二丁目１８－３","row_num":1022},{"area_id":5,"name":"七北田七ツ沼調整池西側","lat":38.3278171,"long":140.8801611,"status":0.0,"note":null,"address":"仙台市泉区泉中央二丁目２９地内","row_num":1023},{"area_id":5,"name":"泉中央四丁目公園西側","lat":38.3225587,"long":140.8868678,"status":0.0,"note":null,"address":"仙台市泉区泉中央四丁目２２－１","row_num":1024},{"area_id":5,"name":"高玉南公園北側","lat":38.3180385,"long":140.8922851,"status":0.0,"note":null,"address":"仙台市泉区高玉町９－１","row_num":1025},{"area_id":5,"name":"仙台白百合女子大学入口バス停東側","lat":38.3182842,"long":140.9032005,"status":0.0,"note":null,"address":"仙台市泉区市名坂字萩清水地内","row_num":1026},{"area_id":5,"name":"運転免許センター前バス停西側","lat":38.3136184,"long":140.9088069,"status":0.0,"note":null,"address":"仙台市泉区市名坂字鹿島地内","row_num":1027},{"area_id":5,"name":"泉区中央市民センター西側","lat":38.3242531,"long":140.8801946,"status":1.0,"note":null,"address":"仙台市泉区市名坂字東裏５３－１","row_num":1028},{"area_id":5,"name":"七北田中学校北側","lat":38.3241974,"long":140.8929722,"status":0.0,"note":null,"address":"仙台市泉区七北田字東裏１００","row_num":1029},{"area_id":5,"name":"七北田愛宕公園南側入口","lat":38.328495,"long":140.8702732,"status":0.0,"note":null,"address":"仙台市泉区七北田字白水沢１２６","row_num":1030},{"area_id":5,"name":"市名坂野蔵公園南側","lat":38.3149053,"long":140.8989699,"status":0.0,"note":null,"address":"仙台市泉区市名坂字野蔵１０１－３７","row_num":1031},{"area_id":5,"name":"天神沢市営住宅３号棟南側","lat":38.3241194,"long":140.8983735,"status":0.0,"note":null,"address":"仙台市泉区天神沢一丁目１７地内","row_num":1032},{"area_id":5,"name":"東北学院大学泉キャンパス北側法面","lat":38.3274995,"long":140.90257,"status":0.0,"note":null,"address":"仙台市泉区天神沢二丁目（主要地方道仙台三本木線沿い）","row_num":1033},{"area_id":5,"name":"古内集会所向い側","lat":38.321483,"long":140.8431442,"status":0.0,"note":null,"address":"仙台市泉区古内字古内４２地先","row_num":1034},{"area_id":5,"name":"なのはなサポートセンター敷地付近","lat":38.3188598,"long":140.8543109,"status":0.0,"note":null,"address":"仙台市泉区上谷刈字長命３地先（上谷刈字羽黒山8-2向い付近)","row_num":1035},{"area_id":5,"name":"仙台商業高等学校北側","lat":38.3239505,"long":140.869665,"status":0.0,"note":null,"address":"仙台市泉区野村字新田７（野村字一本杉3-21向い）","row_num":1036},{"area_id":5,"name":"野村小学校北側","lat":38.3250407,"long":140.8610033,"status":0.0,"note":null,"address":"仙台市泉区野村字東原前７","row_num":1037},{"area_id":5,"name":"泉総合運動場東側","lat":38.3295926,"long":140.8639705,"status":1.0,"note":null,"address":"仙台市泉区野村字新桂島前６０","row_num":1038},{"area_id":5,"name":"シェルコムせんだい駐車場入口付近","lat":38.3307107,"long":140.859893,"status":0.0,"note":null,"address":"仙台市泉区野村字筒岫８９－２","row_num":1039},{"area_id":5,"name":"ローソン（仙台野村店）斜め向い","lat":38.3235347,"long":140.8533954,"status":0.0,"note":null,"address":"仙台市泉区野村字上野前２５地先","row_num":1040},{"area_id":5,"name":"県道大衡仙台線エネオス・ガソリンスタンド向い側","lat":38.3244192,"long":140.8436381,"status":0.0,"note":null,"address":"仙台市泉区古内字古内18-1地内（古内字古内20-1向い）","row_num":1041},{"area_id":5,"name":"将監十三丁目公園東側","lat":38.3395168,"long":140.8693426,"status":0.0,"note":null,"address":"仙台市泉区将監十三丁目１地内（集会所脇）","row_num":1042},{"area_id":5,"name":"将監九丁目１２Ｙ字路交差点緑地","lat":38.3320464,"long":140.871996,"status":1.0,"note":null,"address":"仙台市泉区将監九丁目１２地内","row_num":1043},{"area_id":5,"name":"将監中央小学校東側","lat":38.336716,"long":140.873167,"status":0.0,"note":null,"address":"仙台市泉区将監十丁目３－１","row_num":1044},{"area_id":5,"name":"将監公園南側","lat":38.3343611,"long":140.8720772,"status":0.0,"note":null,"address":"仙台市泉区将監十丁目９地内","row_num":1045},{"area_id":5,"name":"宮城県泉高等学校前南側横断地下道付近","lat":38.3357676,"long":140.8712467,"status":0.0,"note":null,"address":"仙台市泉区将監十丁目１－２０６","row_num":1046},{"area_id":5,"name":"将監西小学校西側","lat":38.3348452,"long":140.8686671,"status":0.0,"note":null,"address":"仙台市泉区将監十丁目２９－１","row_num":1047},{"area_id":5,"name":"県営将監第五住宅４８号棟北側","lat":38.3392252,"long":140.8731412,"status":1.0,"note":null,"address":"仙台市泉区将監十一丁目５－４８","row_num":1048},{"area_id":5,"name":"県営将監第二住宅２０号棟北東擁壁下","lat":38.3389224,"long":140.8807144,"status":0.0,"note":null,"address":"仙台市泉区将監五丁目１－２０","row_num":1049},{"area_id":5,"name":"ヨークベニマル泉将監殿店南側緑地","lat":38.3417085,"long":140.8782806,"status":0.0,"note":null,"address":"仙台市泉区将監殿三丁目２０地内","row_num":1050},{"area_id":5,"name":"県営将監第三住宅３２号棟南側","lat":38.3374653,"long":140.877712,"status":1.0,"note":null,"address":"仙台市泉区将監六丁目４-１７４（六丁目4-32付近）","row_num":1051},{"area_id":5,"name":"県営将監第一住宅６号棟北側","lat":38.3376112,"long":140.8798239,"status":0.0,"note":null,"address":"仙台市泉区将監六丁目３－６","row_num":1052},{"area_id":5,"name":"将北４号公園北東側","lat":38.3412423,"long":140.8720905,"status":0.0,"note":null,"address":"仙台市泉区将監殿四丁目２３","row_num":1053},{"area_id":5,"name":"将北いこいの公園東側","lat":38.3445295,"long":140.8737116,"status":0.0,"note":null,"address":"仙台市泉区将監殿五丁目１７","row_num":1054},{"area_id":5,"name":"将監市民センター向側（将監風致公園内）","lat":38.332285,"long":140.8767573,"status":0.0,"note":null,"address":"仙台市泉区将監八丁目２８地内","row_num":1055},{"area_id":5,"name":"将監八丁目将監運動公園南西角法面","lat":38.3331419,"long":140.8767979,"status":1.0,"note":null,"address":"仙台市泉区将監八丁目２８地内（九丁目5-4 向い付近）","row_num":1056},{"area_id":5,"name":"将監一丁目西公園東側","lat":38.3286059,"long":140.8858864,"status":0.0,"note":null,"address":"仙台市泉区将監一丁目11地内（一丁目10-2 向い付近）","row_num":1057},{"area_id":5,"name":"将監二丁目東公園西側","lat":38.335259,"long":140.8786638,"status":0.0,"note":null,"address":"仙台市泉区将監二丁目１１地内（二丁目11-4付近）","row_num":1058},{"area_id":5,"name":"将監二丁目緑地北側","lat":38.3301562,"long":140.8817221,"status":0.0,"note":null,"address":"仙台市泉区将監二丁目地内（二丁目22-2向い付近）","row_num":1059},{"area_id":5,"name":"将監小学校東側","lat":38.3330195,"long":140.8817747,"status":0.0,"note":null,"address":"仙台市泉区将監三丁目１０－１","row_num":1060},{"area_id":5,"name":"将監四丁目公園南側","lat":38.3349384,"long":140.8828458,"status":0.0,"note":null,"address":"仙台市泉区将監四丁目１９地内","row_num":1061},{"area_id":5,"name":"将監第一公社住宅１号棟北側","lat":38.3365436,"long":140.8819854,"status":1.0,"note":null,"address":"仙台市泉区将監四丁目２８－１","row_num":1062},{"area_id":5,"name":"泉消防署北側","lat":38.336335,"long":140.8864227,"status":0.0,"note":null,"address":"仙台市泉区将監四丁目４－１","row_num":1063},{"area_id":5,"name":"向陽台ふれあい公園北側","lat":38.3370192,"long":140.892256,"status":0.0,"note":null,"address":"仙台市泉区向陽台一丁目２１地内","row_num":1064},{"area_id":5,"name":"向陽台中央公園南側","lat":38.3388852,"long":140.8993071,"status":0.0,"note":null,"address":"仙台市泉区向陽台三丁目２６地内","row_num":1065},{"area_id":5,"name":"向陽台小学校東側","lat":38.3344368,"long":140.8984163,"status":0.0,"note":null,"address":"仙台市泉区向陽台五丁目６－１２","row_num":1066},{"area_id":5,"name":"向陽台コミュニティ・センター南側","lat":38.3366845,"long":140.9016151,"status":0.0,"note":null,"address":"仙台市泉区向陽台五丁目２１－４１","row_num":1067},{"area_id":5,"name":"山の寺一丁目北バス停付近","lat":38.3296578,"long":140.897871,"status":0.0,"note":null,"address":"仙台市泉区山の寺一丁目３７地内(一丁目27-19向い)","row_num":1068},{"area_id":5,"name":"向陽台二丁目公園北側","lat":38.3411515,"long":140.8945543,"status":0.0,"note":null,"address":"仙台市泉区向陽台二丁目２７地内(二丁目27-7隣り)","row_num":1069},{"area_id":5,"name":"山の寺一丁目公園前バス停南側","lat":38.3304259,"long":140.8988794,"status":0.0,"note":null,"address":"仙台市泉区山の寺一丁目３７地内(一丁目11-28向い付近)","row_num":1070},{"area_id":5,"name":"山の寺二丁目西側法面 階段向い側(国道４号線上り車線 山の寺入口坂道)","lat":38.3303002,"long":140.8929777,"status":0.0,"note":null,"address":"仙台市泉区山の寺二丁目５地内（６街区西側）","row_num":1071},{"area_id":5,"name":"永和台団地入口バス停付近公園北側","lat":38.3317489,"long":140.9031954,"status":0.0,"note":null,"address":"仙台市泉区永和台２地内(永和台3-5付近)","row_num":1072},{"area_id":5,"name":"永和台集会所北側","lat":38.3282387,"long":140.9053063,"status":0.0,"note":null,"address":"仙台市泉区永和台２８－２１","row_num":1073},{"area_id":5,"name":"松陵公園東側","lat":38.3273764,"long":140.9123576,"status":0.0,"note":null,"address":"仙台市泉区松陵二丁目４地内","row_num":1074},{"area_id":5,"name":"ヤマザワ松陵店前ガス局整圧器室南側","lat":38.3285072,"long":140.9127187,"status":0.0,"note":null,"address":"仙台市泉区松陵二丁目５－１地内","row_num":1075},{"area_id":5,"name":"泉松陵小学校東側","lat":38.3318486,"long":140.9071314,"status":0.0,"note":null,"address":"仙台市泉区松陵三丁目３５","row_num":1076},{"area_id":5,"name":"松陵三丁目北公園南側","lat":38.3326117,"long":140.9099444,"status":0.0,"note":null,"address":"仙台市泉区松陵三丁目５０－２","row_num":1077},{"area_id":5,"name":"歩坂町公園西側","lat":38.3226284,"long":140.9082282,"status":0.0,"note":null,"address":"仙台市泉区歩坂町１４地内(14-5隣り)","row_num":1078},{"area_id":5,"name":"百合ケ丘中央公園西側","lat":38.3234383,"long":140.9082593,"status":0.0,"note":null,"address":"仙台市泉区歩坂町５９地内(67-25向い付近)","row_num":1079},{"area_id":5,"name":"松陵一丁目南公園西側","lat":38.3187925,"long":140.9120094,"status":0.0,"note":null,"address":"仙台市泉区松陵一丁目３－２","row_num":1080},{"area_id":5,"name":"松陵四丁目公園西側","lat":38.3305352,"long":140.9141812,"status":0.0,"note":null,"address":"仙台市泉区松陵四丁目１－１","row_num":1081},{"area_id":5,"name":"宮城県立松陵支援学校西側","lat":38.3327033,"long":140.9171349,"status":0.0,"note":null,"address":"仙台市泉区松陵四丁目２８－２","row_num":1082},{"area_id":5,"name":"松陵四丁目北公園南側","lat":38.3332856,"long":140.916089,"status":0.0,"note":null,"address":"仙台市泉区松陵四丁目４０－２","row_num":1083},{"area_id":5,"name":"松陵市民センター南側","lat":38.3281374,"long":140.9142308,"status":0.0,"note":null,"address":"仙台市泉区松陵五丁目２０－２","row_num":1084},{"area_id":5,"name":"泉消防署松陵出張所西側","lat":38.3281237,"long":140.9135062,"status":0.0,"note":null,"address":"仙台市泉区松陵五丁目２０－３","row_num":1085},{"area_id":5,"name":"松陵中学校西側","lat":38.3291633,"long":140.9167843,"status":0.0,"note":null,"address":"仙台市泉区松陵五丁目３２","row_num":1086},{"area_id":5,"name":"鶴が丘一丁目公園西側","lat":38.3188238,"long":140.9252705,"status":0.0,"note":null,"address":"仙台市泉区鶴が丘一丁目５－４３外（一丁目28-25付近）","row_num":1087},{"area_id":5,"name":"鶴が丘一丁目東公園西側","lat":38.3228828,"long":140.9249651,"status":0.0,"note":null,"address":"仙台市泉区鶴が丘一丁目２３－１６","row_num":1088},{"area_id":5,"name":"鶴が丘コミュニティ・センター東側","lat":38.3154536,"long":140.9233393,"status":0.0,"note":null,"address":"仙台市泉区鶴が丘一丁目３７－１","row_num":1089},{"area_id":5,"name":"鶴が丘小学校正門前","lat":38.3185237,"long":140.9263026,"status":0.0,"note":null,"address":"仙台市泉区鶴が丘一丁目３５０","row_num":1090},{"area_id":5,"name":"松森小学校北側","lat":38.3199507,"long":140.9192577,"status":0.0,"note":null,"address":"仙台市泉区鶴が丘二丁目２","row_num":1091},{"area_id":5,"name":"鶴が丘二丁目集会所西側","lat":38.3192067,"long":140.9164186,"status":0.0,"note":null,"address":"仙台市泉区鶴が丘二丁目９－１","row_num":1092},{"area_id":5,"name":"鶴が丘児童センター付近緑地","lat":38.3226708,"long":140.9193802,"status":0.0,"note":null,"address":"仙台市泉区鶴が丘三丁目１７地内(三丁目17-20隣り)","row_num":1093},{"area_id":5,"name":"鶴が丘四丁目東公園東側","lat":38.3270753,"long":140.9217576,"status":0.0,"note":null,"address":"仙台市泉区鶴が丘四丁目１０－８","row_num":1094},{"area_id":5,"name":"清水寺駐車場向い側","lat":38.313978,"long":140.9113492,"status":0.0,"note":null,"address":"仙台市泉区市名坂字高島１－３地先","row_num":1095},{"area_id":5,"name":"鶴が丘二丁目南公園西側","lat":38.317463,"long":140.914829,"status":0.0,"note":null,"address":"仙台市泉区鶴が丘二丁目１３－２","row_num":1096},{"area_id":5,"name":"泉環境事業所西側","lat":38.3054206,"long":140.9210314,"status":0.0,"note":null,"address":"仙台市泉区松森字阿比古３３","row_num":1097},{"area_id":5,"name":"松森工場西側","lat":38.3078122,"long":140.9198685,"status":0.0,"note":null,"address":"仙台市泉区松森字城前１３５","row_num":1098},{"area_id":5,"name":"松森市民センター北側","lat":38.3145526,"long":140.9171797,"status":0.0,"note":null,"address":"仙台市泉区松森字城前９－２","row_num":1099},{"area_id":5,"name":"松木沢北公園東側","lat":38.3139866,"long":140.9248886,"status":0.0,"note":null,"address":"仙台市泉区松森字松木沢９－４","row_num":1100},{"area_id":5,"name":"セブンイレブン仙台鶴が丘店前","lat":38.3140586,"long":140.9224611,"status":0.0,"note":null,"address":"仙台市泉区松森字鼠堂１地先","row_num":1101},{"area_id":5,"name":"南光台東一丁目南公園西側","lat":38.2981633,"long":140.9070194,"status":0.0,"note":null,"address":"仙台市泉区南光台東一丁目４４地内","row_num":1102},{"area_id":5,"name":"南光台東児童センター南側","lat":38.2971633,"long":140.9081647,"status":0.0,"note":null,"address":"仙台市泉区南光台東一丁目４９－２２","row_num":1103},{"area_id":5,"name":"南光台東一丁目緑地東側","lat":38.2990432,"long":140.9074668,"status":0.0,"note":null,"address":"仙台市泉区南光台東一丁目３３地内(二丁目18-11向い付近)","row_num":1104},{"area_id":5,"name":"南光台東二丁目南公園西側","lat":38.2972073,"long":140.9105657,"status":0.0,"note":null,"address":"仙台市泉区南光台東二丁目７地内","row_num":1105},{"area_id":5,"name":"南光台東二丁目東公園南側","lat":38.299109,"long":140.9162778,"status":0.0,"note":null,"address":"仙台市泉区南光台東二丁目３１","row_num":1106},{"area_id":5,"name":"南光台東小学校北側","lat":38.2987285,"long":140.9110002,"status":0.0,"note":null,"address":"仙台市泉区南光台東二丁目１６－１","row_num":1107},{"area_id":5,"name":"南光台東中学校北側","lat":38.3025277,"long":140.9157759,"status":0.0,"note":null,"address":"仙台市泉区南光台東三丁目１－１","row_num":1108},{"area_id":5,"name":"南光台南一丁目公園南側","lat":38.2966074,"long":140.9014338,"status":0.0,"note":null,"address":"仙台市泉区南光台南一丁目５地内","row_num":1109},{"area_id":5,"name":"南光台南二丁目北公園東側","lat":38.296589,"long":140.903735,"status":0.0,"note":null,"address":"仙台市泉区南光台南二丁目５地内","row_num":1110},{"area_id":5,"name":"前坂集会所西側","lat":38.2959452,"long":140.9020056,"status":0.0,"note":null,"address":"仙台市泉区南光台南二丁目８－４５","row_num":1111},{"area_id":5,"name":"前坂南集会所南側","lat":38.2936802,"long":140.9054981,"status":0.0,"note":null,"address":"仙台市泉区南光台南三丁目３５地内","row_num":1112},{"area_id":5,"name":"南光台南二丁目公園北側","lat":38.2933749,"long":140.8990198,"status":0.0,"note":null,"address":"仙台市泉区南光台南二丁目２９","row_num":1113},{"area_id":5,"name":"南光台南三丁目公園北側","lat":38.2955172,"long":140.9068886,"status":0.0,"note":null,"address":"仙台市泉区南光台南三丁目１１地内","row_num":1114},{"area_id":5,"name":"南光台南三丁目南公園北側","lat":38.2940739,"long":140.9039915,"status":0.0,"note":null,"address":"仙台市泉区南光台南三丁目２７地内","row_num":1115},{"area_id":5,"name":"小松島新堤橋バス停西側 緑地","lat":38.2907287,"long":140.8951307,"status":0.0,"note":null,"address":"仙台市泉区南光台一丁目７１地内(一丁目3-6付近）","row_num":1116},{"area_id":5,"name":"南光台一丁目公園北側","lat":38.2906447,"long":140.8943578,"status":0.0,"note":null,"address":"仙台市泉区南光台一丁目５８地内","row_num":1117},{"area_id":5,"name":"南光台入口バス停付近（水道局 旧南光台分水所南側）","lat":38.29384,"long":140.8943026,"status":0.0,"note":null,"address":"仙台市泉区南光台二丁目１地内（二丁目1-5付近)","row_num":1118},{"area_id":5,"name":"南光台三丁目交差点西側歩道緑地","lat":38.2957409,"long":140.8933117,"status":0.0,"note":null,"address":"仙台市泉区南光台三丁目１５地内(四丁目1-28付近)","row_num":1119},{"area_id":5,"name":"南光台一丁目・二丁目隣接変則交差点付近法面","lat":38.2907287,"long":140.8951307,"status":0.0,"note":null,"address":"仙台市泉区南光台一丁目３２地内","row_num":1120},{"area_id":5,"name":"南光台東区流量計測所南側","lat":38.29384,"long":140.8943026,"status":0.0,"note":null,"address":"仙台市泉区南光台二丁目２５地内","row_num":1121},{"area_id":5,"name":"南光台三丁目公園東側","lat":38.29299,"long":140.8904728,"status":0.0,"note":null,"address":"仙台市泉区南光台三丁目１地内","row_num":1122},{"area_id":5,"name":"社会福祉法人つどいの家（南光台三丁目公園前バス停付近）","lat":38.29299,"long":140.8904728,"status":0.0,"note":null,"address":"仙台市泉区南光台三丁目１－２４","row_num":1123},{"area_id":5,"name":"松森前ヶ沢公園東側","lat":38.3070558,"long":140.8998193,"status":0.0,"note":null,"address":"仙台市泉区松森字明神４１地内","row_num":1124},{"area_id":5,"name":"南光台六丁目西公園西側","lat":38.3021994,"long":140.8961545,"status":0.0,"note":null,"address":"仙台市泉区南光台六丁目７地内","row_num":1125},{"area_id":5,"name":"南光台やすらぎ公園南側","lat":38.3039721,"long":140.9007505,"status":0.0,"note":null,"address":"仙台市泉区南光台七丁目３４－１","row_num":1126},{"area_id":5,"name":"南光台ふれあい広場南側","lat":38.3018903,"long":140.9016175,"status":0.0,"note":null,"address":"仙台市泉区南光台七丁目１地内","row_num":1127},{"area_id":5,"name":"南光台小学校西側","lat":38.3009138,"long":140.9002688,"status":0.0,"note":null,"address":"仙台市泉区南光台七丁目１０－１","row_num":1128},{"area_id":5,"name":"新田八沢公園南側","lat":38.30363,"long":140.908021,"status":0.0,"note":null,"address":"仙台市泉区松森字新田２０９地内","row_num":1129},{"area_id":5,"name":"南光台七丁目公園北側","lat":38.3006067,"long":140.9050991,"status":0.0,"note":null,"address":"仙台市泉区南光台七丁目３２地内","row_num":1130},{"area_id":5,"name":"松森明神北公園入口北側付近","lat":38.3042271,"long":140.9031786,"status":0.0,"note":null,"address":"仙台市泉区松森字明神４３地内","row_num":1131},{"area_id":5,"name":"旭丘堤橋西側交差点南西花壇内","lat":38.3042168,"long":140.8944508,"status":0.0,"note":null,"address":"仙台市泉区南光台五丁目２","row_num":1132},{"area_id":5,"name":"旭丘堤橋北西側たもと","lat":38.3033455,"long":140.8893473,"status":0.0,"note":null,"address":"仙台市泉区旭丘堤二丁目１２－３０４","row_num":1133},{"area_id":5,"name":"地下鉄黒松駅南側","lat":38.3033455,"long":140.8893473,"status":0.0,"note":null,"address":"仙台市泉区旭丘堤二丁目２２地内","row_num":1134},{"area_id":5,"name":"真美沢公園入口付近","lat":38.3052908,"long":140.8884304,"status":0.0,"note":null,"address":"仙台市泉区旭丘堤二丁目２９","row_num":1135},{"area_id":5,"name":"地下鉄黒松駅入口前","lat":38.3033455,"long":140.8893473,"status":0.0,"note":null,"address":"仙台市泉区旭丘堤二丁目２１地内","row_num":1136},{"area_id":5,"name":"旭丘堤２丁目４番街区内緑地帯","lat":38.3033455,"long":140.8893473,"status":0.0,"note":null,"address":"仙台市泉区旭丘堤二丁目４地内","row_num":1137},{"area_id":5,"name":"旭丘橋北側（交差点東方向付近）","lat":38.3042168,"long":140.8944508,"status":0.0,"note":null,"address":"仙台市泉区南光台五丁目６地内","row_num":1138},{"area_id":5,"name":"愛隣町西公園南側","lat":38.3112014,"long":140.884102,"status":0.0,"note":null,"address":"仙台市泉区八乙女中央五丁目２６－３０９","row_num":1139},{"area_id":5,"name":"黒松一丁目公園南側","lat":38.3040261,"long":140.8823448,"status":0.0,"note":null,"address":"仙台市泉区黒松一丁目９地内","row_num":1140},{"area_id":5,"name":"真実沢西公園東側","lat":38.3102612,"long":140.8865356,"status":0.0,"note":null,"address":"仙台市泉区八乙女中央五丁目１７地内","row_num":1141},{"area_id":5,"name":"黒松二丁目公園東側","lat":38.3081045,"long":140.8819838,"status":0.0,"note":null,"address":"仙台市泉区黒松二丁目２０地内","row_num":1142},{"area_id":5,"name":"黒松第二公社住宅１８号棟南側","lat":38.3050667,"long":140.8853278,"status":0.0,"note":null,"address":"仙台市泉区黒松三丁目１－１８","row_num":1143},{"area_id":5,"name":"黒松公社住宅７号棟北側","lat":38.3081928,"long":140.8850734,"status":0.0,"note":null,"address":"仙台市泉区黒松三丁目２－８","row_num":1144},{"area_id":5,"name":"地方主要道仙台泉線（下り）向原バス停付近","lat":38.328495,"long":140.8702732,"status":0.0,"note":null,"address":"仙台市泉区七北田字杉ノ田地内","row_num":1145},{"area_id":5,"name":"地下鉄八乙女駅前杉ノ田交差点","lat":38.314117,"long":140.884119,"status":0.0,"note":null,"address":"仙台市泉区八乙女中央一丁目６地内","row_num":1146},{"area_id":5,"name":"そらのこ保育園斜め向い側","lat":38.3098765,"long":140.8890956,"status":0.0,"note":null,"address":"仙台市泉区東黒松１９－３３地内","row_num":1147},{"area_id":5,"name":"八乙女小学校西側","lat":38.307508,"long":140.8938023,"status":0.0,"note":null,"address":"仙台市泉区松森字不動１４８","row_num":1148},{"area_id":5,"name":"八乙女南公園北側入口付近","lat":38.3070311,"long":140.8912978,"status":0.0,"note":null,"address":"仙台市泉区東黒松１１","row_num":1149},{"area_id":5,"name":"八乙女四丁目公園西側入口付近","lat":38.3107761,"long":140.8986668,"status":0.0,"note":null,"address":"仙台市泉区八乙女四丁目９地内","row_num":1150},{"area_id":5,"name":"八乙女二丁目公園西側","lat":38.3095326,"long":140.893012,"status":0.0,"note":null,"address":"仙台市泉区八乙女二丁目４－１","row_num":1151},{"area_id":5,"name":"八乙女中央公園北側","lat":38.3083691,"long":140.8961564,"status":0.0,"note":null,"address":"仙台市泉区八乙女三丁目１３地内","row_num":1152},{"area_id":5,"name":"みやぎ生活協同組合南側","lat":38.3110578,"long":140.8952934,"status":0.0,"note":null,"address":"仙台市泉区八乙女四丁目２－２","row_num":1153},{"area_id":5,"name":"八乙女一丁目公園南側","lat":38.3112702,"long":140.8916404,"status":0.0,"note":null,"address":"仙台市泉区八乙女一丁目５－９","row_num":1154},{"area_id":5,"name":"みずほ台公園南側","lat":38.3125099,"long":140.8795944,"status":0.0,"note":null,"address":"仙台市泉区みずほ台５９","row_num":1155},{"area_id":5,"name":"みずほ台南公園北側","lat":38.3108087,"long":140.8738954,"status":0.0,"note":null,"address":"仙台市泉区みずほ台７４","row_num":1156},{"area_id":5,"name":"虹の丘一丁目東公園西側","lat":38.3071135,"long":140.8783712,"status":0.0,"note":null,"address":"仙台市泉区虹の丘一丁目３－３０","row_num":1157},{"area_id":5,"name":"虹の丘一丁目公園東側","lat":38.3069297,"long":140.8747124,"status":0.0,"note":null,"address":"仙台市泉区虹の丘一丁目９－３","row_num":1158},{"area_id":5,"name":"虹の丘小学校西側","lat":38.3079143,"long":140.8731161,"status":0.0,"note":null,"address":"仙台市泉区虹の丘一丁目１０－１","row_num":1159},{"area_id":5,"name":"三島学園東北生活文化大学・高等学校入り口付近","lat":38.3062641,"long":140.873532,"status":0.0,"note":null,"address":"仙台市泉区虹の丘一丁目１８地内","row_num":1160},{"area_id":5,"name":"虹の丘公園南側","lat":38.3072376,"long":140.8692873,"status":0.0,"note":null,"address":"仙台市泉区虹の丘二丁目１０","row_num":1161},{"area_id":5,"name":"県営虹の丘住宅集会所北側","lat":38.3031253,"long":140.8659295,"status":0.0,"note":null,"address":"仙台市泉区虹の丘四丁目１０－６","row_num":1162},{"area_id":5,"name":"上谷刈新中谷地公園東側","lat":38.3151865,"long":140.8708409,"status":0.0,"note":null,"address":"仙台市泉区上谷刈四丁目９（四丁目9-36隣り付近）","row_num":1163},{"area_id":5,"name":"狼河原公園西側","lat":38.3172305,"long":140.8744887,"status":0.0,"note":null,"address":"仙台市泉区上谷刈二丁目１地内（二丁目1-20付近）","row_num":1164},{"area_id":5,"name":"仙台市北部警察官待機宿舎入口右側","lat":38.3162905,"long":140.8784427,"status":0.0,"note":null,"address":"仙台市泉区上谷刈一丁目３－３３","row_num":1165},{"area_id":5,"name":"仮屋敷公園北側","lat":38.3181951,"long":140.8688948,"status":0.0,"note":null,"address":"仙台市泉区上谷刈三丁目８地内（三丁目7-14付近）","row_num":1166},{"area_id":5,"name":"丸山集会所(シーアイタウン八乙女町内会集会所）前","lat":38.3125378,"long":140.8697743,"status":0.0,"note":null,"address":"仙台市泉区上谷刈五丁目２３－８","row_num":1167},{"area_id":5,"name":"仙台市下水道北管理センター入口付近","lat":38.3189406,"long":140.8719564,"status":0.0,"note":null,"address":"仙台市泉区上谷刈字沼地内（上谷刈字沼下20-5付近）","row_num":1168},{"area_id":5,"name":"長左エ門公園南側","lat":38.3156027,"long":140.8710419,"status":0.0,"note":null,"address":"仙台市泉区上谷刈四丁目１７地内（四丁目16-1付近）","row_num":1169},{"area_id":5,"name":"加茂一丁目公園北側","lat":38.312476,"long":140.8631419,"status":0.0,"note":null,"address":"仙台市泉区加茂一丁目２４－１","row_num":1170},{"area_id":5,"name":"加茂一丁目ガソリンスタンド向い側","lat":38.3145779,"long":140.8655733,"status":0.0,"note":null,"address":"仙台市泉区加茂一丁目８－１地先","row_num":1171},{"area_id":5,"name":"県営加茂住宅７号棟北側","lat":38.31423,"long":140.8596007,"status":0.0,"note":null,"address":"仙台市泉区加茂二丁目２３－７","row_num":1172},{"area_id":5,"name":"加茂三丁目公園東側","lat":38.3163497,"long":140.8523153,"status":0.0,"note":null,"address":"仙台市泉区加茂三丁目４－３","row_num":1173},{"area_id":5,"name":"加茂入口バス停法面","lat":38.312476,"long":140.8631419,"status":0.0,"note":null,"address":"仙台市泉区加茂一丁目３地内（一丁目4-3向い付近）","row_num":1174},{"area_id":5,"name":"加茂小学校南側","lat":38.3126304,"long":140.8519403,"status":0.0,"note":null,"address":"仙台市泉区加茂四丁目３","row_num":1175},{"area_id":5,"name":"加茂五丁目公園東側","lat":38.3146349,"long":140.8480905,"status":0.0,"note":null,"address":"仙台市泉区加茂五丁目５－４","row_num":1176},{"area_id":5,"name":"長命ケ丘二丁目公園北側","lat":38.3133469,"long":140.8414368,"status":0.0,"note":null,"address":"仙台市泉区長命ケ丘二丁目１－２付近","row_num":1177},{"area_id":5,"name":"長命ケ丘中学校北側","lat":38.3125558,"long":140.8400528,"status":0.0,"note":null,"address":"仙台市泉区長命ケ丘二丁目１１－１","row_num":1178},{"area_id":5,"name":"長命ケ丘四丁目西公園南側","lat":38.3105589,"long":140.8360506,"status":0.0,"note":null,"address":"仙台市泉区長命ケ丘四丁目２１－１３","row_num":1179},{"area_id":5,"name":"長命ケ丘保育所北側","lat":38.316523,"long":140.8374423,"status":0.0,"note":null,"address":"仙台市泉区長命ケ丘五丁目２－１","row_num":1180},{"area_id":5,"name":"長命ケ丘公園野球場東側","lat":38.3135137,"long":140.834429,"status":0.0,"note":null,"address":"仙台市泉区長命ケ丘五丁目14地内（五丁目11-3向い付近）","row_num":1181},{"area_id":5,"name":"長命ケ丘小学校北側","lat":38.3141927,"long":140.8331888,"status":0.0,"note":null,"address":"仙台市泉区長命ケ丘五丁目１４－１","row_num":1182},{"area_id":5,"name":"長命ケ丘児童センター東側","lat":38.3136539,"long":140.8311594,"status":0.0,"note":null,"address":"仙台市泉区長命ケ丘六丁目１０－１２","row_num":1183},{"area_id":5,"name":"長命ケ丘東公園南側","lat":38.3134705,"long":140.8436259,"status":0.0,"note":null,"address":"仙台市泉区長命ケ丘東8-2（長命ケ丘東5-2向い付近）","row_num":1184},{"area_id":5,"name":"南中山一丁目南公園西側","lat":38.3029982,"long":140.830203,"status":0.0,"note":null,"address":"仙台市泉区南中山一丁目２８－１","row_num":1185},{"area_id":5,"name":"南中山二丁目公園西側","lat":38.30891,"long":140.828858,"status":0.0,"note":null,"address":"仙台市泉区南中山二丁目８－３","row_num":1186},{"area_id":5,"name":"ヨークベニマル南中山店駐車場出入り口向い側緑地","lat":38.3098046,"long":140.8216387,"status":0.0,"note":null,"address":"仙台市泉区南中山六丁目１８地内","row_num":1187},{"area_id":5,"name":"南中山中学校西側","lat":38.3074375,"long":140.8275974,"status":0.0,"note":null,"address":"仙台市泉区南中山二丁目２６－１","row_num":1188},{"area_id":5,"name":"南中山三丁目公園西側","lat":38.3122172,"long":140.8269286,"status":0.0,"note":null,"address":"仙台市泉区南中山三丁目１０－２","row_num":1189},{"area_id":5,"name":"南中山公園南側","lat":38.3145271,"long":140.8239306,"status":0.0,"note":null,"address":"仙台市泉区南中山三丁目40地内（三丁目26-2向い付近）","row_num":1190},{"area_id":5,"name":"南中山児童センター東側","lat":38.3128034,"long":140.8207898,"status":0.0,"note":null,"address":"仙台市泉区南中山四丁目１８－１","row_num":1191},{"area_id":5,"name":"南中山五丁目公園 東側法面","lat":38.3124786,"long":140.8134591,"status":0.0,"note":null,"address":"仙台市泉区南中山五丁目４地内(4-22付近)","row_num":1192},{"area_id":5,"name":"北中山一丁目ポンプ場東側","lat":38.3172598,"long":140.8247176,"status":0.0,"note":null,"address":"仙台市泉区北中山一丁目１２－２５","row_num":1193},{"area_id":5,"name":"北中山コミュニティ・センター西側","lat":38.3189826,"long":140.8202493,"status":0.0,"note":null,"address":"仙台市泉区北中山一丁目１８－１１","row_num":1194},{"area_id":5,"name":"西中山バス停付近バス方向変換所前","lat":38.3063871,"long":140.8058463,"status":0.0,"note":null,"address":"仙台市泉区西中山二丁目１５","row_num":1195},{"area_id":5,"name":"北中山二丁目公園南側","lat":38.3184726,"long":140.8150468,"status":0.0,"note":null,"address":"仙台市泉区北中山二丁目１６－２","row_num":1196},{"area_id":5,"name":"北中山小学校西側","lat":38.3159689,"long":140.81425,"status":0.0,"note":null,"address":"仙台市泉区北中山二丁目２７－５","row_num":1197},{"area_id":5,"name":"北中山三丁目公園西側","lat":38.3146517,"long":140.8130249,"status":0.0,"note":null,"address":"仙台市泉区北中山三丁目7（三丁目6-14向い付近）","row_num":1198},{"area_id":5,"name":"北中山四丁目公園東側","lat":38.3129368,"long":140.8092564,"status":0.0,"note":null,"address":"仙台市泉区北中山四丁目２５－６","row_num":1199},{"area_id":5,"name":"北中山四丁目北公園北側","lat":38.3146648,"long":140.8081536,"status":0.0,"note":null,"address":"仙台市泉区北中山四丁目２０－１５","row_num":1200},{"area_id":5,"name":"実沢大橋北側野菜ハウス付近歩道","lat":38.32436,"long":140.8243244,"status":0.0,"note":null,"address":"仙台市泉区実沢字宮東 地内（実沢字蒜屋敷25より南方面歩道）","row_num":1201},{"area_id":5,"name":"旧実沢小学校南側","lat":38.3286169,"long":140.8209115,"status":0.0,"note":null,"address":"仙台市泉区実沢字一本橋２０","row_num":1202},{"area_id":5,"name":"林泉寺入口付近市道沿い北側","lat":38.3236912,"long":140.8168499,"status":0.0,"note":null,"address":"仙台市泉区実沢字上３０－２","row_num":1203},{"area_id":5,"name":"株式会社フコク仙台センター資材置場北側市道待避所付近","lat":38.3227774481,"long":140.8121012547,"status":0.0,"note":null,"address":"仙台市泉区実沢字二ノ関西地内（二ノ関屋敷32-5付近）","row_num":1204},{"area_id":5,"name":"八沢川バス停付近","lat":38.3281623,"long":140.8350421,"status":0.0,"note":null,"address":"仙台市泉区実沢字立田地内（実沢字八沢橋本11-1 付近）","row_num":1205},{"area_id":5,"name":"窪バス停前西側","lat":38.3271168,"long":140.8052264,"status":0.0,"note":null,"address":"仙台市泉区小角字窪上東 地先（泉区小角字館前4付近）","row_num":1206},{"area_id":5,"name":"泉自動車学校向い側歩道","lat":38.3291429,"long":140.81142,"status":0.0,"note":null,"address":"仙台市泉区小角字下河原地内","row_num":1207},{"area_id":5,"name":"館一丁目公園東側","lat":38.3108678,"long":140.795635,"status":0.0,"note":null,"address":"仙台市泉区館一丁目地内（館一丁目8-10付近)","row_num":1208},{"area_id":5,"name":"泉ビレジ一丁目バス停付近（緑道）","lat":38.3108678,"long":140.795635,"status":0.0,"note":null,"address":"仙台市泉区館一丁目10地内（館一丁目10-5付近）","row_num":1209},{"area_id":5,"name":"館二丁目公園内館二丁目集会所南側","lat":38.3145076,"long":140.7956611,"status":0.0,"note":null,"address":"仙台市泉区館二丁目地内（館二丁目16-1付近）","row_num":1210},{"area_id":5,"name":"館三丁目西公園東側","lat":38.3177977,"long":140.7945721,"status":0.0,"note":null,"address":"仙台市泉区館三丁目地内（館三丁目2-8付近）","row_num":1211},{"area_id":5,"name":"泉ビレジ五丁目バス停付近（緑道）","lat":38.3198148,"long":140.8006214,"status":0.0,"note":null,"address":"仙台市泉区館五丁目18地内（館五丁目18-3付近）","row_num":1212},{"area_id":5,"name":"館中学校北側","lat":38.3168415,"long":140.7984105,"status":0.0,"note":null,"address":"仙台市泉区館六丁目１７－１","row_num":1213},{"area_id":5,"name":"館小学校西側","lat":38.3127312,"long":140.7997375,"status":0.0,"note":null,"address":"仙台市泉区館七丁目１－１７","row_num":1214},{"area_id":5,"name":"館ゆりのき緑道","lat":38.3236818,"long":140.7969548,"status":0.0,"note":null,"address":"仙台市泉区館四丁目28地内（館四丁目28-1付近）","row_num":1215},{"area_id":5,"name":"住吉台西一丁目公園北側","lat":38.3270829,"long":140.7824061,"status":0.0,"note":null,"address":"仙台市泉区住吉台西一丁目７－７","row_num":1216},{"area_id":5,"name":"住吉台西二丁目公園北側","lat":38.3301733,"long":140.7775035,"status":0.0,"note":null,"address":"仙台市泉区住吉台西二丁目７－５","row_num":1217},{"area_id":5,"name":"住吉台小学校東側","lat":38.3296387,"long":140.7826184,"status":0.0,"note":null,"address":"仙台市泉区住吉台西四丁目１－１","row_num":1218},{"area_id":5,"name":"住吉台東五丁目公園西側","lat":38.3291617,"long":140.7927644,"status":0.0,"note":null,"address":"仙台市泉区住吉台東五丁目地内（住吉台東五丁目13-9 付近）","row_num":1219},{"area_id":5,"name":"住吉台西四丁目東公園東側","lat":38.3324573,"long":140.7839418,"status":0.0,"note":null,"address":"仙台市泉区住吉台西四丁目地内（住吉台西四丁目25-3付近）","row_num":1220},{"area_id":5,"name":"住吉台東一丁目公園北側","lat":38.3267436,"long":140.7850949,"status":0.0,"note":null,"address":"仙台市泉区住吉台東一丁目3-9（東二丁目8-20向い付近）","row_num":1221},{"area_id":5,"name":"住吉台東一丁目東公園南側","lat":38.3269032,"long":140.7874234,"status":0.0,"note":null,"address":"仙台市泉区住吉台東一丁目11地内（住吉台東一丁目10-8付近）","row_num":1222},{"area_id":5,"name":"住吉台東四丁目公園北側","lat":38.3318808,"long":140.7898177,"status":0.0,"note":null,"address":"仙台市泉区住吉台東四丁目６－８","row_num":1223},{"area_id":5,"name":"住吉台南側入口ガソリンスタンド向い側","lat":38.3253501,"long":140.7919264,"status":0.0,"note":null,"address":"仙台市泉区西田中字萱場中 地内（西田中字並木南1-9向い）","row_num":1224},{"area_id":5,"name":"ＪＡ仙台旧根白石支店跡地（高長商店 南隣）","lat":38.3440891,"long":140.7967298,"status":0.0,"note":null,"address":"仙台市泉区根白石字堂ノ沢 地内（根白石字町西上24 南隣）","row_num":1225},{"area_id":5,"name":"早坂自動車商会西側 国道457号線 Ｙ字路","lat":38.3333417,"long":140.8016516,"status":0.0,"note":null,"address":"仙台市泉区根白石字判在家後 15 地先(判在家後28-4より北西方向付近)","row_num":1226},{"area_id":5,"name":"根白石市民センター西側","lat":38.3421903,"long":140.7959915,"status":0.0,"note":null,"address":"仙台市泉区根白石字杉下前２４","row_num":1227},{"area_id":5,"name":"年川水管橋下 西側たもと","lat":38.337293,"long":140.8016998,"status":0.0,"note":null,"address":"仙台市泉区根白石字判在家 地内(根白石字新坂上8 斜め向い付近)","row_num":1228},{"area_id":5,"name":"ＪＡ仙台根白石支店駐車場西側","lat":38.340142,"long":140.8015404,"status":0.0,"note":null,"address":"仙台市泉区根白石字町尻道下２８地内","row_num":1229},{"area_id":5,"name":"山田川右岸新館下橋西側","lat":38.3482929,"long":140.799606,"status":0.0,"note":null,"address":"仙台市泉区根白石字愛宕下西１１－２","row_num":1230},{"area_id":5,"name":"住吉台北側入口付近","lat":38.3344426,"long":140.7918487,"status":0.0,"note":null,"address":"仙台市泉区西田中字萩坂前29 地先(西田中字萩坂前25 付近)","row_num":1231},{"area_id":5,"name":"国道457号線バイパス西田中住吉神社入口","lat":38.3430761,"long":140.7998521,"status":0.0,"note":null,"address":"仙台市泉区根白石字上館地内","row_num":1232},{"area_id":5,"name":"県道泉ケ岳公園線七北田ダム入口バス停付近","lat":38.3734587,"long":140.7585417,"status":0.0,"note":null,"address":"仙台市泉区福岡字平場 地内（福岡字上野原1-16付近）","row_num":1233},{"area_id":5,"name":"県道泉ケ岳公園線旗枠バス停付近","lat":38.3734587,"long":140.7585417,"status":0.0,"note":null,"address":"仙台市泉区福岡字大前通 地内（福岡字下野中沢2-15付近）","row_num":1234},{"area_id":5,"name":"西泉バス停付近","lat":38.3506209,"long":140.7886237,"status":0.0,"note":null,"address":"仙台市泉区福岡字西泉９地先","row_num":1235},{"area_id":5,"name":"ミニストップ仙台泉福岡店北側入口付近","lat":38.3562189,"long":140.7827474,"status":0.0,"note":null,"address":"仙台市泉区福岡字阿弥陀前 地内（福岡字阿弥陀前14-1付近）","row_num":1236},{"area_id":5,"name":"福岡小学校西側","lat":38.3540327,"long":140.7825785,"status":0.0,"note":null,"address":"仙台市泉区福岡字堰添１０","row_num":1237},{"area_id":5,"name":"国道457号線バイパス福岡浄水場入口付近","lat":38.3519404,"long":140.7773102,"status":0.0,"note":null,"address":"仙台市泉区福岡字台 地先（福岡字狐崎20-1付近）","row_num":1238},{"area_id":5,"name":"県道泉ケ丘熊ケ根線杉の崎公会堂前バス停付近","lat":38.3646119,"long":140.7556308,"status":0.0,"note":null,"address":"仙台市泉区福岡字熊ケ沢 地内（福岡字上畑31付近)","row_num":1239},{"area_id":5,"name":"県道泉ケ岳公園線川崎上バス停西側","lat":38.3578534,"long":140.7809367,"status":0.0,"note":null,"address":"仙台市泉区福岡字川崎 地内（福岡字川崎4-4付近）","row_num":1240},{"area_id":5,"name":"水道局西脇配水ポンプ場東側","lat":38.3748189,"long":140.7890215,"status":0.0,"note":null,"address":"仙台市泉区朴沢字狩集 地内（朴沢字狩集19付近）","row_num":1241},{"area_id":5,"name":"朴沢集会所南側","lat":38.36651,"long":140.7898421,"status":0.0,"note":null,"address":"仙台市泉区朴沢字南６８－１","row_num":1242},{"area_id":5,"name":"水道局朴沢ポンプ場南側","lat":38.3592676,"long":140.7861101,"status":0.0,"note":null,"address":"仙台市泉区朴沢字上鳥居原 地内（朴沢字上鳥居原2-5付近）","row_num":1243},{"area_id":5,"name":"朴沢クリーンセンター西側","lat":38.3572126,"long":140.7898632,"status":0.0,"note":null,"address":"仙台市泉区朴沢字原前４－３","row_num":1244},{"area_id":5,"name":"勝山企業（株）勝山酒造部泉蔵入口付近","lat":38.3553302,"long":140.7905509,"status":0.0,"note":null,"address":"仙台市泉区朴沢字二階１５－２地内","row_num":1245},{"area_id":5,"name":"国道４５７号線下り線（朴沢大原地内）右カーブ付近","lat":38.3740234,"long":140.7902095,"status":0.0,"note":null,"address":"仙台市泉区朴沢字大原地内","row_num":1246},{"area_id":5,"name":"国道４５７号線下り線ほこだて仏光堂根白石店南側Ｙ字路","lat":38.3710894,"long":140.7901266,"status":0.0,"note":null,"address":"仙台市泉区朴沢字小原前２４－４地先","row_num":1247},{"area_id":5,"name":"国道４５７号線上り線朴沢字小田地内Ｙ字路付近","lat":38.3613491,"long":140.7897851,"status":0.0,"note":null,"address":"仙台市泉区朴沢字小田 地内 (朴沢字上原7付近)","row_num":1248},{"area_id":5,"name":"寺岡一丁目公園東側","lat":38.3375095,"long":140.836652,"status":0.0,"note":null,"address":"仙台市泉区寺岡一丁目１２－２９","row_num":1249},{"area_id":5,"name":"寺岡山南側","lat":38.3353275,"long":140.8310438,"status":0.0,"note":null,"address":"仙台市泉区寺岡二丁目３－３０向い側","row_num":1250},{"area_id":5,"name":"寺岡二丁目公園南側","lat":38.3365784,"long":140.8333242,"status":0.0,"note":null,"address":"仙台市泉区寺岡二丁目５－１","row_num":1251},{"area_id":5,"name":"寺岡市民センター北側","lat":38.3411439,"long":140.8290161,"status":0.0,"note":null,"address":"仙台市泉区寺岡二丁目１４－４","row_num":1252},{"area_id":5,"name":"寺岡児童センター東側","lat":38.3405893,"long":140.8263919,"status":0.0,"note":null,"address":"仙台市泉区寺岡三丁目１－３","row_num":1253},{"area_id":5,"name":"寺岡六丁目公園南側","lat":38.3434656,"long":140.8317973,"status":0.0,"note":null,"address":"仙台市泉区寺岡六丁目１２－８","row_num":1254},{"area_id":5,"name":"寺岡中央公園東側","lat":38.3408513,"long":140.8328831,"status":0.0,"note":null,"address":"仙台市泉区寺岡二丁目１２地内","row_num":1255},{"area_id":5,"name":"寺岡緑地（谷間公園）東側","lat":38.3422243,"long":140.8206764,"status":0.0,"note":null,"address":"仙台市泉区寺岡三丁目１６地内（13街区西側）","row_num":1256},{"area_id":5,"name":"高森一丁目東公園東側","lat":38.3375818,"long":140.843722,"status":0.0,"note":null,"address":"仙台市泉区高森一丁目1 地内（高森一丁目1-194付近）","row_num":1257},{"area_id":5,"name":"高森小学校西側","lat":38.3417016,"long":140.8470862,"status":0.0,"note":null,"address":"仙台市泉区高森三丁目１","row_num":1258},{"area_id":5,"name":"高森六丁目公園南側","lat":38.3432251,"long":140.851018,"status":0.0,"note":null,"address":"仙台市泉区高森六丁目15 地内（高森六丁目28-6付近）","row_num":1259},{"area_id":5,"name":"高森四丁目公園西側","lat":38.33616,"long":140.8475586,"status":0.0,"note":null,"address":"仙台市泉区高森四丁目2 地内（高森四丁目2-108付近）","row_num":1260},{"area_id":5,"name":"高森五丁目公園北側","lat":38.3348627,"long":140.8512899,"status":0.0,"note":null,"address":"仙台市泉区高森五丁目２８－１","row_num":1261},{"area_id":5,"name":"高森東公園東側","lat":38.3401706,"long":140.8528357,"status":0.0,"note":null,"address":"仙台市泉区高森六丁目1 地内（高森七丁目1-4付近）","row_num":1262},{"area_id":5,"name":"高森中学校南側","lat":38.3392243,"long":140.8508732,"status":0.0,"note":null,"address":"仙台市泉区高森六丁目２－１","row_num":1263},{"area_id":5,"name":"北高森みはらしの丘公園南側","lat":38.3470428,"long":140.8615175,"status":1.0,"note":null,"address":"仙台市泉区北高森３０－１","row_num":1264},{"area_id":5,"name":"桂一丁目バス停南側緑地","lat":38.3342549,"long":140.8609059,"status":0.0,"note":null,"address":"仙台市泉区桂一丁目３－１向い側","row_num":1265},{"area_id":5,"name":"桂中央公園東側","lat":38.3393493,"long":140.860215,"status":0.0,"note":null,"address":"仙台市泉区桂二丁目34地内（桂三丁目7-11付近）","row_num":1266},{"area_id":5,"name":"桂大倉緑地東側","lat":38.3361489,"long":140.8575743,"status":0.0,"note":null,"address":"仙台市泉区桂二丁目35地内（桂二丁目11-7付近）","row_num":1267},{"area_id":5,"name":"桂小学校西側","lat":38.3350632,"long":140.8636671,"status":0.0,"note":null,"address":"仙台市泉区桂三丁目１－１","row_num":1268},{"area_id":5,"name":"桂三丁目公園西側","lat":38.3415209,"long":140.8646251,"status":0.0,"note":null,"address":"仙台市泉区桂三丁目13-4外（桂三丁目16-26付近）","row_num":1269},{"area_id":5,"name":"桂四丁目公園西側","lat":38.3426691,"long":140.8681961,"status":1.0,"note":null,"address":"仙台市泉区桂四丁目２９－１","row_num":1270},{"area_id":5,"name":"ダイシン桂店北側緑地（道路脇）","lat":38.3343564,"long":140.8659205,"status":1.0,"note":null,"address":"仙台市泉区桂一丁目15地内（泉区桂一丁目16-7付近）","row_num":1271},{"area_id":5,"name":"大沢二丁目公園西側","lat":38.3511084,"long":140.8758947,"status":0.0,"note":null,"address":"仙台市泉区大沢二丁目１１－１","row_num":1272},{"area_id":5,"name":"泉ケ丘一丁目東公園北側","lat":38.3531238,"long":140.8705626,"status":0.0,"note":null,"address":"仙台市泉区泉ケ丘一丁目１２－１４付近","row_num":1273},{"area_id":5,"name":"泉ケ丘二丁目公園南側","lat":38.35371,"long":140.869064,"status":0.0,"note":null,"address":"仙台市泉区泉ケ丘二丁目１０－１４付近","row_num":1274},{"area_id":5,"name":"泉ケ丘二丁目１１街区西側 法面階段付近","lat":38.3534175,"long":140.867277,"status":0.0,"note":null,"address":"仙台市泉区泉ケ丘二丁目13地内(泉ケ丘老人憩いの家13-7から南進)","row_num":1275},{"area_id":5,"name":"泉ケ丘児童センター東側","lat":38.3580737,"long":140.8663584,"status":0.0,"note":null,"address":"仙台市泉区泉ケ丘四丁目１１－２９","row_num":1276},{"area_id":5,"name":"泉ケ丘五丁目公園北側","lat":38.3607591,"long":140.863902,"status":0.0,"note":null,"address":"仙台市泉区泉ケ丘五丁目２４地内（五丁目29-6向い側）","row_num":1277},{"area_id":5,"name":"泉ケ丘コミュニティ・センター駐車場北側","lat":38.3567486,"long":140.8703094,"status":0.0,"note":null,"address":"仙台市泉区泉ケ丘三丁目１－２６","row_num":1278},{"area_id":5,"name":"泉ケ丘小学校東側","lat":38.3565434,"long":140.8617627,"status":0.0,"note":null,"address":"仙台市泉区明通四丁目１２－１","row_num":1279},{"area_id":5,"name":"宮城交通北営業所南側法面","lat":38.3588005,"long":140.8727799,"status":0.0,"note":null,"address":"仙台市泉区泉ケ丘三丁目１４－１５","row_num":1280},{"area_id":5,"name":"明石南一丁目公園南側","lat":38.3396476,"long":140.8892814,"status":0.0,"note":null,"address":"仙台市泉区明石南一丁目11（明石南一丁目10-1付近）","row_num":1281},{"area_id":5,"name":"明石南一丁目バス停付近緑地","lat":38.3411064,"long":140.8883905,"status":0.0,"note":null,"address":"仙台市泉区明石南二丁目31地内（明石南二丁目9-12付近）","row_num":1282},{"area_id":5,"name":"明石南二丁目バス停付近緑地","lat":38.345445,"long":140.8890027,"status":0.0,"note":null,"address":"仙台市泉区明石南四丁目20（明石南四丁目2-10付近）","row_num":1283},{"area_id":5,"name":"明石南運動広場南側法面","lat":38.3411144,"long":140.8869349,"status":0.0,"note":null,"address":"仙台市泉区明石南三丁目８","row_num":1284},{"area_id":5,"name":"明石南四丁目公園南側","lat":38.3451662,"long":140.8869621,"status":0.0,"note":null,"address":"仙台市泉区明石南四丁目８－３","row_num":1285},{"area_id":5,"name":"明石南五丁目南公園西側","lat":38.3413924,"long":140.8854333,"status":0.0,"note":null,"address":"仙台市泉区明石南五丁目2地内（明石南五丁目2-2付近）","row_num":1286},{"area_id":5,"name":"明石南六丁目公園西側入口","lat":38.3443775,"long":140.8817327,"status":0.0,"note":null,"address":"仙台市泉区明石南六丁目15（明石南六丁目1-1付近）","row_num":1287},{"area_id":5,"name":"紫山一丁目公園南側","lat":38.3503321,"long":140.8279758,"status":0.0,"note":null,"address":"仙台市泉区紫山一丁目20地内(集会所左側　紫山一丁目16-3付近)","row_num":1288},{"area_id":5,"name":"紫山二丁目公園西側","lat":38.3473157,"long":140.8281029,"status":0.0,"note":null,"address":"仙台市泉区紫山二丁目３１－４","row_num":1289},{"area_id":5,"name":"紫山三丁目公園西側","lat":38.3467669,"long":140.8242472,"status":0.0,"note":null,"address":"仙台市泉区紫山三丁目14地内（紫山三丁目9-12付近)","row_num":1290},{"area_id":5,"name":"紫山四丁目公園北側","lat":38.3492855,"long":140.820931,"status":0.0,"note":null,"address":"仙台市泉区紫山四丁目8地内(集会所左側　紫山四丁目18-5付近)","row_num":1291},{"area_id":5,"name":"紫山四丁目公園南側","lat":38.3492855,"long":140.820931,"status":0.0,"note":null,"address":"仙台市泉区紫山四丁目8地内（紫山四丁目22-14付近）","row_num":1292},{"area_id":5,"name":"紫山公園南側","lat":38.3507845,"long":140.8242471,"status":0.0,"note":null,"address":"仙台市泉区紫山五丁目12（泉区紫山二丁目23-4向い付近)","row_num":1293},{"area_id":5,"name":"紫山公園北側","lat":38.3507845,"long":140.8242471,"status":0.0,"note":null,"address":"仙台市泉区紫山五丁目12（紫山五丁目40-3向い付近）","row_num":1294}]