[{"area_id":9,"name":"城下広場入口南側","lat":38.00312,"long":140.62022,"status":1.0,"note":null,"address":"白石市大手町３０－３","row_num":1978},{"area_id":9,"name":"神石しろいし北側","lat":38.00412,"long":140.61918,"status":1.0,"note":null,"address":"白石市沢端町５２－４","row_num":1979},{"area_id":9,"name":"広瀬医院向","lat":38.00474,"long":140.61244,"status":1.0,"note":null,"address":"白石市西益岡町２５０－１","row_num":1980},{"area_id":9,"name":"専念寺東側","lat":38.00342,"long":140.62359,"status":1.0,"note":null,"address":"白石市字本町１０７－１","row_num":1981},{"area_id":9,"name":"武家屋敷駐車場南側","lat":38.00497,"long":140.61493,"status":1.0,"note":null,"address":"白石市西益岡町２０－１","row_num":1982},{"area_id":9,"name":"市営球場南側","lat":38.00085,"long":140.61544,"status":1.0,"note":null,"address":"白石市益岡町８８－１地内","row_num":1983},{"area_id":9,"name":"白石分団第１３班消防詰所西側","lat":38.00568,"long":140.61732,"status":1.0,"note":null,"address":"白石市沢端町１０５－９地内","row_num":1984},{"area_id":9,"name":"延命寺児童公園東側","lat":38.00788,"long":140.62403,"status":1.0,"note":null,"address":"白石市字延命寺６７－２","row_num":1985},{"area_id":9,"name":"個人宅北側","lat":38.0138213,"long":140.6270242,"status":0.0,"note":null,"address":"白石市字柳川原地内","row_num":1986},{"area_id":9,"name":"宍戸鍼灸療院南西側","lat":38.01094,"long":140.62329,"status":1.0,"note":null,"address":"白石市字半沢屋敷前６０","row_num":1987},{"area_id":9,"name":"白石第一小学校北側","lat":38.00962,"long":140.62212,"status":1.0,"note":null,"address":"白石市字半沢屋敷前３３－４、３４－１","row_num":1988},{"area_id":9,"name":"情報センター（アテネ）西側","lat":38.00819,"long":140.62062,"status":0.0,"note":null,"address":"白石市字亘理町３７－１、３７－３","row_num":1989},{"area_id":9,"name":"渡辺製材所北側","lat":38.0094,"long":140.61752,"status":0.0,"note":null,"address":"白石市大川町１１１－２","row_num":1990},{"area_id":9,"name":"福祉プラザやまぶき北側","lat":38.00071,"long":140.62018,"status":1.0,"note":null,"address":"白石市南町一丁目３６３－３，３６４－２","row_num":1991},{"area_id":9,"name":"白石中学校南側","lat":37.99819,"long":140.61971,"status":1.0,"note":null,"address":"白石市南町一丁目１２８－１地内","row_num":1992},{"area_id":9,"name":"個人宅北側","lat":37.9956612,"long":140.6178828,"status":1.0,"note":null,"address":"白石市南町二丁目地内","row_num":1993},{"area_id":9,"name":"高橋牧場西側","lat":37.99475,"long":140.62252,"status":1.0,"note":null,"address":"白石市田町二丁目１８０－１","row_num":1994},{"area_id":9,"name":"白石第二小学校西側","lat":37.99871,"long":140.62274,"status":1.0,"note":null,"address":"白石市字白石沖６７－１","row_num":1995},{"area_id":9,"name":"中央公園南側","lat":37.99988,"long":140.62378,"status":1.0,"note":null,"address":"白石市字本町６１－１","row_num":1996},{"area_id":9,"name":"清原歯科北側","lat":38.00068,"long":140.62817,"status":1.0,"note":null,"address":"白石市字銚子ヶ森１０－１４","row_num":1997},{"area_id":9,"name":"個人宅東側","lat":37.99595,"long":140.62743,"status":1.0,"note":null,"address":"白石市東町一丁目１－１１","row_num":1998},{"area_id":9,"name":"鷹巣地区コミュニティセンター北側","lat":38.00079,"long":140.64153,"status":0.0,"note":null,"address":"白石市緑が丘１－１１２","row_num":1999},{"area_id":9,"name":"緑が丘県営住宅向","lat":38.00145,"long":140.64034,"status":0.0,"note":null,"address":"白石市緑が丘８－１","row_num":2000},{"area_id":9,"name":"白石ソーイング入口","lat":38.00332,"long":140.63121,"status":1.0,"note":null,"address":"白石市寿山８－７４","row_num":2001},{"area_id":9,"name":"寿山会館東側","lat":38.00206,"long":140.63012,"status":1.0,"note":null,"address":"白石市寿山６０－１２０","row_num":2002},{"area_id":9,"name":"中央公民館入口脇","lat":38.00547,"long":140.62847,"status":1.0,"note":null,"address":"白石市字寺屋敷前６１－２","row_num":2003},{"area_id":9,"name":"㈲髙橋材木店東側","lat":38.00635,"long":140.62883,"status":1.0,"note":null,"address":"白石市字寺屋敷前７０－１、７３－１","row_num":2004},{"area_id":9,"name":"花見平入口","lat":38.0041,"long":140.63436,"status":1.0,"note":null,"address":"白石市郡山字花見平１８－３６","row_num":2005},{"area_id":9,"name":"奈良工業所北側","lat":38.00667,"long":140.63828,"status":1.0,"note":null,"address":"白石市郡山字鹿野２９－１","row_num":2006},{"area_id":9,"name":"松ヶ丘第１公園北側","lat":38.00447,"long":140.64519,"status":1.0,"note":null,"address":"白石市松ヶ丘一丁目４－１","row_num":2007},{"area_id":9,"name":"鍋石山入口","lat":38.00513,"long":140.6439,"status":0.0,"note":null,"address":"白石市郡山字鍋石山２－６５","row_num":2008},{"area_id":9,"name":"観音崎児童公園西側","lat":38.00906,"long":140.63386,"status":0.0,"note":null,"address":"白石市郡山字観音崎１７４","row_num":2009},{"area_id":9,"name":"個人宅西側","lat":38.01269,"long":140.63252,"status":0.0,"note":null,"address":"白石市郡山字平成１２２－１","row_num":2010},{"area_id":9,"name":"ＪＲ江坪踏切東側","lat":38.0209,"long":140.63697,"status":0.0,"note":null,"address":"白石市郡山字江坪地内","row_num":2011},{"area_id":9,"name":"個人宅東側","lat":38.02319,"long":140.63596,"status":0.0,"note":null,"address":"白石市小下倉字岩崎山３９－１","row_num":2012},{"area_id":9,"name":"小下倉集会所東側","lat":38.02598,"long":140.63773,"status":0.0,"note":null,"address":"白石市小下倉字六角元５５－２","row_num":2013},{"area_id":9,"name":"互助センターフローラ倉庫北側","lat":37.99866,"long":140.63431,"status":0.0,"note":null,"address":"白石市鷹巣西二丁目４－１１，４－１２","row_num":2014},{"area_id":9,"name":"キューブ西側","lat":37.99744,"long":140.64297,"status":0.0,"note":null,"address":"白石市鷹巣東二丁目１－１","row_num":2015},{"area_id":9,"name":"石松園北側","lat":37.9973005,"long":140.6428185,"status":0.0,"note":null,"address":"白石市鷹巣東三丁目６－６","row_num":2016},{"area_id":9,"name":"スーパーコインランドリー白石蔵王店東側","lat":37.99559,"long":140.63482,"status":1.0,"note":null,"address":"白石市鷹巣東一丁目１０－３","row_num":2017},{"area_id":9,"name":"市営桜田住宅集積所北側","lat":37.99195,"long":140.63402,"status":0.0,"note":null,"address":"白石市旭町五丁目２－１","row_num":2018},{"area_id":9,"name":"深山神社東側","lat":37.91421,"long":140.59191,"status":1.0,"note":null,"address":"白石市越河字町屋敷地内","row_num":2019},{"area_id":9,"name":"個人宅東側","lat":37.9166,"long":140.59255,"status":1.0,"note":null,"address":"白石市越河字町屋敷２０","row_num":2020},{"area_id":9,"name":"個人宅東側","lat":37.91781,"long":140.59497,"status":1.0,"note":null,"address":"白石市越河字石坊町２１－１","row_num":2021},{"area_id":9,"name":"越河公民館前","lat":37.92515,"long":140.59777,"status":1.0,"note":null,"address":"白石市越河五賀字南原２－１","row_num":2022},{"area_id":9,"name":"パール美容室西側","lat":37.92588,"long":140.60083,"status":1.0,"note":null,"address":"白石市越河五賀字南台５１－２","row_num":2023},{"area_id":9,"name":"個人宅東側","lat":37.93033,"long":140.60425,"status":1.0,"note":null,"address":"白石市越河五賀字宮下４９－１","row_num":2024},{"area_id":9,"name":"個人宅北側","lat":37.92466,"long":140.61225,"status":0.0,"note":null,"address":"白石市越河平字中妻前６－３","row_num":2025},{"area_id":9,"name":"越河第６班ポンプ場置場東側","lat":37.93049,"long":140.61029,"status":0.0,"note":null,"address":"白石市越河平字麦田１－６","row_num":2026},{"area_id":9,"name":"第４班ポンプ場置場北側","lat":37.93373,"long":140.60499,"status":1.0,"note":null,"address":"白石市越河五賀字馬場台３５－１","row_num":2027},{"area_id":9,"name":"越河第７区集会所南側","lat":37.9341,"long":140.60284,"status":0.0,"note":null,"address":"白石市越河五賀字古屋敷２５－４","row_num":2028},{"area_id":9,"name":"個人宅南側","lat":37.9375,"long":140.60126,"status":0.0,"note":null,"address":"白石市越河五賀字八幡地内","row_num":2029},{"area_id":9,"name":"個人宅南側","lat":37.93997,"long":140.60995,"status":1.0,"note":null,"address":"白石市越河平字石神１７－１","row_num":2030},{"area_id":9,"name":"個人宅西側","lat":37.94948,"long":140.59914,"status":0.0,"note":null,"address":"白石市斎川字中屋敷前１－１","row_num":2031},{"area_id":9,"name":"千葉生花店向い","lat":37.94653,"long":140.61076,"status":1.0,"note":null,"address":"白石市斎川字馬牛地内","row_num":2032},{"area_id":9,"name":"斎川第２班ポンプ場置場北側","lat":37.95737,"long":140.6093,"status":1.0,"note":null,"address":"白石市斎川字当町頭１５","row_num":2033},{"area_id":9,"name":"旧斎川小学校正門南側","lat":37.96161,"long":140.61164,"status":1.0,"note":null,"address":"白石市斎川字地官地内","row_num":2034},{"area_id":9,"name":"斎川公民館前","lat":37.96376,"long":140.61269,"status":1.0,"note":null,"address":"白石市斎川字新町尻３１","row_num":2035},{"area_id":9,"name":"携帯無線中継所北側","lat":37.95647,"long":140.61711,"status":0.0,"note":null,"address":"白石市斎川字下山ノ入１５－２","row_num":2036},{"area_id":9,"name":"上鹿の子集会所西側","lat":37.95898,"long":140.6238,"status":0.0,"note":null,"address":"白石市斎川字沼前６－３","row_num":2037},{"area_id":9,"name":"下鹿の子農村センター南側","lat":37.96828,"long":140.62483,"status":0.0,"note":null,"address":"白石市斎川字下鹿ノ子沖４１","row_num":2038},{"area_id":9,"name":"個人宅南側","lat":37.972,"long":140.62253,"status":0.0,"note":null,"address":"白石市斎川字谷地５－１","row_num":2039},{"area_id":9,"name":"個人宅東側","lat":37.96863,"long":140.61212,"status":0.0,"note":null,"address":"白石市斎川字地蔵院舘４－１","row_num":2040},{"area_id":9,"name":"中斎川転作研修センター東側","lat":37.97176,"long":140.60785,"status":0.0,"note":null,"address":"白石市斎川字中斎川西５２、５３","row_num":2041},{"area_id":9,"name":"斎川道祖神社南側","lat":37.97264,"long":140.61103,"status":0.0,"note":null,"address":"白石市斎川字中斎川西２０６","row_num":2042},{"area_id":9,"name":"下森合集会所前","lat":37.99274,"long":140.60565,"status":0.0,"note":null,"address":"白石市大平森合字北六角地内","row_num":2043},{"area_id":9,"name":"個人宅前","lat":37.98634,"long":140.60708,"status":0.0,"note":null,"address":"白石市大平森合字白川前畑地内","row_num":2044},{"area_id":9,"name":"旧第五班ポンプ場北側","lat":37.97899,"long":140.6089,"status":0.0,"note":null,"address":"白石市大平中目字舘前１５－１","row_num":2045},{"area_id":9,"name":"太平前信号機南側","lat":37.98126,"long":140.614,"status":0.0,"note":null,"address":"白石市大平中目字太平前７７－１","row_num":2046},{"area_id":9,"name":"大平公民館前","lat":37.98517,"long":140.61645,"status":0.0,"note":null,"address":"白石市大平中目字西田７","row_num":2047},{"area_id":9,"name":"個人宅東側","lat":37.98191,"long":140.62512,"status":0.0,"note":null,"address":"白石市大平坂谷字大柳前１０","row_num":2048},{"area_id":9,"name":"上久保バス停留所脇","lat":37.99133,"long":140.6184,"status":0.0,"note":null,"address":"白石市上久保地内","row_num":2049},{"area_id":9,"name":"個人宅西側角","lat":37.99162,"long":140.61595,"status":0.0,"note":null,"address":"白石市上久保１０２－１０","row_num":2050},{"area_id":9,"name":"動物病院南側","lat":37.99513,"long":140.61292,"status":0.0,"note":null,"address":"白石市城南一丁目地内","row_num":2051},{"area_id":9,"name":"宮下バス停留所脇","lat":37.99391,"long":140.63625,"status":1.0,"note":null,"address":"白石市大鷹沢三沢字宮下１２６－１","row_num":2052},{"area_id":9,"name":"大鷹沢公民館前","lat":37.98418,"long":140.64484,"status":0.0,"note":null,"address":"白石市大鷹沢三沢字五丁目４８","row_num":2053},{"area_id":9,"name":"光陽舎クリーニングセンター北側","lat":37.98185,"long":140.64514,"status":0.0,"note":null,"address":"白石市大鷹沢三沢字五丁目１１２－１","row_num":2054},{"area_id":9,"name":"旧大鷹沢体育館西側","lat":37.98093,"long":140.64703,"status":0.0,"note":null,"address":"白石市大鷹沢三沢字五丁目１９５－２","row_num":2055},{"area_id":9,"name":"黒内バス停留所脇","lat":37.9666,"long":140.65657,"status":0.0,"note":null,"address":"白石市大鷹沢三沢字黒内地内","row_num":2056},{"area_id":9,"name":"第４区集会所脇","lat":37.96375,"long":140.65729,"status":0.0,"note":null,"address":"白石市大鷹沢三沢字黒内地内","row_num":2057},{"area_id":9,"name":"第５区公民館前","lat":37.95635,"long":140.65843,"status":0.0,"note":null,"address":"白石市三沢字十鉢７４－１","row_num":2058},{"area_id":9,"name":"市道斎川線入口","lat":37.95198,"long":140.65149,"status":0.0,"note":null,"address":"白石市三沢字高岡田地内","row_num":2059},{"area_id":9,"name":"東沢十字路東側","lat":37.95198,"long":140.65149,"status":0.0,"note":null,"address":"白石市大鷹沢三沢字東沢２４","row_num":2060},{"area_id":9,"name":"個人宅脇","lat":37.97447,"long":140.66394,"status":0.0,"note":null,"address":"白石市大鷹沢三沢字市道４４－１８４","row_num":2061},{"area_id":9,"name":"矢ノ口入口三差路","lat":37.97302,"long":140.68106,"status":0.0,"note":null,"address":"白石市大鷹沢大町字十文字地内","row_num":2062},{"area_id":9,"name":"個人宅前","lat":37.97529,"long":140.6833,"status":0.0,"note":null,"address":"白石市大鷹沢大町字矢ノ口西地内","row_num":2063},{"area_id":9,"name":"不忘園前バス停留所前","lat":37.97967,"long":140.66064,"status":0.0,"note":null,"address":"白石市大鷹沢大町字若林１３１－１２","row_num":2064},{"area_id":9,"name":"青木製作所脇西側市有地","lat":37.98662,"long":140.65004,"status":0.0,"note":null,"address":"白石市大鷹沢大町字塔ノ入地内","row_num":2065},{"area_id":9,"name":"宮在家バス停留所脇","lat":37.99004,"long":140.64644,"status":0.0,"note":null,"address":"白石市大鷹沢大町字宮在家１０３－６","row_num":2066},{"area_id":9,"name":"個人宅前","lat":37.98938,"long":140.65741,"status":0.0,"note":null,"address":"白石市大鷹沢大町字弓附２－３","row_num":2067},{"area_id":9,"name":"愛宕地内集積所脇","lat":37.98875,"long":140.66925,"status":0.0,"note":null,"address":"白石市大鷹沢大町字愛宕２３６","row_num":2068},{"area_id":9,"name":"旧第１２区集会所東側","lat":38.00468,"long":140.65965,"status":0.0,"note":null,"address":"白石市大鷹沢鷹巣字白坂下１０－１","row_num":2069},{"area_id":9,"name":"東白石駅前","lat":38.03497,"long":140.65125,"status":1.0,"note":null,"address":"白石市白川内親字安久戸地内","row_num":2070},{"area_id":9,"name":"個人宅前","lat":38.03474,"long":140.66375,"status":1.0,"note":null,"address":"白石市白川内親字荒地内","row_num":2071},{"area_id":9,"name":"内親集会所前","lat":38.03179,"long":140.66139,"status":0.0,"note":null,"address":"白石市白川内親字佐野２","row_num":2072},{"area_id":9,"name":"個人宅前","lat":38.03211,"long":140.67213,"status":0.0,"note":null,"address":"白石市白川内親字内親１２１","row_num":2073},{"area_id":9,"name":"第２区集会所前","lat":38.03056,"long":140.68265,"status":1.0,"note":null,"address":"白石市白川津田字小路南１－１","row_num":2074},{"area_id":9,"name":"個人宅向","lat":38.03122,"long":140.68409,"status":1.0,"note":null,"address":"白石市白川津田字小路屋敷５０－１","row_num":2075},{"area_id":9,"name":"白川公民館前","lat":38.03137,"long":140.68929,"status":0.0,"note":null,"address":"白石市白川津田字内堀１－２","row_num":2076},{"area_id":9,"name":"個人所有駐車場","lat":38.0334,"long":140.694,"status":1.0,"note":null,"address":"白石市白川津田字越田５－１","row_num":2077},{"area_id":9,"name":"白川水稲生産組合前","lat":38.03476,"long":140.6968,"status":1.0,"note":null,"address":"白石市白川小奥字表前７１","row_num":2078},{"area_id":9,"name":"椚林バス停留所前","lat":38.02567,"long":140.68275,"status":0.0,"note":null,"address":"白石市白川津田字中丸地内","row_num":2079},{"area_id":9,"name":"個人宅前","lat":38.02296,"long":140.67794,"status":0.0,"note":null,"address":"白石市白川津田字稗田地内","row_num":2080},{"area_id":9,"name":"第４区集会所前","lat":38.02046,"long":140.67678,"status":0.0,"note":null,"address":"白石市白川津田字大淵３０","row_num":2081},{"area_id":9,"name":"個人宅脇","lat":38.01751,"long":140.67313,"status":0.0,"note":null,"address":"白石市白川津田字後安入２－１","row_num":2082},{"area_id":9,"name":"個人宅向","lat":38.0141,"long":140.67941,"status":0.0,"note":null,"address":"白石市白川津田字赤丸地内","row_num":2083},{"area_id":9,"name":"個人宅前","lat":38.01873,"long":140.68183,"status":0.0,"note":null,"address":"白石市白川津田字山神８１－２","row_num":2084},{"area_id":9,"name":"個人宅北側","lat":38.00563,"long":140.67913,"status":0.0,"note":null,"address":"白石市白川犬卒都婆字吉ノ入８－２","row_num":2085},{"area_id":9,"name":"個人宅前","lat":37.99781,"long":140.68434,"status":0.0,"note":null,"address":"白石市白川犬卒都婆字広町２１","row_num":2086},{"area_id":9,"name":"個人宅前","lat":37.99959,"long":140.67627,"status":1.0,"note":null,"address":"白石市白川犬卒都婆字荻窪尻１５－１","row_num":2087},{"area_id":9,"name":"犬卒都婆公会堂駐車場","lat":38.00578,"long":140.67035,"status":0.0,"note":null,"address":"白石市白川犬卒都婆字岩ノ上４０－２","row_num":2088},{"area_id":9,"name":"ミニストップ北側","lat":38.00704,"long":140.66846,"status":1.0,"note":null,"address":"白石市白川犬卒都婆字羽山１０","row_num":2089},{"area_id":9,"name":"ＪＡみやぎ仙南福岡支店向かい","lat":38.01412,"long":140.6197,"status":0.0,"note":null,"address":"白石市福岡長袋字中ノ狐沢北２９－１","row_num":2090},{"area_id":9,"name":"福岡公民館前","lat":38.01476,"long":140.61852,"status":0.0,"note":null,"address":"白石市福岡長袋字陣場が丘１２－１","row_num":2091},{"area_id":9,"name":"岩崎集会所前","lat":38.01715,"long":140.62488,"status":0.0,"note":null,"address":"白石市福岡長袋字岩崎２","row_num":2092},{"area_id":9,"name":"天津沢バス停留所脇","lat":38.0194,"long":140.62375,"status":0.0,"note":null,"address":"白石市福岡長袋字中河原５－２","row_num":2093},{"area_id":9,"name":"個人宅前","lat":38.01742,"long":140.61022,"status":0.0,"note":null,"address":"白石市福岡長袋字河原沢５７","row_num":2094},{"area_id":9,"name":"公立刈田綜合病院北側","lat":38.01263,"long":140.60841,"status":0.0,"note":null,"address":"白石市福岡蔵本字天津沢南地内","row_num":2095},{"area_id":9,"name":"個人宅東側","lat":38.01947,"long":140.61511,"status":0.0,"note":null,"address":"白石市福岡長袋字三部山２２－３","row_num":2096},{"area_id":9,"name":"高野商店脇","lat":38.02234,"long":140.61267,"status":0.0,"note":null,"address":"白石市福岡長袋字上ノ神明前地内","row_num":2097},{"area_id":9,"name":"蔵王高原フーズ向い","lat":38.0236,"long":140.6198,"status":0.0,"note":null,"address":"白石市福岡長袋字鹿ノ下２－１","row_num":2098},{"area_id":9,"name":"南部山集会所前","lat":38.01848,"long":140.59498,"status":0.0,"note":null,"address":"白石市長袋字小倉山１３６－１","row_num":2099},{"area_id":9,"name":"中原ポンプ小屋脇","lat":38.00948,"long":140.58746,"status":0.0,"note":null,"address":"白石市蔵本字中原地内","row_num":2100},{"area_id":9,"name":"川原子バス停留所前","lat":38.04107,"long":140.52987,"status":0.0,"note":null,"address":"白石市八宮字川原子地内","row_num":2101},{"area_id":9,"name":"川原子上・沼分岐点","lat":38.02434,"long":140.53858,"status":0.0,"note":null,"address":"白石市八宮字川原子上９４－８","row_num":2102},{"area_id":9,"name":"割山バス停留所向","lat":38.02056,"long":140.58125,"status":0.0,"note":null,"address":"白石市福岡長袋字石淵１６－５","row_num":2103},{"area_id":9,"name":"弥治郎集会所脇","lat":38.0346,"long":140.57635,"status":0.0,"note":null,"address":"白石市福岡八宮字弥治郎北１１１","row_num":2104},{"area_id":9,"name":"馬場先バス停留所前","lat":38.02754,"long":140.61177,"status":0.0,"note":null,"address":"白石市福岡八宮字中ノ川２９－１","row_num":2105},{"area_id":9,"name":"八宮生活センター北側","lat":38.02753,"long":140.60958,"status":0.0,"note":null,"address":"白石市福岡八宮字原８－２","row_num":2106},{"area_id":9,"name":"個人宅前","lat":38.02703,"long":140.59858,"status":0.0,"note":null,"address":"白石市福岡八宮字芹沢３６－２","row_num":2107},{"area_id":9,"name":"個人宅前","lat":38.02831,"long":140.61195,"status":0.0,"note":null,"address":"白石市八宮字西３３","row_num":2108},{"area_id":9,"name":"個人宅前","lat":38.03758,"long":140.61081,"status":0.0,"note":null,"address":"白石市福岡深谷字岩見柴２９","row_num":2109},{"area_id":9,"name":"西区上集会所前","lat":38.03608,"long":140.61643,"status":0.0,"note":null,"address":"白石市福岡深谷字上高野地内","row_num":2110},{"area_id":9,"name":"個人宅東側","lat":38.03023,"long":140.6235,"status":0.0,"note":null,"address":"白石市福岡深谷字青木後１４","row_num":2111},{"area_id":9,"name":"地蔵堂前","lat":38.03065,"long":140.63254,"status":0.0,"note":null,"address":"白石市福岡深谷字地蔵堂地内","row_num":2112},{"area_id":9,"name":"深谷公民館前","lat":38.03495,"long":140.62979,"status":0.0,"note":null,"address":"白石市福岡深谷字南沖２１","row_num":2113},{"area_id":9,"name":"福岡分団南班ポンプ場脇","lat":38.03749,"long":140.62896,"status":0.0,"note":null,"address":"白石市福岡深谷字松田３３－４","row_num":2114},{"area_id":9,"name":"個人宅前","lat":38.0402,"long":140.63737,"status":0.0,"note":null,"address":"白石市福岡深谷字沢地内","row_num":2115},{"area_id":9,"name":"エネオス４号白石インター店西側","lat":38.0377,"long":140.64412,"status":0.0,"note":null,"address":"白石市福岡深谷字梅ノ木３０－３","row_num":2116},{"area_id":9,"name":"木須商店北側","lat":38.04446,"long":140.63277,"status":0.0,"note":null,"address":"白石市福岡深谷字鴫内地内","row_num":2117},{"area_id":9,"name":"個人宅前","lat":38.07676,"long":140.57018,"status":0.0,"note":null,"address":"白石市福岡深谷字即安１５－２","row_num":2118},{"area_id":9,"name":"深谷小学校三住分校前","lat":38.07616,"long":140.56433,"status":0.0,"note":null,"address":"白石市福岡深谷字三住７０－３","row_num":2119},{"area_id":9,"name":"個人宅北側","lat":38.072,"long":140.56409,"status":0.0,"note":null,"address":"白石市福岡深谷字三住５６－１","row_num":2120},{"area_id":9,"name":"個人宅前","lat":38.04427,"long":140.51625,"status":0.0,"note":null,"address":"白石市福岡八宮字不忘山１３２－７","row_num":2121},{"area_id":9,"name":"不忘研修センター前","lat":38.04321,"long":140.50987,"status":0.0,"note":null,"address":"白石市福岡八宮字不忘山１０９－６","row_num":2122},{"area_id":9,"name":"個人宅南側","lat":38.06326,"long":140.5335,"status":0.0,"note":null,"address":"白石市福岡八宮字不忘山２４９","row_num":2123},{"area_id":9,"name":"萩平バス停留所","lat":38.04403,"long":140.50907,"status":0.0,"note":null,"address":"白石市福岡八宮字不忘山地内","row_num":2124},{"area_id":9,"name":"石神バス停留所前","lat":38.00314,"long":140.58831,"status":1.0,"note":null,"address":"白石市福岡蔵本字石神一番７４－４","row_num":2125},{"area_id":9,"name":"尾箆集会所前","lat":38.00652,"long":140.59541,"status":0.0,"note":null,"address":"白石市福岡蔵本字尾箆地内","row_num":2126},{"area_id":9,"name":"滝上会館前","lat":38.00239,"long":140.59542,"status":1.0,"note":null,"address":"白石市福岡蔵本字原屋敷地内","row_num":2127},{"area_id":9,"name":"薬師の湯向","lat":38.00655,"long":140.60297,"status":0.0,"note":null,"address":"白石市福岡蔵本字薬師堂９４－２","row_num":2128},{"area_id":9,"name":"滝下会館向","lat":38.0038,"long":140.60376,"status":0.0,"note":null,"address":"白石市福岡蔵本字滝下地内","row_num":2129},{"area_id":9,"name":"佐藤商店向","lat":38.00242,"long":140.60914,"status":1.0,"note":null,"address":"白石市福岡蔵本字樋ノ口１－１","row_num":2130},{"area_id":9,"name":"東北自動車縦貫道ガード下","lat":38.00343,"long":140.60851,"status":1.0,"note":null,"address":"白石市福岡蔵本字下り川二番３２－１","row_num":2131},{"area_id":9,"name":"白石市土地改良区事務所脇","lat":38.00077,"long":140.60929,"status":0.0,"note":null,"address":"白石市福岡蔵本字西町３３","row_num":2132},{"area_id":9,"name":"大網担い手センター前","lat":38.04078,"long":140.58581,"status":0.0,"note":null,"address":"白石市福岡八宮字坂ノ上１２－３","row_num":2133},{"area_id":9,"name":"個人宅脇","lat":38.06162,"long":140.54324,"status":0.0,"note":null,"address":"白石市福岡八宮字大網前地内","row_num":2134},{"area_id":9,"name":"個人宅前","lat":38.04061,"long":140.58787,"status":0.0,"note":null,"address":"白石市福岡八宮字坂ノ上１４－５２","row_num":2135},{"area_id":9,"name":"清光寺南側","lat":37.94184,"long":140.52649,"status":0.0,"note":null,"address":"白石市小原字町１４","row_num":2136},{"area_id":9,"name":"旧下戸沢公会堂向","lat":37.94461,"long":140.52847,"status":0.0,"note":null,"address":"白石市小原字町３６","row_num":2137},{"area_id":9,"name":"冷清水集会所向","lat":37.95347,"long":140.52545,"status":0.0,"note":null,"address":"白石市小原字江志堤下９６－１","row_num":2138},{"area_id":9,"name":"個人宅裏","lat":37.94348,"long":140.54189,"status":0.0,"note":null,"address":"白石市小原字鹿込２０－３","row_num":2139},{"area_id":9,"name":"大熊掲示板南側","lat":37.94617,"long":140.54385,"status":1.0,"note":null,"address":"白石市小原字下川久保地内","row_num":2140},{"area_id":9,"name":"大熊公会堂脇","lat":37.94812,"long":140.5405,"status":0.0,"note":null,"address":"白石市小原字古原１２９","row_num":2141},{"area_id":9,"name":"個人宅北側","lat":37.94776,"long":140.54278,"status":0.0,"note":null,"address":"白石市小原字古原１０２－３","row_num":2142},{"area_id":9,"name":"個人宅前","lat":37.95129,"long":140.54786,"status":0.0,"note":null,"address":"白石市小原字東地内","row_num":2143},{"area_id":9,"name":"旧小原保育園駐車場","lat":37.95011,"long":140.55672,"status":0.0,"note":null,"address":"白石市小原字塩倉３３","row_num":2144},{"area_id":9,"name":"学校下バス停留所脇","lat":37.95362,"long":140.55862,"status":1.0,"note":null,"address":"白石市小原字伊勢原道下１－２","row_num":2145},{"area_id":9,"name":"小原公民館前","lat":37.9553,"long":140.55957,"status":0.0,"note":null,"address":"白石市小原字中北前田３－２","row_num":2146},{"area_id":9,"name":"新町集会所前","lat":37.96466,"long":140.55959,"status":0.0,"note":null,"address":"白石市小原字植竹３－２、３－３","row_num":2147},{"area_id":9,"name":"白沢橋南側","lat":37.96495,"long":140.55983,"status":1.0,"note":null,"address":"白石市小原字三本木２９－６","row_num":2148},{"area_id":9,"name":"石屋前バス停留所前","lat":37.97469,"long":140.56143,"status":0.0,"note":null,"address":"白石市小原字西川久保５－８","row_num":2149},{"area_id":9,"name":"小日向橋西側","lat":37.97628,"long":140.56047,"status":1.0,"note":null,"address":"白石市小原字小日向４２－１","row_num":2150},{"area_id":9,"name":"小原分団明戸班ポンプ置場向","lat":37.97637,"long":140.55909,"status":0.0,"note":null,"address":"白石市小原字明戸１８８","row_num":2151},{"area_id":9,"name":"小原温泉入口","lat":37.98317,"long":140.56276,"status":0.0,"note":null,"address":"白石市小原字湯元地内","row_num":2152},{"area_id":9,"name":"新湯バス停留所脇","lat":37.99065,"long":140.56721,"status":1.0,"note":null,"address":"白石市小原字新湯地内","row_num":2153},{"area_id":11,"name":"野田生活センター（敷地）","lat":37.9498,"long":140.77929,"status":0.0,"note":null,"address":"角田市角田字野田前１７２－２","row_num":2305},{"area_id":11,"name":"南町公民館（敷地）","lat":37.96878,"long":140.77687,"status":1.0,"note":null,"address":"角田市角田字牛舘２－７９","row_num":2306},{"area_id":11,"name":"角田市市民センター（ﾌｪﾝｽ）","lat":37.97049,"long":140.78213,"status":1.0,"note":null,"address":"角田市角田字牛舘１０","row_num":2307},{"area_id":11,"name":"角田小学校西側入り口付近（ﾌｪﾝｽ）","lat":37.97067,"long":140.78067,"status":1.0,"note":null,"address":"角田市角田字牛舘４１","row_num":2308},{"area_id":11,"name":"個人宅（塀）","lat":37.97143,"long":140.78286,"status":1.0,"note":null,"address":"角田市角田字牛舘１９－１","row_num":2309},{"area_id":11,"name":"個人宅（塀）","lat":37.96763,"long":140.78391,"status":1.0,"note":null,"address":"角田市角田字裏町１５６－３１","row_num":2310},{"area_id":11,"name":"個人宅（塀）","lat":37.96913,"long":140.78615,"status":1.0,"note":null,"address":"角田市角田字南１１６－２","row_num":2311},{"area_id":11,"name":"個人宅（ﾌｪﾝｽ）","lat":37.97181,"long":140.77893,"status":1.0,"note":null,"address":"角田市角田字牛舘６１－１","row_num":2312},{"area_id":11,"name":"森砂利店前（駐車場フェンス）","lat":37.97055,"long":140.78675,"status":1.0,"note":null,"address":"角田市角田字田町１０６－３","row_num":2313},{"area_id":11,"name":"中島保育所（フェンス）","lat":37.9703,"long":140.79022,"status":1.0,"note":null,"address":"角田市角田字中島上５７－４","row_num":2314},{"area_id":11,"name":"個人所有地（菅野商店工場南隣）","lat":37.97761,"long":140.79489,"status":1.0,"note":null,"address":"角田市梶賀字高畑南１４６－１","row_num":2315},{"area_id":11,"name":"商営駐車場（ﾌｪﾝｽ）","lat":37.97275,"long":140.78416,"status":1.0,"note":null,"address":"角田市角田字町２２３－１","row_num":2316},{"area_id":11,"name":"あぶくま川水系角田地区土地改良区（フェンス）","lat":37.97481,"long":140.79272,"status":1.0,"note":null,"address":"角田市角田字中島下４５８","row_num":2317},{"area_id":11,"name":"ﾖｰｸﾍﾞﾆﾏﾙ､南側駐車場 （敷地）","lat":37.98124,"long":140.7808,"status":1.0,"note":null,"address":"角田市角田字錦町３５－６","row_num":2318},{"area_id":11,"name":"角田市役所（北側ﾌｪﾝｽ）","lat":37.97673,"long":140.78159,"status":1.0,"note":null,"address":"角田市角田字大坊４１","row_num":2319},{"area_id":11,"name":"寺前中島線用地内","lat":37.97418,"long":140.77877,"status":1.0,"note":null,"address":"角田市角田字町１７１－２","row_num":2320},{"area_id":11,"name":"個人宅（塀）","lat":37.97555,"long":140.7839,"status":1.0,"note":null,"address":"角田市角田字田町１５","row_num":2321},{"area_id":11,"name":"台山公園駐車場（敷地）","lat":37.97267,"long":140.77493,"status":1.0,"note":null,"address":"角田市角田字寺前(公園西側)","row_num":2322},{"area_id":11,"name":"阿武隈急行角田駅前市有地（敷地）","lat":37.97896,"long":140.77325,"status":1.0,"note":null,"address":"角田市角田字泉町９５－１","row_num":2323},{"area_id":11,"name":"錦町公園（敷地西側）","lat":37.97927,"long":140.78076,"status":1.0,"note":null,"address":"角田市角田字錦町２６","row_num":2324},{"area_id":11,"name":"角田市総合保健福祉センター（駐車場）","lat":37.98302,"long":140.7766,"status":1.0,"note":null,"address":"角田市角田字柳町３４","row_num":2325},{"area_id":11,"name":"市営老ケ崎住宅入口（ﾌｪﾝｽ）","lat":37.975,"long":140.77057,"status":1.0,"note":null,"address":"角田市角田字老ケ崎４５","row_num":2326},{"area_id":11,"name":"個人宅（塀）","lat":37.97545,"long":140.7647,"status":1.0,"note":null,"address":"角田市角田字老ケ崎３","row_num":2327},{"area_id":11,"name":"個人宅（塀）","lat":37.9736,"long":140.76689,"status":1.0,"note":null,"address":"角田市角田字老ケ崎１９２－１","row_num":2328},{"area_id":11,"name":"個人宅（ﾌｪﾝｽ）","lat":37.9738,"long":140.75319,"status":0.0,"note":null,"address":"角田市豊室字深町１０２","row_num":2329},{"area_id":11,"name":"消防団第１分団第７部３班ポンプ置場脇（道路残地）","lat":37.97261,"long":140.75213,"status":1.0,"note":null,"address":"角田市豊室字豊里１７１","row_num":2330},{"area_id":11,"name":"古豊室水稲協業組合ｾﾝﾀｰ前（敷地）","lat":37.97755,"long":140.75496,"status":1.0,"note":null,"address":"角田市豊室字沼頭８３－２","row_num":2331},{"area_id":11,"name":"新田区公民館（敷地）","lat":37.98261,"long":140.75378,"status":1.0,"note":null,"address":"角田市横倉字柿手５２－４２","row_num":2332},{"area_id":11,"name":"山崎公園（敷地）","lat":37.9835,"long":140.76634,"status":0.0,"note":null,"address":"角田市横倉字山崎４５－１４０","row_num":2333},{"area_id":11,"name":"個人宅（宅地）","lat":37.99203,"long":140.76557,"status":1.0,"note":null,"address":"角田市横倉字七合田２４","row_num":2334},{"area_id":11,"name":"横倉自治センター入口（敷地）","lat":37.98803,"long":140.77259,"status":1.0,"note":null,"address":"角田市横倉字杉ノ堂４０","row_num":2335},{"area_id":11,"name":"個人宅（塀）","lat":37.98921,"long":140.77602,"status":1.0,"note":null,"address":"角田市横倉字明地２２０－２","row_num":2336},{"area_id":11,"name":"個人所有地（阿武急横倉駅入口：畑）","lat":37.9965,"long":140.78023,"status":1.0,"note":null,"address":"角田市横倉字左関２５８－３","row_num":2337},{"area_id":11,"name":"個人宅（塀）","lat":37.96454,"long":140.76884,"status":0.0,"note":null,"address":"角田市小田字大原２－１","row_num":2338},{"area_id":11,"name":"椚崎公民館脇（敷地）","lat":37.96189,"long":140.76018,"status":1.0,"note":null,"address":"角田市小田字香取７９","row_num":2339},{"area_id":11,"name":"旧小田小学校（フェンス）","lat":37.96068,"long":140.75039,"status":1.0,"note":null,"address":"角田市小田字福田５６－１","row_num":2340},{"area_id":11,"name":"個人宅脇（道路敷）","lat":37.95642,"long":140.73722,"status":0.0,"note":null,"address":"角田市小田字権原１－１先","row_num":2341},{"area_id":11,"name":"個人所有地（畑）","lat":37.96053,"long":140.72341,"status":0.0,"note":null,"address":"角田市小田字赤生１２８－１","row_num":2342},{"area_id":11,"name":"個人所有地（自宅前畑）","lat":37.95766,"long":140.75062,"status":1.0,"note":null,"address":"角田市小田字芋坊１４","row_num":2343},{"area_id":11,"name":"戸ノ内公民館（軒下）","lat":37.95766,"long":140.75062,"status":1.0,"note":null,"address":"角田市小田字台２－４","row_num":2344},{"area_id":11,"name":"息栖神社前（畑）","lat":37.95665,"long":140.76333,"status":0.0,"note":null,"address":"角田市小田字世ケ崎２８","row_num":2345},{"area_id":11,"name":"個人所有地（田）","lat":37.93297,"long":140.8352,"status":1.0,"note":null,"address":"角田市島田字河原地内","row_num":2346},{"area_id":11,"name":"個人宅（塀）","lat":37.93558,"long":140.82976,"status":1.0,"note":null,"address":"角田市島田字大和橋２５－１","row_num":2347},{"area_id":11,"name":"旧枝野小学校（ﾌｪﾝｽ）","lat":37.94121,"long":140.82135,"status":1.0,"note":null,"address":"角田市島田字三口７１","row_num":2348},{"area_id":11,"name":"消防第2分団第1部2班ポンプ置場隣（道路敷）","lat":37.94238,"long":140.81729,"status":1.0,"note":null,"address":"角田市島田字段子田５７－３","row_num":2349},{"area_id":11,"name":"個人宅（塀）","lat":37.94755,"long":140.81766,"status":1.0,"note":null,"address":"角田市島田字島田２４－１","row_num":2350},{"area_id":11,"name":"枝野自治センター（敷地）","lat":37.94303,"long":140.8044,"status":1.0,"note":null,"address":"角田市島田字光畑５７－１","row_num":2351},{"area_id":11,"name":"個人宅（塀）","lat":37.93517,"long":140.80107,"status":1.0,"note":null,"address":"角田市枝野字前原１１４","row_num":2352},{"area_id":11,"name":"個人宅（塀）","lat":37.93679,"long":140.80549,"status":1.0,"note":null,"address":"角田市枝野字泉田７","row_num":2353},{"area_id":11,"name":"個人所有地（畑）","lat":37.94337,"long":140.79939,"status":1.0,"note":null,"address":"角田市枝野字畑中９０－１","row_num":2354},{"area_id":11,"name":"個人所有地（畑）","lat":37.94849,"long":140.79857,"status":1.0,"note":null,"address":"角田市枝野字小原１３０－１","row_num":2355},{"area_id":11,"name":"個人所有地（畑）","lat":37.95948,"long":140.80324,"status":1.0,"note":null,"address":"角田市枝野字笠松前３９－１","row_num":2356},{"area_id":11,"name":"個人所有地（畑）","lat":37.9511,"long":140.80641,"status":1.0,"note":null,"address":"角田市枝野字長沼４","row_num":2357},{"area_id":11,"name":"道の駅かくだ西側（法面）","lat":37.96725,"long":140.80968,"status":1.0,"note":null,"address":"角田市枝野字北島８８－１","row_num":2358},{"area_id":11,"name":"菊地工務店駐車場","lat":37.94262,"long":140.82555,"status":1.0,"note":null,"address":"角田市尾山字作田１４９－１","row_num":2359},{"area_id":11,"name":"大谷公民館（敷地向い側）","lat":37.94436,"long":140.83214,"status":1.0,"note":null,"address":"角田市尾山字台４３","row_num":2360},{"area_id":11,"name":"藤尾自治センター（敷地）","lat":37.9564,"long":140.82189,"status":1.0,"note":null,"address":"角田市尾山字五反田１９８","row_num":2361},{"area_id":11,"name":"金津グリーンタウン入り口（敷地）","lat":37.95257,"long":140.82757,"status":1.0,"note":null,"address":"角田市尾山字大門３０－４","row_num":2362},{"area_id":11,"name":"内町溜池南側堤防（敷地）","lat":37.95622,"long":140.82936,"status":1.0,"note":null,"address":"角田市尾山字内町地内","row_num":2363},{"area_id":11,"name":"藤尾荒町児童館（塀）","lat":37.959,"long":140.82623,"status":1.0,"note":null,"address":"角田市尾山字荒町７","row_num":2364},{"area_id":11,"name":"宿原アイランドガーデン入り口（敷地）","lat":37.96444,"long":140.82341,"status":1.0,"note":null,"address":"角田市尾山字宿原７６－２０","row_num":2365},{"area_id":11,"name":"横町公民館（敷地）","lat":37.96371,"long":140.82777,"status":1.0,"note":null,"address":"角田市尾山字北町１３６－１","row_num":2366},{"area_id":11,"name":"個人宅（宅地）","lat":37.9697,"long":140.81539,"status":1.0,"note":null,"address":"角田市尾山字下山４１","row_num":2367},{"area_id":11,"name":"喜松院墓地　防火水槽西側","lat":37.97132,"long":140.83187,"status":1.0,"note":null,"address":"角田市藤田字寺岡４８","row_num":2368},{"area_id":11,"name":"半田生活センター脇（敷地）","lat":37.97438,"long":140.83426,"status":1.0,"note":null,"address":"角田市藤田字鹿島１２１－２","row_num":2369},{"area_id":11,"name":"源内公民館（敷地）","lat":37.97588,"long":140.82845,"status":1.0,"note":null,"address":"角田市藤田字源内５９－１４","row_num":2370},{"area_id":11,"name":"北根生活センター（敷地）","lat":37.9837,"long":140.82751,"status":1.0,"note":null,"address":"角田市藤田字北根地内","row_num":2371},{"area_id":11,"name":"風呂公民館（敷地）","lat":37.98001,"long":140.81025,"status":1.0,"note":null,"address":"角田市藤田字新東中谷地２００","row_num":2372},{"area_id":11,"name":"個人所有地（畑）","lat":37.99,"long":140.82687,"status":1.0,"note":null,"address":"角田市藤田字庄司７０－３","row_num":2373},{"area_id":11,"name":"宮沢公民館駐車場（敷地）","lat":37.9959,"long":140.8223,"status":1.0,"note":null,"address":"角田市藤田字六角４９－１","row_num":2374},{"area_id":11,"name":"個人所有地（畑）","lat":37.99983,"long":140.82245,"status":1.0,"note":null,"address":"角田市坂津田字腰休７５","row_num":2375},{"area_id":11,"name":"個人所有地（畑）","lat":38.0067,"long":140.82004,"status":1.0,"note":null,"address":"角田市坂津田字銀杏３４","row_num":2376},{"area_id":11,"name":"坂津田中公民館東側（残地）","lat":38.01052,"long":140.81972,"status":1.0,"note":null,"address":"角田市坂津田字石切２０５","row_num":2377},{"area_id":11,"name":"個人所有地（雑種地）","lat":38.01302,"long":140.8102,"status":1.0,"note":null,"address":"角田市坂津田字沖２２５－１","row_num":2378},{"area_id":11,"name":"個人宅前（田）","lat":38.01983,"long":140.81694,"status":6.0,"note":null,"address":"角田市坂津田字立花４９－１","row_num":2379},{"area_id":11,"name":"個人所有地（畑）","lat":38.0229,"long":140.81873,"status":1.0,"note":null,"address":"角田市坂津田字立花１","row_num":2380},{"area_id":11,"name":"個人所有地（畑）","lat":38.02489,"long":140.82091,"status":1.0,"note":null,"address":"角田市平貫字清台９番地１","row_num":2381},{"area_id":11,"name":"東根やすらぎの家（敷地）","lat":38.02948,"long":140.81848,"status":1.0,"note":null,"address":"角田市平貫字宇賀入３１","row_num":2382},{"area_id":11,"name":"個人宅（塀）","lat":38.03351,"long":140.81843,"status":1.0,"note":null,"address":"角田市平貫字沢入２８","row_num":2383},{"area_id":11,"name":"個人宅（塀）","lat":38.04009,"long":140.8153,"status":1.0,"note":null,"address":"角田市小坂字滝沢６７","row_num":2384},{"area_id":11,"name":"個人所有地（倉庫前）","lat":38.04509,"long":140.81797,"status":1.0,"note":null,"address":"角田市小坂字反田１１８－１","row_num":2385},{"area_id":11,"name":"消防第4分団4部2班ﾎﾟﾝﾌﾟ置場脇（敷地）","lat":38.05755,"long":140.81825,"status":1.0,"note":null,"address":"角田市鳩原字堤下地内","row_num":2386},{"area_id":11,"name":"個人宅（敷地）","lat":38.07084,"long":140.82468,"status":1.0,"note":null,"address":"角田市鳩原字瀬ノ木橋８６","row_num":2387},{"area_id":11,"name":"個人宅（宅地）","lat":38.03692,"long":140.80488,"status":0.0,"note":null,"address":"角田市小坂字土瓜５９－２","row_num":2388},{"area_id":11,"name":"小坂生活センタ－（敷地）","lat":38.04176,"long":140.80581,"status":0.0,"note":null,"address":"角田市小坂字土浮１２１－４","row_num":2389},{"area_id":11,"name":"個人宅（敷地）","lat":38.04783,"long":140.8052,"status":0.0,"note":null,"address":"角田市小坂字中里７３","row_num":2390},{"area_id":11,"name":"個人宅（畑）","lat":37.97947,"long":140.7896,"status":1.0,"note":null,"address":"角田市梶賀字西二番９４－１","row_num":2391},{"area_id":11,"name":"個人所有地（畑）","lat":37.98229,"long":140.78973,"status":0.0,"note":null,"address":"角田市梶賀字向井１－４","row_num":2392},{"area_id":11,"name":"個人宅（宅地）","lat":37.98207,"long":140.78476,"status":1.0,"note":null,"address":"角田市角田字稔町８－１４","row_num":2393},{"area_id":11,"name":"個人宅（塀）","lat":37.98239,"long":140.78857,"status":0.0,"note":null,"address":"角田市梶賀字西二番８７","row_num":2394},{"area_id":11,"name":"梶賀区民会館（敷地）","lat":37.98367,"long":140.78712,"status":0.0,"note":null,"address":"角田市梶賀字西１５０","row_num":2395},{"area_id":11,"name":"個人宅（生垣）","lat":37.98357,"long":140.79407,"status":1.0,"note":null,"address":"角田市梶賀字東２６７","row_num":2396},{"area_id":11,"name":"町尻土地区画内、公園敷地","lat":37.98404,"long":140.78433,"status":1.0,"note":null,"address":"角田市梶賀字一里壇１４３－１０","row_num":2397},{"area_id":11,"name":"個人宅（塀）","lat":37.98973,"long":140.79418,"status":1.0,"note":null,"address":"角田市梶賀字本佐倉２１－２","row_num":2398},{"area_id":11,"name":"個人宅（宅地）","lat":37.99551,"long":140.79482,"status":1.0,"note":null,"address":"角田市佐倉字佐倉町７０－１","row_num":2399},{"area_id":11,"name":"個人宅（塀）","lat":37.99433,"long":140.79476,"status":1.0,"note":null,"address":"角田市佐倉字佐倉町５２","row_num":2400},{"area_id":11,"name":"個人所有地（畑）","lat":37.99552,"long":140.78941,"status":1.0,"note":null,"address":"角田市佐倉字畑田南２－１","row_num":2401},{"area_id":11,"name":"個人宅（塀）","lat":37.99348,"long":140.79666,"status":0.0,"note":null,"address":"角田市佐倉字町裏一番１４０－１","row_num":2402},{"area_id":11,"name":"個人宅（塀）","lat":37.99524,"long":140.79966,"status":1.0,"note":null,"address":"角田市佐倉字諏訪脇南３３","row_num":2403},{"area_id":11,"name":"個人宅（塀）","lat":38.00362,"long":140.79888,"status":1.0,"note":null,"address":"角田市佐倉字一本木町１２－２","row_num":2404},{"area_id":11,"name":"個人宅（塀）","lat":38.00484,"long":140.7928,"status":1.0,"note":null,"address":"角田市佐倉字萱場下１３８","row_num":2405},{"area_id":11,"name":"旧北郷やすらぎの家（敷地）","lat":38.01874,"long":140.77571,"status":1.0,"note":null,"address":"角田市岡字内川２３２","row_num":2406},{"area_id":11,"name":"個人宅前花壇","lat":38.02177,"long":140.779,"status":1.0,"note":null,"address":"角田市岡字舘前１４２－２先","row_num":2407},{"area_id":11,"name":"個人宅（宅地）","lat":38.02304,"long":140.7837,"status":0.0,"note":null,"address":"角田市岡字町浦１","row_num":2408},{"area_id":11,"name":"個人宅（塀）","lat":38.01847,"long":140.78864,"status":1.0,"note":null,"address":"角田市岡字古町１３２","row_num":2409},{"area_id":11,"name":"岡駅前ゲートボール場（敷地）","lat":38.017,"long":140.78473,"status":1.0,"note":null,"address":"角田市岡字内越７－４先","row_num":2410},{"area_id":11,"name":"阿武隈急行岡駅前（花壇）","lat":38.01758,"long":140.78145,"status":1.0,"note":null,"address":"角田市岡字駅前南７","row_num":2411},{"area_id":11,"name":"東花島公民館（敷地）","lat":38.00406,"long":140.7819,"status":0.0,"note":null,"address":"角田市花島字花東９６－１","row_num":2412},{"area_id":11,"name":"個人宅前（畑）","lat":38.00492,"long":140.76916,"status":0.0,"note":null,"address":"角田市花島字山崎１５３","row_num":2413},{"area_id":11,"name":"花島水防倉庫跡地前（畑）","lat":38.00068,"long":140.76296,"status":0.0,"note":null,"address":"角田市花島字里前２６３－２","row_num":2414},{"area_id":11,"name":"梁瀬公民館（敷地）","lat":38.00284,"long":140.75695,"status":0.0,"note":null,"address":"角田市岡字梁瀬前１３","row_num":2415},{"area_id":11,"name":"岡公民館前（敷地）","lat":38.00457,"long":140.76272,"status":0.0,"note":null,"address":"角田市岡字水溜内４０－１","row_num":2416},{"area_id":11,"name":"個人所有倉庫敷地","lat":38.01038,"long":140.77199,"status":1.0,"note":null,"address":"角田市岡字深町６６－２","row_num":2417},{"area_id":11,"name":"個人宅（塀）","lat":38.01539,"long":140.77311,"status":1.0,"note":null,"address":"角田市岡字道下１－１","row_num":2418},{"area_id":11,"name":"個人宅（ﾌｪﾝｽ）","lat":38.00624,"long":140.78726,"status":1.0,"note":null,"address":"角田市江尻字島西浦１１７－１","row_num":2419},{"area_id":11,"name":"南江尻公民館（敷地）","lat":38.00965,"long":140.79292,"status":1.0,"note":null,"address":"角田市江尻字中田２８４－１","row_num":2420},{"area_id":11,"name":"個人宅（塀）","lat":38.0174,"long":140.79859,"status":1.0,"note":null,"address":"角田市江尻字深沼８","row_num":2421},{"area_id":11,"name":"北江尻公民館（敷地）","lat":38.02102,"long":140.79881,"status":0.0,"note":null,"address":"角田市江尻字江東５８－１","row_num":2422},{"area_id":11,"name":"個人宅（宅地）","lat":38.02235,"long":140.7912,"status":0.0,"note":null,"address":"角田市江尻字渋井３０","row_num":2423},{"area_id":11,"name":"第三排水機場（フェンス）","lat":38.01858,"long":140.79944,"status":1.0,"note":null,"address":"角田市江尻字深沼６８－１","row_num":2424},{"area_id":11,"name":"(株)竹有土木所有資材置場前（道路敷）","lat":38.03811,"long":140.79425,"status":0.0,"note":null,"address":"角田市神次郎字正覚寺５４－２","row_num":2425},{"area_id":11,"name":"神次郎公民館（敷地）","lat":38.03573,"long":140.78962,"status":0.0,"note":null,"address":"角田市神次郎字鍛治屋沢４７－２","row_num":2426},{"area_id":11,"name":"妙立寺前（敷地）","lat":38.00406,"long":140.7819,"status":0.0,"note":null,"address":"角田市神次郎字寺１４","row_num":2427},{"area_id":11,"name":"個人所有地（畑）","lat":38.0398,"long":140.78628,"status":1.0,"note":null,"address":"角田市神次郎字上中田１４２－３","row_num":2428},{"area_id":11,"name":"個人宅（敷地）","lat":38.03304,"long":140.78109,"status":0.0,"note":null,"address":"角田市神次郎字釜川西入３","row_num":2429},{"area_id":11,"name":"個人宅（宅地）","lat":38.0267,"long":140.76878,"status":0.0,"note":null,"address":"角田市君萱字長井戸１２３","row_num":2430},{"area_id":11,"name":"君萱集会所（敷地）","lat":38.02885,"long":140.75956,"status":0.0,"note":null,"address":"角田市君萱字名子内６５－３","row_num":2431},{"area_id":11,"name":"君萱共同墓地前（敷地）","lat":38.02325,"long":140.76748,"status":0.0,"note":null,"address":"角田市君萱字針生１４９","row_num":2432},{"area_id":11,"name":"個人所有地（畑）","lat":38.0258,"long":140.75967,"status":0.0,"note":null,"address":"角田市君萱字女庵１０２","row_num":2433},{"area_id":11,"name":"我妻商店前（駐車場）","lat":38.03242,"long":140.76078,"status":0.0,"note":null,"address":"角田市君萱字田中４－２","row_num":2434},{"area_id":11,"name":"個人宅(塀)","lat":38.00142,"long":140.7002,"status":1.0,"note":null,"address":"角田市高倉字小原田４６－１","row_num":2435},{"area_id":11,"name":"個人所有地（山林）","lat":38.0001,"long":140.72015,"status":0.0,"note":null,"address":"角田市高倉字寺前９－１","row_num":2436},{"area_id":11,"name":"個人所有地（宅地）","lat":38.00277,"long":140.72851,"status":0.0,"note":null,"address":"角田市高倉字新町１３６","row_num":2437},{"area_id":11,"name":"西根自治センター（敷地）","lat":37.99965,"long":140.72812,"status":1.0,"note":null,"address":"角田市高倉字本町１５-１","row_num":2438},{"area_id":11,"name":"個人宅（軒下）","lat":37.9953,"long":140.74118,"status":0.0,"note":null,"address":"角田市高倉字梅ケ崎５３－１","row_num":2439},{"area_id":11,"name":"個人宅（塀）","lat":37.99223,"long":140.7349,"status":1.0,"note":null,"address":"角田市高倉字杉ノ内６０","row_num":2440},{"area_id":11,"name":"第４区公民館（敷地）","lat":37.99031,"long":140.71942,"status":0.0,"note":null,"address":"角田市高倉字山田１９５－２","row_num":2441},{"area_id":11,"name":"個人所有地（畑）","lat":37.98653,"long":140.70388,"status":0.0,"note":null,"address":"角田市高倉字五月田５８－１","row_num":2442},{"area_id":11,"name":"第５区公民館（敷地）","lat":37.9828,"long":140.70098,"status":0.0,"note":null,"address":"角田市高倉字新田３０－１","row_num":2443},{"area_id":11,"name":"個人宅前（墓碑）","lat":37.97529,"long":140.69853,"status":0.0,"note":null,"address":"角田市高倉字菖蒲田３５－１２","row_num":2444},{"area_id":11,"name":"個人所有地（畑）","lat":37.96749,"long":140.69292,"status":0.0,"note":null,"address":"角田市高倉字熊野田１８３","row_num":2445},{"area_id":11,"name":"第６区公民館（敷地）","lat":37.98223,"long":140.73645,"status":0.0,"note":null,"address":"角田市笠島字出戸２７","row_num":2446},{"area_id":11,"name":"笠島公民館（敷地）","lat":37.98223,"long":140.73645,"status":0.0,"note":null,"address":"角田市笠島字山口７","row_num":2447},{"area_id":11,"name":"個人宅（敷地）","lat":37.98151,"long":140.74716,"status":0.0,"note":null,"address":"角田市笠島字岩ノ花１","row_num":2448},{"area_id":11,"name":"個人宅（宅地）","lat":37.98802,"long":140.74091,"status":0.0,"note":null,"address":"角田市笠島字北前１５","row_num":2449},{"area_id":11,"name":"個人所有地（畑）","lat":38.00568,"long":140.73451,"status":1.0,"note":null,"address":"角田市稲置字中ノ内４１－１","row_num":2450},{"area_id":11,"name":"西根９区公民館（敷地）","lat":38.00529,"long":140.7393,"status":0.0,"note":null,"address":"角田市稲置字明神前６－２","row_num":2451},{"area_id":11,"name":"個人宅（敷地）","lat":38.01253,"long":140.74864,"status":1.0,"note":null,"address":"角田市稲置字遠山崎１１－２","row_num":2452},{"area_id":11,"name":"西根１０区公民館（敷地）","lat":38.00965,"long":140.73686,"status":0.0,"note":null,"address":"角田市稲置字舛内２５－２","row_num":2453},{"area_id":11,"name":"個人（宅地）","lat":38.00897,"long":140.72867,"status":0.0,"note":null,"address":"角田市稲置字笠松６４－１","row_num":2454},{"area_id":11,"name":"株式会社菊地電機脇(道路残地)","lat":38.01288,"long":140.72541,"status":0.0,"note":null,"address":"角田市毛萱字南戸ノ内２１先","row_num":2455},{"area_id":11,"name":"個人所有地（畑）","lat":38.01492,"long":140.73047,"status":1.0,"note":null,"address":"角田市毛萱字堂川内１７","row_num":2456},{"area_id":11,"name":"第１２区公民館（敷地）","lat":38.01962,"long":140.72364,"status":0.0,"note":null,"address":"角田市毛萱字中石８６","row_num":2457},{"area_id":11,"name":"西根１３区公民館入口向（道路残地）","lat":38.02824,"long":140.73482,"status":1.0,"note":null,"address":"角田市毛萱字堂ノ入１０１－１地先","row_num":2458},{"area_id":11,"name":"毛萱農村公園隣（道路残地）","lat":38.02351,"long":140.74311,"status":0.0,"note":null,"address":"角田市毛萱字松下１－１","row_num":2459},{"area_id":11,"name":"個人所有地（畑）","lat":38.02496,"long":140.74836,"status":1.0,"note":null,"address":"角田市毛萱字箕輪５１－１","row_num":2460},{"area_id":19,"name":"蔵王病院前","lat":38.1026143,"long":140.6789309,"status":1.0,"note":null,"address":"蔵王町大字円田字和田 130","row_num":3855},{"area_id":19,"name":"円田表公民館前","lat":38.102292,"long":140.6753989,"status":1.0,"note":null,"address":"蔵王町大字円田字八幡山 21-3","row_num":3856},{"area_id":19,"name":"円田中公共館前(道路敷）","lat":38.1088552,"long":140.675238,"status":0.0,"note":null,"address":"蔵王町大字円田字清水上 32-2","row_num":3857},{"area_id":19,"name":"個人宅地前","lat":38.1136406,"long":140.6806427,"status":1.0,"note":null,"address":"蔵王町大字円田字屋敷 23","row_num":3858},{"area_id":19,"name":"東根公民館前（道路敷）","lat":38.107404,"long":140.6922689,"status":0.0,"note":null,"address":"蔵王町大字平沢字吹張 78-1","row_num":3859},{"area_id":19,"name":"東根線立目場線交差点","lat":38.1272864,"long":140.6720366,"status":0.0,"note":null,"address":"蔵王町大字平沢字下千刈83-2先","row_num":3860},{"area_id":19,"name":"個人宅地前（道路敷）","lat":38.0988415,"long":140.6747552,"status":0.0,"note":null,"address":"蔵王町大字塩沢字土ケ市 13-9","row_num":3861},{"area_id":19,"name":"塩沢集会所前","lat":38.0967569,"long":140.6751231,"status":0.0,"note":null,"address":"蔵王町大字塩沢字戸ノ内脇49-1","row_num":3862},{"area_id":19,"name":"旧農協平沢支店前フェンス","lat":38.1213344,"long":140.6822974,"status":0.0,"note":null,"address":"蔵王町大字平沢字寺前 77","row_num":3863},{"area_id":19,"name":"個人宅地前","lat":38.124991,"long":140.6791902,"status":0.0,"note":null,"address":"蔵王町大字平沢字新屋敷 18","row_num":3864},{"area_id":19,"name":"個人宅地向","lat":38.124117,"long":140.6830995,"status":0.0,"note":null,"address":"蔵王町大字平沢字南道場62","row_num":3865},{"area_id":19,"name":"個人宅地前","lat":38.1227201,"long":140.6813794,"status":0.0,"note":null,"address":"蔵王町大字平沢字台屋敷 28-11","row_num":3866},{"area_id":19,"name":"山ノ入班消防詰所脇（道路敷）","lat":38.1236725,"long":140.671569,"status":0.0,"note":null,"address":"蔵王町大字平沢字山ノ入 130-3","row_num":3867},{"area_id":19,"name":"個人宅地前（道路敷）","lat":38.1393597,"long":140.6363331,"status":0.0,"note":null,"address":"蔵王町大字平沢字町尻 110-1先","row_num":3868},{"area_id":19,"name":"個人宅地前","lat":38.1283916,"long":140.6920493,"status":0.0,"note":null,"address":"蔵王町大字小村崎字鍛冶屋敷 41-2","row_num":3869},{"area_id":19,"name":"旧農協小村崎集荷所前","lat":38.1288003,"long":140.6871309,"status":0.0,"note":null,"address":"蔵王町大字小村崎字稲荷林 25-3","row_num":3870},{"area_id":19,"name":"個人宅地前","lat":38.1259591,"long":140.6841002,"status":0.0,"note":null,"address":"蔵王町大字小村崎字二本木 12","row_num":3871},{"area_id":19,"name":"個人宅地後（道路敷）","lat":38.1294354,"long":140.6920663,"status":0.0,"note":null,"address":"蔵王町大字小村崎字戸ノ内中167-1先","row_num":3872},{"area_id":19,"name":"小村崎コミュニティセンター脇","lat":38.1276682,"long":140.6922708,"status":0.0,"note":null,"address":"蔵王町大字小村崎字戸ノ内32-2","row_num":3873},{"area_id":19,"name":"個人宅地前","lat":38.0948768,"long":140.6602981,"status":1.0,"note":null,"address":"蔵王町大字円田字駅内 16","row_num":3874},{"area_id":19,"name":"佐藤衣料店脇","lat":38.0954426,"long":140.6647459,"status":0.0,"note":null,"address":"蔵王町大字円田字東山59-2","row_num":3875},{"area_id":19,"name":"蔵王町役場前","lat":38.098129,"long":140.6587399,"status":1.0,"note":null,"address":"蔵王町大字円田字西浦北 10","row_num":3876},{"area_id":19,"name":"個人宅地前","lat":38.0925924,"long":140.6569974,"status":0.0,"note":null,"address":"蔵王町大字円田字杉ヤラ 39-1","row_num":3877},{"area_id":19,"name":"アステム前道路敷","lat":38.0804862,"long":140.6715917,"status":0.0,"note":null,"address":"蔵王町大字矢附字川原脇 1-5先","row_num":3878},{"area_id":19,"name":"矢附公民館前","lat":38.0880682,"long":140.6709187,"status":0.0,"note":null,"address":"蔵王町大字矢附字鉾附 522","row_num":3879},{"area_id":19,"name":"個人宅地前","lat":38.0868958,"long":140.6642439,"status":0.0,"note":null,"address":"蔵王町大字矢附字館 15-1","row_num":3880},{"area_id":19,"name":"個人宅地前","lat":38.0845813,"long":140.6751974,"status":0.0,"note":null,"address":"蔵王町大字矢附字向山 50-1","row_num":3881},{"area_id":19,"name":"個人宅地前","lat":38.0834018,"long":140.6680559,"status":0.0,"note":null,"address":"蔵王町大字矢附字川原 21-1","row_num":3882},{"area_id":19,"name":"個人宅地前","lat":38.086594,"long":140.6561886,"status":1.0,"note":null,"address":"蔵王町大字曲竹字明神河原 2","row_num":3883},{"area_id":19,"name":"曲竹公民館前（道路敷）","lat":38.0833553,"long":140.6523977,"status":0.0,"note":null,"address":"蔵王町大字曲竹字薬師前 3-2","row_num":3884},{"area_id":19,"name":"一里塚前","lat":38.0806625,"long":140.6610443,"status":0.0,"note":null,"address":"蔵王町大字曲竹字河原前 16-1","row_num":3885},{"area_id":19,"name":"個人宅地前","lat":38.0778734,"long":140.6570596,"status":1.0,"note":null,"address":"蔵王町大字曲竹字道路西 62-1","row_num":3886},{"area_id":19,"name":"後安寺商店入口","lat":38.0743944,"long":140.6503119,"status":0.0,"note":null,"address":"蔵王町大字曲竹字土合沢20-4","row_num":3887},{"area_id":19,"name":"個人宅地前","lat":38.106405,"long":140.6370792,"status":1.0,"note":null,"address":"蔵王町大字円田字棚村道下 12-1","row_num":3888},{"area_id":19,"name":"個人宅地前（道路敷）","lat":38.1030178,"long":140.6440738,"status":1.0,"note":null,"address":"蔵王町大字円田字十文字北 28-1先","row_num":3889},{"area_id":19,"name":"永野西集会所前（道路敷）","lat":38.1050382,"long":140.6402882,"status":1.0,"note":null,"address":"蔵王町大字円田字十文字北1-1","row_num":3890},{"area_id":19,"name":"円田入研修センター前","lat":38.112433,"long":140.653358,"status":0.0,"note":null,"address":"蔵王町大字円田字清上 124-1","row_num":3891},{"area_id":19,"name":"一戦場バス停留所前","lat":38.117826,"long":140.6497057,"status":0.0,"note":null,"address":"蔵王町大字円田字根無藤34-3","row_num":3892},{"area_id":19,"name":"個人宅地前","lat":38.1114801,"long":140.6640764,"status":0.0,"note":null,"address":"蔵王町大字円田字川欠 37-4","row_num":3893},{"area_id":19,"name":"個人宅地向道路敷","lat":38.1121691,"long":140.6433902,"status":0.0,"note":null,"address":"蔵王町大字円田字入山 18-4","row_num":3894},{"area_id":19,"name":"個人宅地前","lat":38.1202439,"long":140.6313923,"status":0.0,"note":null,"address":"蔵王町大字円田字諏訪 17-1","row_num":3895},{"area_id":19,"name":"宮出張所駐車場前","lat":38.0453611,"long":140.65174,"status":1.0,"note":null,"address":"蔵王町宮字町 21","row_num":3896},{"area_id":19,"name":"堤　駐車場前","lat":38.0448373,"long":140.6527,"status":1.0,"note":null,"address":"蔵王町宮字町 74-3","row_num":3897},{"area_id":19,"name":"個人宅地宅前","lat":38.046678,"long":140.6526119,"status":1.0,"note":null,"address":"蔵王町宮字西ノ宮 12-1","row_num":3898},{"area_id":19,"name":"佐藤工務店事務所脇","lat":38.0406385,"long":140.6521305,"status":0.0,"note":null,"address":"蔵王町宮字松ヶ丘314-5","row_num":3899},{"area_id":19,"name":"蔵王リース脇","lat":38.0377902,"long":140.6493125,"status":1.0,"note":null,"address":"蔵王町宮字松ヶ丘212-1","row_num":3900},{"area_id":19,"name":"個人宅地前","lat":38.0484113,"long":140.6529368,"status":1.0,"note":null,"address":"蔵王町宮字馬場16-20","row_num":3901},{"area_id":19,"name":"旧沢内公民館前","lat":38.0510608,"long":140.6542389,"status":1.0,"note":null,"address":"蔵王町宮字馬場 26-11","row_num":3902},{"area_id":19,"name":"個人宅地斜め向","lat":38.0589359,"long":140.6594785,"status":0.0,"note":null,"address":"蔵王町宮字川原田東 21-1","row_num":3903},{"area_id":19,"name":"個人宅地前","lat":38.054482,"long":140.6534793,"status":0.0,"note":null,"address":"蔵王町宮字乙当地 6-1","row_num":3904},{"area_id":19,"name":"宮司生活センター前","lat":38.0633461,"long":140.656948,"status":0.0,"note":null,"address":"蔵王町宮字川原田上 2-3","row_num":3905},{"area_id":19,"name":"個人宅地前","lat":38.0646123,"long":140.6588566,"status":1.0,"note":null,"address":"蔵王町宮字坂下 64-1","row_num":3906},{"area_id":19,"name":"根方集荷所横","lat":38.0639377,"long":140.6507831,"status":0.0,"note":null,"address":"蔵王町宮字館山北 74-1","row_num":3907},{"area_id":19,"name":"下別当生活センター前","lat":38.0675249,"long":140.639505,"status":0.0,"note":null,"address":"蔵王町宮字下別当125-1","row_num":3908},{"area_id":19,"name":"猿田Ｔ字路","lat":38.0676615,"long":140.674247,"status":0.0,"note":null,"address":"蔵王町宮字猿田 34-1","row_num":3909},{"area_id":19,"name":"個人宅地前（道路敷）","lat":38.0567933,"long":140.6664743,"status":0.0,"note":null,"address":"蔵王町宮字中丸前 9先","row_num":3910},{"area_id":19,"name":"向山生活センター前","lat":38.0449046,"long":140.6700618,"status":0.0,"note":null,"address":"蔵王町宮字供養前72-6","row_num":3911},{"area_id":19,"name":"個人宅脇","lat":38.049516,"long":140.6644603,"status":0.0,"note":null,"address":"蔵王町宮字新松手 230-1","row_num":3912},{"area_id":19,"name":"ファミリーマート脇","lat":38.0414623,"long":140.6671376,"status":0.0,"note":null,"address":"蔵王町宮字海道東堀添 54-5","row_num":3913},{"area_id":19,"name":"個人宅地前","lat":38.044011,"long":140.6835803,"status":0.0,"note":null,"address":"蔵王町宮字椚林 35","row_num":3914},{"area_id":19,"name":"旅館源兵衛前","lat":38.123837,"long":140.5763022,"status":0.0,"note":null,"address":"蔵王町遠刈田温泉仲町 5-1","row_num":3915},{"area_id":19,"name":"遠刈田郵便局脇","lat":38.1245879,"long":140.5728028,"status":0.0,"note":null,"address":"蔵王町遠刈田温泉字遠刈田西裏 13-2","row_num":3916},{"area_id":19,"name":"個人宅地前","lat":38.123175,"long":140.5785717,"status":1.0,"note":null,"address":"蔵王町遠刈田温泉旭町 6","row_num":3917},{"area_id":19,"name":"個人宅地前（道路敷）","lat":38.12329,"long":140.579274,"status":1.0,"note":null,"address":"蔵王町遠刈田温泉旭町 16-1先","row_num":3918},{"area_id":19,"name":"西集団入口前","lat":38.1283152,"long":140.5641122,"status":0.0,"note":null,"address":"蔵王町遠刈田温泉字遠刈田北山 33-4","row_num":3919},{"area_id":19,"name":"北山公民館前","lat":38.1280271,"long":140.5796298,"status":0.0,"note":null,"address":"蔵王町遠刈田温泉字東集団 68-1","row_num":3920},{"area_id":19,"name":"新地入口前（道路敷）","lat":38.1172284,"long":140.5752744,"status":0.0,"note":null,"address":"蔵王町遠刈田温泉字新地東裏山 15","row_num":3921},{"area_id":19,"name":"七日原公民館前","lat":38.1006537,"long":140.5593709,"status":0.0,"note":null,"address":"蔵王町遠刈田温泉字七日原 562-1","row_num":3922},{"area_id":19,"name":"木戸Ｔ字路箇所（道路敷）","lat":38.1127399,"long":140.5653017,"status":0.0,"note":null,"address":"蔵王町遠刈田温泉字七日原 1-130先","row_num":3923},{"area_id":19,"name":"個人宅地前（道路敷）","lat":38.0967604,"long":140.562387,"status":0.0,"note":null,"address":"蔵王町遠刈田温泉字七日原 573-85先","row_num":3924},{"area_id":19,"name":"北原尾集会所前","lat":38.0887827,"long":140.5638979,"status":0.0,"note":null,"address":"蔵王町遠刈田温泉字北原尾 1-115","row_num":3925},{"area_id":19,"name":"個人宅地前（道路敷）","lat":38.119955,"long":140.5890435,"status":1.0,"note":null,"address":"蔵王町遠刈田温泉字千間 2-8先","row_num":3926},{"area_id":19,"name":"小妻坂公民館脇（道路敷）","lat":38.1183046,"long":140.5991388,"status":1.0,"note":null,"address":"蔵王町遠刈田温泉字小妻坂 51-177","row_num":3927},{"area_id":19,"name":"クニミネ工業㈱蔵王工場前（道路敷）","lat":38.1233007,"long":140.584597,"status":0.0,"note":null,"address":"蔵王町遠刈田温泉字小妻坂山 8-49","row_num":3928},{"area_id":19,"name":"鑓水釣堀前","lat":38.1163692,"long":140.6170563,"status":1.0,"note":null,"address":"蔵王町大字円田字釜沢 12-12","row_num":3929},{"area_id":20,"name":"町営バス上横川バス停　付近","lat":38.0185764,"long":140.4656993,"status":0.0,"note":null,"address":"七ヶ宿町字横川43　先","row_num":3930},{"area_id":20,"name":"町営バス大原バス停　付近","lat":38.0131318,"long":140.4689982,"status":0.0,"note":null,"address":"七ヶ宿町字柏木山404-2","row_num":3931},{"area_id":20,"name":"旧矢立公民館　敷地内","lat":37.9835484,"long":140.4621595,"status":0.0,"note":null,"address":"七ヶ宿町字矢立26-3","row_num":3932},{"area_id":20,"name":"関消防詰所　跡地","lat":37.9927599,"long":140.4432507,"status":1.0,"note":null,"address":"七ヶ宿町字関140","row_num":3933},{"area_id":20,"name":"町営住宅12号棟　居宅裏","lat":37.9934243,"long":140.4476661,"status":0.0,"note":null,"address":"七ヶ宿町字瀬見原85-10","row_num":3934},{"area_id":20,"name":"町営バス中学校バス停　町道向","lat":37.9999752,"long":140.4475412,"status":0.0,"note":null,"address":"七ヶ宿町字瀬見原　歩道内","row_num":3935},{"area_id":20,"name":"ﾌｧﾐﾘｰﾏｰﾄ七ヶ宿店　国道向","lat":37.9975355,"long":140.4388561,"status":1.0,"note":null,"address":"七ヶ宿町字諏訪原11-15","row_num":3936},{"area_id":20,"name":"町営バス滑塚バス停　付近","lat":38.0091817,"long":140.4135755,"status":1.0,"note":null,"address":"七ヶ宿町字原道下28","row_num":3937},{"area_id":20,"name":"滑津公民館　付近","lat":38.0153745,"long":140.4048551,"status":1.0,"note":null,"address":"七ヶ宿町字滑津3","row_num":3938},{"area_id":20,"name":"峠田公民館　敷地内","lat":37.9932199,"long":140.4417444,"status":0.0,"note":null,"address":"七ヶ宿町字滝ノ下1-4","row_num":3939},{"area_id":20,"name":"町営バス坂の下バス停　付近","lat":38.0047334,"long":140.3574025,"status":1.0,"note":null,"address":"七ヶ宿町字明神下15-1","row_num":3940},{"area_id":20,"name":"白石警察署湯原駐在所　町道向","lat":38.0118994,"long":140.3238815,"status":0.0,"note":null,"address":"七ヶ宿町字湯原86","row_num":3941},{"area_id":20,"name":"湯原簡易郵便局　付近","lat":38.0142817,"long":140.3254276,"status":0.0,"note":null,"address":"七ヶ宿町字湯原42","row_num":3942},{"area_id":20,"name":"七ヶ宿くらし研究所　付近","lat":38.0039514,"long":140.3359398,"status":0.0,"note":null,"address":"七ヶ宿町字田中道下11-1","row_num":3943},{"area_id":20,"name":"干蒲公民館　付近","lat":38.0434722,"long":140.2980968,"status":0.0,"note":null,"address":"七ヶ宿町字干蒲16-1","row_num":3944},{"area_id":20,"name":"町営バス胡桃谷地バス停　付近","lat":38.0345131,"long":140.4887867,"status":0.0,"note":null,"address":"七ヶ宿町字長老281","row_num":3945},{"area_id":20,"name":"町営バス吉沼バス停　付近","lat":38.0353261,"long":140.4816844,"status":0.0,"note":null,"address":"七ヶ宿町字長老140-2","row_num":3946},{"area_id":21,"name":"中部２号公園東側フェンス","lat":38.04838,"long":140.73083,"status":1.0,"note":null,"address":"大河原町字新南１４","row_num":3947},{"area_id":21,"name":"中部２号公園北側フェンス","lat":38.04884,"long":140.73026,"status":1.0,"note":null,"address":"大河原町字新南１４","row_num":3948},{"area_id":21,"name":"中央公民館駐車場フェンス","lat":38.04876,"long":140.73531,"status":1.0,"note":null,"address":"大河原町字町１９８－１","row_num":3949},{"area_id":21,"name":"大河原町福祉センターフェンス","lat":38.05045,"long":140.73272,"status":1.0,"note":null,"address":"大河原町字南６９","row_num":3950},{"area_id":21,"name":"東原町公園東側敷地内","lat":38.04527,"long":140.72706,"status":1.0,"note":null,"address":"大河原町字東原町５","row_num":3951},{"area_id":21,"name":"東原町公園北側敷地内","lat":38.04541,"long":140.72665,"status":1.0,"note":null,"address":"大河原町字東原町５","row_num":3952},{"area_id":21,"name":"新古川公園南側","lat":38.04161,"long":140.72758,"status":0.0,"note":null,"address":"大河原町字新古川１０－８","row_num":3953},{"area_id":21,"name":"個人宅敷地内防火水槽フェンス","lat":38.06351,"long":140.71041,"status":0.0,"note":null,"address":"大河原町小山田字橋本２１－１","row_num":3954},{"area_id":21,"name":"小山田生活センター向い道路","lat":38.06532,"long":140.71002,"status":0.0,"note":null,"address":"大河原町小山田字新舘前","row_num":3955},{"area_id":21,"name":"小山田防火水槽隣畑地","lat":38.06834,"long":140.70678,"status":0.0,"note":null,"address":"大河原町小山田字中宿２２－５","row_num":3956},{"area_id":21,"name":"個人宅ブロック塀","lat":38.06239,"long":140.72399,"status":0.0,"note":null,"address":"大河原町字八乙女１２","row_num":3957},{"area_id":21,"name":"町道福田幹線沿空地","lat":38.0648,"long":140.72246,"status":0.0,"note":null,"address":"大河原町字橋本５－４","row_num":3958},{"area_id":21,"name":"個人宅脇町道敷地","lat":38.0593,"long":140.72275,"status":1.0,"note":null,"address":"大河原町字西４４３－１","row_num":3959},{"area_id":21,"name":"小島４号公園フェンス","lat":38.06552,"long":140.73521,"status":1.0,"note":null,"address":"大河原町字小島２２－１","row_num":3960},{"area_id":21,"name":"小島２号公園フェンス","lat":38.06658,"long":140.73684,"status":1.0,"note":null,"address":"大河原町字小島１０－１","row_num":3961},{"area_id":21,"name":"西桜１号公園フェンス","lat":38.06208,"long":140.74157,"status":1.0,"note":null,"address":"大河原町字新桜町１３","row_num":3962},{"area_id":21,"name":"西桜２号公園フェンス","lat":38.05903,"long":140.74107,"status":1.0,"note":null,"address":"大河原町字西桜町１６","row_num":3963},{"area_id":21,"name":"桜保育所フェンス","lat":38.05762,"long":140.7452,"status":1.0,"note":null,"address":"大河原町字南桜町１５","row_num":3964},{"area_id":21,"name":"東桜公園北側フェンス","lat":38.06002,"long":140.74667,"status":1.0,"note":null,"address":"大河原町字東桜町１９","row_num":3965},{"area_id":21,"name":"東青川公園南側フェンス","lat":38.06304,"long":140.74049,"status":1.0,"note":null,"address":"大河原町字新青川５－１","row_num":3966},{"area_id":21,"name":"個人宅フェンス","lat":38.04695,"long":140.73938,"status":1.0,"note":null,"address":"大河原町大谷字町向１０３－６１","row_num":3967},{"area_id":21,"name":"ララ・さくら入口対面フェンス","lat":38.04463,"long":140.74025,"status":1.0,"note":null,"address":"大河原町字中島町6-1","row_num":3968},{"area_id":21,"name":"駅東口第３駐車場フェンス","lat":38.04755,"long":140.74136,"status":1.0,"note":null,"address":"大河原町字幸町９－１　先","row_num":3969},{"area_id":21,"name":"幸コーポフェンス","lat":38.04658,"long":140.74075,"status":6.0,"note":"現在無し","address":"大河原町字幸町２－１１","row_num":3970},{"area_id":21,"name":"甲子公園フェンス","lat":38.04485,"long":140.73598,"status":1.0,"note":null,"address":"大河原町字甲子町２－１","row_num":3971},{"area_id":21,"name":"幸・中島集会所","lat":38.04589,"long":140.7426,"status":1.0,"note":null,"address":"大河原町字幸町６－３","row_num":3972},{"area_id":21,"name":"駅西口第1駐輪場フェンス","lat":38.0482,"long":140.74015,"status":1.0,"note":null,"address":"大河原町大谷字町向","row_num":3973},{"area_id":21,"name":"個人宅前空地","lat":38.03614,"long":140.72097,"status":1.0,"note":null,"address":"大河原町大谷字後戸場３０－１５","row_num":3974},{"area_id":21,"name":"個人宅前畑地","lat":38.03602,"long":140.71675,"status":1.0,"note":null,"address":"大河原町大谷字下欠２０","row_num":3975},{"area_id":21,"name":"個人宅隣畑地","lat":38.03567,"long":140.71399,"status":1.0,"note":null,"address":"大河原町大谷字上原１４－３","row_num":3976},{"area_id":21,"name":"個人所有地土地自販機横","lat":38.03558,"long":140.71,"status":1.0,"note":null,"address":"大河原町大谷字後田３９－１","row_num":3977},{"area_id":21,"name":"一軒地児童遊園フェンス","lat":38.03941,"long":140.73401,"status":1.0,"note":null,"address":"大河原町字川瀬町２－１","row_num":3978},{"area_id":21,"name":"上谷児童館フェンス","lat":38.03508,"long":140.73286,"status":1.0,"note":null,"address":"大河原町大谷字上谷前４１－１０","row_num":3979},{"area_id":21,"name":"町営上谷住宅Ａ－１フェンス","lat":38.03477,"long":140.73313,"status":1.0,"note":null,"address":"大河原町大谷上谷前４１－８","row_num":3980},{"area_id":21,"name":"上谷２号公園フェンス","lat":38.03309,"long":140.73075,"status":1.0,"note":null,"address":"大河原町大谷字上谷前１００－１４","row_num":3981},{"area_id":21,"name":"見城前集会所フェンス","lat":38.0345,"long":140.73587,"status":1.0,"note":null,"address":"大河原町大谷字見城前５７－１１２","row_num":3982},{"area_id":21,"name":"個人宅隣畑地","lat":38.03689,"long":140.73416,"status":1.0,"note":null,"address":"大河原町大谷字見城前１７－３","row_num":3983},{"area_id":21,"name":"安浄寺入口向畑地","lat":38.03949,"long":140.73475,"status":1.0,"note":null,"address":"大河原町大谷字一軒地７４－３","row_num":3984},{"area_id":21,"name":"個人宅脇敷地内","lat":38.04058,"long":140.70355,"status":0.0,"note":null,"address":"大河原町金ケ瀬字町２０２","row_num":3985},{"area_id":21,"name":"ギフトプラザ裏㈲若木商会宅地","lat":38.04682,"long":140.71614,"status":1.0,"note":null,"address":"大河原町字広表２９－１5","row_num":3986},{"area_id":21,"name":"個人宅フェンス","lat":38.04255,"long":140.70517,"status":0.0,"note":null,"address":"大河原町金ケ瀬字町４０","row_num":3987},{"area_id":21,"name":"金ケ瀬公民館フェンス","lat":38.0452,"long":140.70609,"status":0.0,"note":null,"address":"大河原町金ケ瀬字原８８","row_num":3988},{"area_id":21,"name":"緑町公園西側フェンス","lat":38.04433,"long":140.71784,"status":0.0,"note":null,"address":"大河原町字緑町３１","row_num":3989},{"area_id":21,"name":"新開集会所敷地内","lat":38.05452,"long":140.70823,"status":0.0,"note":null,"address":"大河原町金ケ瀬字新開５２－３","row_num":3990},{"area_id":21,"name":"新寺公園敷地内","lat":38.06374,"long":140.70166,"status":0.0,"note":null,"address":"大河原町新寺字新屋敷","row_num":3991},{"area_id":21,"name":"町道上道明神線沿空地","lat":38.06018,"long":140.69173,"status":0.0,"note":null,"address":"大河原町堤字大井戸２９－２　先","row_num":3992},{"area_id":21,"name":"町道堤幹線休坂前付近","lat":38.05525,"long":140.69517,"status":0.0,"note":null,"address":"大河原町堤字休坂前","row_num":3993},{"area_id":21,"name":"堤生活センター駐車場","lat":38.05608,"long":140.69312,"status":0.0,"note":null,"address":"大河原町堤字道添１－２","row_num":3994},{"area_id":21,"name":"個人宅裏桑畑","lat":38.04784,"long":140.69723,"status":0.0,"note":null,"address":"大河原町堤字島２２－１","row_num":3995},{"area_id":21,"name":"大河原中学校プールフェンス","lat":38.05469,"long":140.73471,"status":1.0,"note":null,"address":"大河原町字新東１－１","row_num":3996},{"area_id":21,"name":"大河原町地方卸売市場フェンス","lat":38.05993,"long":140.73777,"status":1.0,"note":null,"address":"大河原町字新東１９－２","row_num":3997},{"area_id":21,"name":"大河原小学校フェンス","lat":38.0543,"long":140.73618,"status":1.0,"note":null,"address":"大河原町字町１００","row_num":3998},{"area_id":21,"name":"中部５号公園東側","lat":38.053,"long":140.72986,"status":1.0,"note":null,"address":"大河原町字新南７３－６","row_num":3999},{"area_id":21,"name":"中部７号公園東側","lat":38.05868,"long":140.73716,"status":1.0,"note":null,"address":"大河原町字新東１６","row_num":4000},{"area_id":21,"name":"中部８号公園東側","lat":38.05664,"long":140.73236,"status":1.0,"note":null,"address":"大河原町字新東８４－１","row_num":4001},{"area_id":21,"name":"個人宅南側町有地","lat":38.05438,"long":140.73807,"status":1.0,"note":null,"address":"大河原町字町２９９－１ 集積所南側","row_num":4002},{"area_id":21,"name":"世代交流いきいきプラザフェンス","lat":38.05227,"long":140.74062,"status":1.0,"note":null,"address":"大河原町大谷字末広５０","row_num":4003},{"area_id":21,"name":"保料公園フェンス","lat":38.05446,"long":140.74394,"status":1.0,"note":null,"address":"大河原町大谷字保料前５４－４８","row_num":4004},{"area_id":21,"name":"旭町公園フェンス","lat":38.05061,"long":140.74419,"status":1.0,"note":null,"address":"大河原町字旭町５０","row_num":4005},{"area_id":21,"name":"高砂公園フェンス","lat":38.05361,"long":140.75108,"status":1.0,"note":null,"address":"大河原町字高砂町６","row_num":4006},{"area_id":21,"name":"東北労働金庫大河原支店フェンス","lat":38.05065,"long":140.74214,"status":1.0,"note":null,"address":"大河原町大谷字末広１３２－７","row_num":4007},{"area_id":21,"name":"古峰神社フェンス","lat":38.05257,"long":140.74563,"status":1.0,"note":null,"address":"大河原町大谷字西原前１６７－１","row_num":4008},{"area_id":21,"name":"ハローワーク跡地脇畑地","lat":38.05237,"long":140.74879,"status":1.0,"note":null,"address":"大河原町字高砂町２－１","row_num":4009},{"area_id":21,"name":"大河原１号地下道東側フェンス","lat":38.04586,"long":140.72083,"status":0.0,"note":null,"address":"大河原町金ケ瀬字丑越１４－３","row_num":4010},{"area_id":21,"name":"大河原警察署緑町宿舎東側フェンス","lat":38.04392,"long":140.72112,"status":0.0,"note":null,"address":"大河原町字緑町２０－１","row_num":4011},{"area_id":21,"name":"大河原公園南西角","lat":38.04103,"long":140.72117,"status":0.0,"note":null,"address":"大河原町字南平１２－３","row_num":4012},{"area_id":21,"name":"南平公園北側","lat":38.04191,"long":140.71813,"status":0.0,"note":null,"address":"大河原町字南平５－１","row_num":4013},{"area_id":21,"name":"ビレッジハウス前フェンス","lat":38.04314,"long":140.72136,"status":0.0,"note":null,"address":"大河原町字緑町２５－２","row_num":4014},{"area_id":21,"name":"中島公園北側敷地内","lat":38.04574,"long":140.74388,"status":1.0,"note":null,"address":"大河原町字錦町４－１","row_num":4015},{"area_id":21,"name":"個人宅脇畑地","lat":38.0435,"long":140.74365,"status":1.0,"note":null,"address":"大河原町大谷字山崎１－２","row_num":4016},{"area_id":21,"name":"生活介護さくらの風南側フェンス","lat":38.04463,"long":140.74731,"status":1.0,"note":null,"address":"大河原町字広瀬町１２－６","row_num":4017},{"area_id":21,"name":"稗田前公園","lat":38.04112,"long":140.74685,"status":1.0,"note":null,"address":"大河原町大谷字稗田前１１－８９","row_num":4018},{"area_id":21,"name":"個人宅南側フェンス","lat":38.0414,"long":140.74418,"status":1.0,"note":null,"address":"大河原町大谷字稗田前８１","row_num":4019},{"area_id":21,"name":"個人宅ブロック塀","lat":38.04158,"long":140.73834,"status":1.0,"note":null,"address":"大河原町大谷字原前９－３","row_num":4020},{"area_id":21,"name":"南原前加圧ポンプ場","lat":38.03685,"long":140.73819,"status":1.0,"note":null,"address":"大河原町大谷字原前９８－２１５","row_num":4021},{"area_id":22,"name":"村田町役場前","lat":38.1183856,"long":140.7221078,"status":1.0,"note":null,"address":"村田町大字村田字迫6－1","row_num":4022},{"area_id":22,"name":"個人宅敷地前","lat":38.1207574,"long":140.7231342,"status":0.0,"note":null,"address":"村田町大字村田字大槻下4－1","row_num":4023},{"area_id":22,"name":"村田町中央公民館前","lat":38.1158944,"long":140.7228453,"status":1.0,"note":null,"address":"村田町大字村田字西田28－1","row_num":4024},{"area_id":22,"name":"町営石生住宅前","lat":38.1229514,"long":140.7293633,"status":0.0,"note":null,"address":"村田町大字村田字石生9－1","row_num":4025},{"area_id":22,"name":"町営金谷住宅集会所前","lat":38.1138446,"long":140.7179266,"status":0.0,"note":null,"address":"村田町大字村田字金谷32－2","row_num":4026},{"area_id":22,"name":"東宅造地内公園（願勝寺裏）","lat":38.1169378,"long":140.7274892,"status":1.0,"note":null,"address":"村田町大字村田字東86－10","row_num":4027},{"area_id":22,"name":"デイリーヤマザキ（字小池）向かい","lat":38.122101,"long":140.7135823,"status":1.0,"note":null,"address":"村田町大字村田字小池地内","row_num":4028},{"area_id":22,"name":"個人宅前","lat":38.1133236,"long":140.7259859,"status":1.0,"note":null,"address":"村田町大字村田字押切26","row_num":4029},{"area_id":22,"name":"個人宅北側（広域水道施設）","lat":38.1332862,"long":140.7153221,"status":1.0,"note":null,"address":"村田町大字足立字田中前64－3","row_num":4030},{"area_id":22,"name":"熊坂理容店東側","lat":38.1429927,"long":140.7100949,"status":1.0,"note":null,"address":"村田町大字足立字元舘地内","row_num":4031},{"area_id":22,"name":"西足立地区公民館前","lat":38.1386636,"long":140.7142753,"status":0.0,"note":null,"address":"村田町大字足立字明神93","row_num":4032},{"area_id":22,"name":"個人宅前（防火水槽）","lat":38.1496052,"long":140.700571,"status":1.0,"note":null,"address":"村田町大字足立字滑沢12－10","row_num":4033},{"area_id":22,"name":"個人宅前（防火水槽）","lat":38.128726,"long":140.714446,"status":0.0,"note":null,"address":"村田町大字足立字万崎44－1","row_num":4034},{"area_id":22,"name":"柏松苑前","lat":38.1357066,"long":140.7054198,"status":1.0,"note":null,"address":"村田町大字足立字上ケ戸25－1","row_num":4035},{"area_id":22,"name":"旧第三小学校前","lat":38.104414,"long":140.730054,"status":1.0,"note":null,"address":"村田町大字小泉字南乙内22－1","row_num":4036},{"area_id":22,"name":"南公・鼓崎住宅空き地","lat":38.092689,"long":140.7358064,"status":0.0,"note":null,"address":"村田町大字沼辺字南公4－1","row_num":4037},{"area_id":22,"name":"小泉地区公民館脇","lat":38.1046499,"long":140.7313815,"status":1.0,"note":null,"address":"村田町大字小泉字割田48","row_num":4038},{"area_id":22,"name":"荒芳賀集会所前","lat":38.1013317,"long":140.7381786,"status":0.0,"note":null,"address":"村田町大字小泉字五斗内9－1","row_num":4039},{"area_id":22,"name":"水上橋付近","lat":38.1220435,"long":140.7508235,"status":0.0,"note":null,"address":"村田町大字小泉字樋の口地内","row_num":4040},{"area_id":22,"name":"三斗内ゴミ集積所横","lat":38.0965434,"long":140.746238,"status":0.0,"note":null,"address":"村田町大字小泉字三斗内36","row_num":4041},{"area_id":22,"name":"門馬建設前","lat":38.108338,"long":140.7264508,"status":0.0,"note":null,"address":"村田町大字小泉字西浦30","row_num":4042},{"area_id":22,"name":"姥ヶ懐地区公民館前","lat":38.1324885,"long":140.7490892,"status":0.0,"note":null,"address":"村田町大字小泉字道端地内","row_num":4043},{"area_id":22,"name":"牛石橋付近","lat":38.123866,"long":140.7417502,"status":1.0,"note":null,"address":"村田町大字小泉字小滝地内","row_num":4044},{"area_id":22,"name":"馬ノ爪橋付近","lat":38.1220435,"long":140.7508235,"status":0.0,"note":null,"address":"村田町大字小泉字一子沢地内","row_num":4045},{"area_id":22,"name":"個人宅前","lat":38.1333219,"long":140.7547872,"status":0.0,"note":null,"address":"村田町大字小泉字北姥ヶ懐38－1","row_num":4046},{"area_id":22,"name":"姥ヶ懐橋付近","lat":38.1333219,"long":140.7547872,"status":0.0,"note":null,"address":"村田町大字小泉字北姥ヶ懐85－1","row_num":4047},{"area_id":22,"name":"個人宅前","lat":38.1008129,"long":140.7232184,"status":0.0,"note":null,"address":"村田町大字小泉字高田41－1","row_num":4048},{"area_id":22,"name":"個人宅前","lat":38.1008067,"long":140.7073556,"status":0.0,"note":null,"address":"村田町大字薄木字屋敷34","row_num":4049},{"area_id":22,"name":"薄木集会所付近","lat":38.0981852,"long":140.7079838,"status":0.0,"note":null,"address":"村田町大字薄木字二反沢地内","row_num":4050},{"area_id":22,"name":"個人宅付近","lat":38.1220435,"long":140.7508235,"status":0.0,"note":null,"address":"村田町大字小泉字北小谷地内","row_num":4051},{"area_id":22,"name":"元森商店向かい","lat":38.1027541,"long":140.7123021,"status":0.0,"note":null,"address":"村田町大字薄木字金原地内","row_num":4052},{"area_id":22,"name":"元深沢商店前","lat":38.1412823,"long":140.7266416,"status":0.0,"note":null,"address":"村田町大字足立字生江地内","row_num":4053},{"area_id":22,"name":"東足立地区公民館前","lat":38.1442542,"long":140.727651,"status":0.0,"note":null,"address":"村田町大字足立字岫28-4","row_num":4054},{"area_id":22,"name":"個人宅前付近","lat":38.147651,"long":140.7268525,"status":0.0,"note":null,"address":"村田町大字足立字井戸上地内","row_num":4055},{"area_id":22,"name":"無刀関元ポンプ小屋跡","lat":38.156856,"long":140.7392386,"status":0.0,"note":null,"address":"村田町大字足立字類孝地内","row_num":4056},{"area_id":22,"name":"川村地区入口付近","lat":38.1673243,"long":140.6548458,"status":0.0,"note":null,"address":"村田町大字足立字北向地内","row_num":4057},{"area_id":22,"name":"北向コミュニティセンター前","lat":38.1691285,"long":140.6570269,"status":0.0,"note":null,"address":"村田町大字足立字北向54－3","row_num":4058},{"area_id":22,"name":"新日の崎ちびっこ広場脇","lat":38.0666925,"long":140.7299252,"status":0.0,"note":null,"address":"村田町大字沼辺字新日の崎107","row_num":4059},{"area_id":22,"name":"個人宅付近","lat":38.0695203,"long":140.7352554,"status":1.0,"note":null,"address":"村田町大字沼辺字小谷地地内","row_num":4060},{"area_id":22,"name":"ＪＡ沼辺倉庫前","lat":38.0782591,"long":140.7322253,"status":1.0,"note":null,"address":"村田町大字沼辺字篭田52－4","row_num":4061},{"area_id":22,"name":"個人宅前","lat":38.0767823,"long":140.7319671,"status":1.0,"note":null,"address":"村田町大字沼辺字寄井89－2","row_num":4062},{"area_id":22,"name":"個人宅前","lat":38.0766951,"long":140.7299927,"status":0.0,"note":null,"address":"村田町大字沼辺字寄井117－2","row_num":4063},{"area_id":22,"name":"個人宅付近","lat":38.0777886,"long":140.7226935,"status":1.0,"note":null,"address":"村田町大字沼辺字竹の内前地内","row_num":4064},{"area_id":22,"name":"個人宅前","lat":38.0853337,"long":140.7323628,"status":1.0,"note":null,"address":"村田町大字沼辺字新若宮脇地内","row_num":4065},{"area_id":22,"name":"中山集会所前","lat":38.0897631,"long":140.7341828,"status":0.0,"note":null,"address":"村田町大字沼辺字中山地内","row_num":4066},{"area_id":22,"name":"個人宅前（防火水槽）","lat":38.0899948,"long":140.7397963,"status":0.0,"note":null,"address":"村田町大字沼辺字田辺29－3","row_num":4067},{"area_id":22,"name":"個人宅前","lat":38.0782591,"long":140.7322253,"status":1.0,"note":null,"address":"村田町大字沼辺字東小沼109－1","row_num":4068},{"area_id":22,"name":"個人宅前","lat":38.0808,"long":140.7457248,"status":0.0,"note":null,"address":"村田町大字沼辺字寄門地内","row_num":4069},{"area_id":22,"name":"鹿野消防センター前","lat":38.0715824,"long":140.7429663,"status":0.0,"note":null,"address":"村田町大字沼辺字高田地内","row_num":4070},{"area_id":22,"name":"鹿野生活文化センター前","lat":38.0642039,"long":140.7444795,"status":0.0,"note":null,"address":"村田町大字沼辺字牡丹山地内","row_num":4071},{"area_id":22,"name":"個人宅前","lat":38.0600994,"long":140.7530672,"status":0.0,"note":null,"address":"村田町大字沼辺字立石54","row_num":4072},{"area_id":22,"name":"菅野商店付近","lat":38.0905839,"long":140.7218829,"status":0.0,"note":null,"address":"村田町大字関場字雉子尾地内","row_num":4073},{"area_id":22,"name":"個人宅前","lat":38.0876922,"long":140.7242969,"status":0.0,"note":null,"address":"村田町大字関場字和田前25","row_num":4074},{"area_id":22,"name":"個人宅前付近","lat":38.0899822,"long":140.7218044,"status":0.0,"note":null,"address":"村田町大字関場字中野内地内","row_num":4075},{"area_id":22,"name":"関場地区消防ポンプ小屋前","lat":38.0943577,"long":140.7198939,"status":0.0,"note":null,"address":"村田町大字関場字高木地内","row_num":4076},{"area_id":22,"name":"沼田地域交流センター前","lat":38.0838194,"long":140.7088892,"status":0.0,"note":null,"address":"村田町大字沼田字弁天71","row_num":4077},{"area_id":22,"name":"個人宅前","lat":38.0837722,"long":140.7011448,"status":0.0,"note":null,"address":"村田町大字沼田字二又前142－2","row_num":4078},{"area_id":22,"name":"蛇沢橋付近","lat":38.0837461,"long":140.7061037,"status":0.0,"note":null,"address":"村田町大字沼田字新土取場地内","row_num":4079},{"area_id":22,"name":"個人宅前","lat":38.0907194,"long":140.7107339,"status":0.0,"note":null,"address":"村田町大字沼田字清水12","row_num":4080},{"area_id":22,"name":"菅生地区公民館前","lat":38.1677259,"long":140.7608646,"status":1.0,"note":null,"address":"村田町大字菅生字宮根59","row_num":4081},{"area_id":22,"name":"防火水槽付近","lat":38.1674841,"long":140.7551192,"status":0.0,"note":null,"address":"村田町大字菅生字宮脇72－10","row_num":4082},{"area_id":22,"name":"平地区野菜集荷所付近","lat":38.1637325,"long":140.7500813,"status":0.0,"note":null,"address":"村田町大字菅生字東地内","row_num":4083},{"area_id":22,"name":"櫛道生活センター前","lat":38.1736822,"long":140.7482788,"status":0.0,"note":null,"address":"村田町大字菅生字櫛挽150","row_num":4084},{"area_id":22,"name":"旧菅生簡易郵便局前","lat":38.1680101,"long":140.7729492,"status":0.0,"note":null,"address":"村田町大字菅生字町東裏3－2","row_num":4085},{"area_id":22,"name":"細倉集会所前","lat":38.1517535,"long":140.7609347,"status":1.0,"note":null,"address":"村田町大字菅生字細倉地内","row_num":4086},{"area_id":23,"name":"個人宅地内","lat":38.07234,"long":140.80883,"status":0.0,"note":null,"address":"柴田町槻木白幡３丁目１－５３","row_num":4087},{"area_id":23,"name":"南浦公園西側","lat":38.07522,"long":140.81186,"status":0.0,"note":null,"address":"柴田町槻木上町３丁目３２９","row_num":4088},{"area_id":23,"name":"槻木事務所東側","lat":38.07756,"long":140.81029,"status":1.0,"note":null,"address":"柴田町槻木上町２丁目１－１２","row_num":4089},{"area_id":23,"name":"下町集会所裏町道沿い 町掲示板隣","lat":38.08071,"long":140.81565,"status":0.0,"note":null,"address":"柴田町槻木下町２丁目６－１５","row_num":4090},{"area_id":23,"name":"槻木生涯学習センター北側","lat":38.07831,"long":140.8142,"status":1.0,"note":null,"address":"柴田町槻木下町３丁目１－６０","row_num":4091},{"area_id":23,"name":"槻木駅西自転車駐車場西側","lat":38.07919,"long":140.80969,"status":0.0,"note":null,"address":"柴田町槻木駅西１丁目３","row_num":4092},{"area_id":23,"name":"槻木駅東自転車駐車場西側フェンス","lat":38.07878,"long":140.81061,"status":0.0,"note":null,"address":"柴田町槻木新町１丁目１－２","row_num":4093},{"area_id":23,"name":"引地商店前畑地内","lat":38.09291,"long":140.81295,"status":0.0,"note":null,"address":"柴田町大字四日市場字川名沢１８２-１付近","row_num":4094},{"area_id":23,"name":"個人宅東側 町掲示板隣","lat":38.09706,"long":140.81112,"status":0.0,"note":null,"address":"柴田町大字上川名字神廻戸地内","row_num":4095},{"area_id":23,"name":"能化寺前町道三叉路","lat":38.10314,"long":140.81365,"status":0.0,"note":null,"address":"柴田町大字上川名字大坂地内","row_num":4096},{"area_id":23,"name":"むつみ学園（旧富上集会所）東側町道沿いフェンス","lat":38.10456,"long":140.81035,"status":0.0,"note":null,"address":"柴田町大字富沢字青木町６-２","row_num":4097},{"area_id":23,"name":"富沢集会所地内","lat":38.11179,"long":140.8111,"status":0.0,"note":null,"address":"柴田町大字富沢字田中前４５","row_num":4098},{"area_id":23,"name":"個人宅向かい 行政区掲示板隣","lat":38.09296,"long":140.79747,"status":0.0,"note":null,"address":"柴田町大字入間田字舘山崎５-２付近","row_num":4099},{"area_id":23,"name":"農村環境改善センター地内","lat":38.09999,"long":140.78342,"status":0.0,"note":null,"address":"柴田町大字入間田字外馬場２２０","row_num":4100},{"area_id":23,"name":"入間田中央集会所地内","lat":38.10374,"long":140.79094,"status":0.0,"note":null,"address":"柴田町大字入間田字弁天前１９","row_num":4101},{"area_id":23,"name":"上の組集会所入口町道沿い","lat":38.10889,"long":140.78497,"status":0.0,"note":null,"address":"柴田町大字入間田字寺５３","row_num":4102},{"area_id":23,"name":"個人宅前町道沿い","lat":38.11259,"long":140.79076,"status":0.0,"note":null,"address":"柴田町大字入間田字畑中２-２付近","row_num":4103},{"area_id":23,"name":"入間田富沢三本木線・岩崎入口三叉路","lat":38.10054,"long":140.80112,"status":0.0,"note":null,"address":"柴田町大字入間田字鳥屋森３５付近","row_num":4104},{"area_id":23,"name":"個人宅前畑","lat":38.10886,"long":140.77679,"status":0.0,"note":null,"address":"柴田町大字葉坂字竹ノ内９９付近","row_num":4105},{"area_id":23,"name":"町道葉坂１７号線白坂入口","lat":38.10204,"long":140.77676,"status":0.0,"note":null,"address":"柴田町大字葉坂字宮橋５７-１付近","row_num":4106},{"area_id":23,"name":"葉坂構造改善センター付近町道沿い","lat":38.10377,"long":140.77318,"status":0.0,"note":null,"address":"柴田町大字葉坂字上崎１０５付近","row_num":4107},{"area_id":23,"name":"個人宅前町道沿い","lat":38.10317,"long":140.77101,"status":0.0,"note":null,"address":"柴田町大字葉坂字戸ノ内８付近","row_num":4108},{"area_id":23,"name":"個人宅付近町道丁字路沿い","lat":38.0912,"long":140.77265,"status":0.0,"note":null,"address":"柴田町大字成田字坂崎地内","row_num":4109},{"area_id":23,"name":"成田消防センター脇","lat":38.08953,"long":140.76659,"status":0.0,"note":null,"address":"柴田町大字成田字和田前地内","row_num":4110},{"area_id":23,"name":"成田集会所地内","lat":38.0916,"long":140.7677,"status":0.0,"note":null,"address":"柴田町大字成田字寺田１２３－１","row_num":4111},{"area_id":23,"name":"個人宅登り口","lat":38.09107,"long":140.76338,"status":0.0,"note":null,"address":"柴田町大字成田字三河内２４","row_num":4112},{"area_id":23,"name":"個人宅ブロック塀","lat":38.06558,"long":140.76714,"status":0.0,"note":null,"address":"柴田町西船迫１丁目８－９","row_num":4113},{"area_id":23,"name":"個人宅東側三叉路付近","lat":38.06861,"long":140.7679,"status":0.0,"note":null,"address":"柴田町西船迫１丁目１３－２５","row_num":4114},{"area_id":23,"name":"船迫生涯学習センター入口フェンス","lat":38.06653,"long":140.76394,"status":0.0,"note":null,"address":"柴田町西船迫３丁目３－１０４","row_num":4115},{"area_id":23,"name":"鹿野公園入口","lat":38.06296,"long":140.75681,"status":0.0,"note":null,"address":"柴田町西船迫２丁目５－１","row_num":4116},{"area_id":23,"name":"個人宅南側塀","lat":38.0681,"long":140.76157,"status":1.0,"note":null,"address":"柴田町西船迫３丁目２－１０８","row_num":4117},{"area_id":23,"name":"個人宅塀","lat":38.07105,"long":140.77115,"status":1.0,"note":null,"address":"柴田町大字本船迫字下町２－１","row_num":4118},{"area_id":23,"name":"西船迫５号公園","lat":38.07451,"long":140.76748,"status":0.0,"note":null,"address":"柴田町西船迫４丁目５－１４９","row_num":4119},{"area_id":23,"name":"しばたの郷土館駐車場前","lat":38.05486,"long":140.76032,"status":1.0,"note":null,"address":"柴田町大字船岡字根形１４－７","row_num":4120},{"area_id":23,"name":"柴田町役場庁舎正面入口前","lat":38.0566,"long":140.76615,"status":1.0,"note":null,"address":"柴田町船岡中央２丁目３－４５","row_num":4121},{"area_id":23,"name":"船岡駅前パーク＆ライド専用駐車場前","lat":38.05903,"long":140.76786,"status":1.0,"note":null,"address":"柴田町船岡中央１丁目１－１","row_num":4122},{"area_id":23,"name":"第３区集会所脇空地","lat":38.05389,"long":140.76421,"status":1.0,"note":null,"address":"柴田町船岡西２丁目２－３","row_num":4123},{"area_id":23,"name":"松浦組入口北側","lat":38.05509,"long":140.76763,"status":1.0,"note":null,"address":"柴田町船岡中央３丁目１-５","row_num":4124},{"area_id":23,"name":"第８区集会所入口フェンス","lat":38.05955,"long":140.77122,"status":1.0,"note":null,"address":"柴田町船岡中央１丁目３-３４","row_num":4125},{"area_id":23,"name":"第一幼稚園町道沿いフェンス","lat":38.05947,"long":140.77571,"status":1.0,"note":null,"address":"柴田町船岡東１丁目２－６０","row_num":4126},{"area_id":23,"name":"土手内公園内","lat":38.06139,"long":140.77447,"status":1.0,"note":null,"address":"柴田町船岡土手内２丁目９３－１","row_num":4127},{"area_id":23,"name":"柴田交番詰所町道脇","lat":38.05921,"long":140.77702,"status":1.0,"note":null,"address":"柴田町船岡東４丁目６－５","row_num":4128},{"area_id":23,"name":"船岡公民館前","lat":38.0584,"long":140.77351,"status":1.0,"note":null,"address":"柴田町船岡東１丁目２－６５","row_num":4129},{"area_id":23,"name":"船岡駅北自転車駐車場北側","lat":38.05981,"long":140.76887,"status":1.0,"note":null,"address":"柴田町船岡土手内１丁目１－１４","row_num":4130},{"area_id":23,"name":"中名生集会所隣ゲートボール場","lat":38.05423,"long":140.79682,"status":1.0,"note":null,"address":"柴田町大字中名生字宮前１８６－２","row_num":4131},{"area_id":23,"name":"個人宅地内","lat":38.05389,"long":140.8028,"status":1.0,"note":null,"address":"柴田町大字下名生字大畑前５６","row_num":4132},{"area_id":23,"name":"下名生公園前","lat":38.05523,"long":140.80645,"status":1.0,"note":null,"address":"柴田町大字下名生字新前田５７－１","row_num":4133},{"area_id":23,"name":"下名生上納水門前三叉路水路","lat":38.05713,"long":140.80424,"status":1.0,"note":null,"address":"柴田町大字下名生字上納２８-２付近","row_num":4134},{"area_id":23,"name":"剣水集会所町掲示板隣","lat":38.0622,"long":140.80569,"status":1.0,"note":null,"address":"柴田町大字下名生字剣水２３８","row_num":4135},{"area_id":23,"name":"船岡生涯学習センター西側","lat":38.05377,"long":140.79046,"status":1.0,"note":null,"address":"柴田町大字中名生字西宮前４９","row_num":4136},{"area_id":23,"name":"剣崎公園内","lat":38.06169,"long":140.80102,"status":1.0,"note":null,"address":"柴田町剣崎２丁目５－１","row_num":4137},{"area_id":23,"name":"槻木中学校テニスコート東側県道沿い","lat":38.08075,"long":140.81892,"status":1.0,"note":null,"address":"柴田町槻木東２丁目３－１","row_num":4138},{"area_id":23,"name":"四日市場沖コミュニティ消防センター南側稲荷山用水路沿い","lat":38.08551,"long":140.828,"status":0.0,"note":null,"address":"柴田町大字四日市場字原前６４－１","row_num":4139},{"area_id":23,"name":"四日市場沖集会所北側","lat":38.0845,"long":140.82422,"status":0.0,"note":null,"address":"柴田町大字四日市場字原前２６","row_num":4140},{"area_id":23,"name":"個人宅南向町道沿い","lat":38.09205,"long":140.81397,"status":0.0,"note":null,"address":"柴田町大字四日市場字坂本前８－１","row_num":4141},{"area_id":23,"name":"個人宅前畑地内","lat":38.09077,"long":140.82962,"status":0.0,"note":null,"address":"柴田町大字四日市場字炭釜２","row_num":4142},{"area_id":23,"name":"個人宅（近江自動車）前角ブロック塀","lat":38.04896,"long":140.74504,"status":1.0,"note":null,"address":"柴田町大字船岡字西住町３－３","row_num":4143},{"area_id":23,"name":"清住１号公園内（西住児童館西隣）","lat":38.04741,"long":140.74836,"status":1.0,"note":null,"address":"柴田町大字船岡字清住町１０－２","row_num":4144},{"area_id":23,"name":"個人宅前船岡用水路側","lat":38.04969,"long":140.74902,"status":1.0,"note":null,"address":"柴田町大字船岡字清住町２８","row_num":4145},{"area_id":23,"name":"西住集会所付近","lat":38.04886,"long":140.75133,"status":1.0,"note":null,"address":"柴田町大字船岡字清住町２２－４","row_num":4146},{"area_id":23,"name":"西住緑地内（昭和電線向かい）","lat":38.04219,"long":140.75787,"status":1.0,"note":null,"address":"柴田町大字船岡字八入２６－１９","row_num":4147},{"area_id":23,"name":"西住公民館前","lat":38.04519,"long":140.75299,"status":1.0,"note":null,"address":"柴田町大字船岡字大住町１３－１","row_num":4148},{"area_id":23,"name":"ルクレールブラン（集合住宅）　塀","lat":38.05668,"long":140.77068,"status":1.0,"note":null,"address":"柴田町船岡中央２丁目９－４１","row_num":4149},{"area_id":23,"name":"船岡新栄通線（神山前地内）側帯地","lat":38.05294,"long":140.77438,"status":1.0,"note":null,"address":"柴田町大字船岡字東町の口８３－１","row_num":4150},{"area_id":23,"name":"土地改良記念碑前","lat":38.05522,"long":140.77519,"status":1.0,"note":null,"address":"柴田町大字船岡字東町の口５０","row_num":4151},{"area_id":23,"name":"個人宅地内","lat":38.0539,"long":140.77155,"status":1.0,"note":null,"address":"柴田町船岡東３丁目２－２４","row_num":4152},{"area_id":23,"name":"船岡体育館入口","lat":38.05167,"long":140.77297,"status":1.0,"note":null,"address":"柴田町船岡南２丁目２－３４","row_num":4153},{"area_id":23,"name":"並松児童公園入口フェンス","lat":38.04711,"long":140.78093,"status":1.0,"note":null,"address":"柴田町大字船岡字並松６－１４","row_num":4154},{"area_id":23,"name":"船岡中央公園入口","lat":38.0556588,"long":140.7730687,"status":1.0,"note":null,"address":"柴田町大字船岡東２丁目５６","row_num":4155},{"area_id":23,"name":"若葉１号公園内（船迫児童館南隣）","lat":38.0677964,"long":140.7725439,"status":0.0,"note":null,"address":"柴田町大字船岡字若葉町１０－１","row_num":4156},{"area_id":23,"name":"二本杉町営住宅１号棟北側公園前","lat":38.0616837,"long":140.7639873,"status":0.0,"note":null,"address":"柴田町北船岡２丁目１３地内","row_num":4157},{"area_id":23,"name":"地域福祉センター町道沿いフェンス","lat":38.0646696,"long":140.7770293,"status":0.0,"note":null,"address":"柴田町大字船岡字中島６８","row_num":4158},{"area_id":23,"name":"北船岡集会所敷地内","lat":38.0619142,"long":140.7639401,"status":0.0,"note":null,"address":"柴田町北船岡２丁目１０－４","row_num":4159},{"area_id":23,"name":"北船岡１号公園地内","lat":38.0634923,"long":140.7663662,"status":0.0,"note":null,"address":"柴田町北船岡１丁目４－１５２","row_num":4160},{"area_id":23,"name":"コインランドリーつきのき隣畑地内","lat":38.0863542,"long":140.8031457,"status":0.0,"note":null,"address":"柴田町大字槻木字祗園田１００－１","row_num":4161},{"area_id":23,"name":"サニータウン入口ライスセンター脇町道沿い","lat":38.0866545,"long":140.8007673,"status":0.0,"note":null,"address":"柴田町新余目４３－１","row_num":4162},{"area_id":23,"name":"平間電子製作所脇","lat":38.0880058,"long":140.8023296,"status":0.0,"note":null,"address":"柴田町大字槻木字新遠島１０５－２","row_num":4163},{"area_id":23,"name":"舘前緑地公園内","lat":38.0858512,"long":140.7969394,"status":0.0,"note":null,"address":"柴田町松ヶ越１丁目６－６","row_num":4164},{"area_id":23,"name":"個人宅前町道脇空地","lat":38.0888586,"long":140.7973372,"status":0.0,"note":null,"address":"柴田町大字槻木字遠島入５４","row_num":4165},{"area_id":23,"name":"海老穴コミュニティ消防センター町道側法面","lat":38.0890868,"long":140.7849612,"status":0.0,"note":null,"address":"柴田町大字海老穴字割田地内","row_num":4166},{"area_id":23,"name":"船岡新栄３号公園内","lat":38.0539441,"long":140.7819035,"status":1.0,"note":null,"address":"柴田町船岡新栄３丁目１２－１","row_num":4167},{"area_id":23,"name":"古河公園内","lat":38.059848,"long":140.7870238,"status":1.0,"note":null,"address":"柴田町大字船岡字上大原２１９－１","row_num":4168},{"area_id":23,"name":"新大原集会所地内（貯水槽脇）","lat":38.0622966,"long":140.7920729,"status":1.0,"note":null,"address":"柴田町大字上名生字新大原１２３-１","row_num":4169},{"area_id":23,"name":"個人宅前用水路町道沿い","lat":38.0567372,"long":140.7884537,"status":1.0,"note":null,"address":"柴田町大字船岡字上中川41-1付近","row_num":4170},{"area_id":23,"name":"新田集会所フェンス","lat":38.0574511,"long":140.7859986,"status":1.0,"note":null,"address":"柴田町大字船岡字新田５６","row_num":4171},{"area_id":23,"name":"水質障害記念碑前町有地","lat":38.0562373,"long":140.7818666,"status":1.0,"note":null,"address":"柴田町船岡新栄２丁目９－１１","row_num":4172},{"area_id":23,"name":"船岡新栄４号公園内東側","lat":38.0517216,"long":140.7813094,"status":1.0,"note":null,"address":"柴田町船岡新栄４丁目７","row_num":4173},{"area_id":23,"name":"個人宅前町有地","lat":38.081491,"long":140.8112147,"status":0.0,"note":null,"address":"柴田町槻木西２丁目３－３－２","row_num":4174},{"area_id":23,"name":"個人宅前畑","lat":38.0726894,"long":140.8048487,"status":0.0,"note":null,"address":"柴田町槻木西２丁目１３－５","row_num":4175},{"area_id":23,"name":"もみのき園敷地内（バイパス高架橋北）","lat":38.0715913,"long":140.802625,"status":0.0,"note":null,"address":"柴田町槻木西３丁目１６－２７","row_num":4176},{"area_id":23,"name":"葛岡集会所入口フェンス","lat":38.0732735,"long":140.802097,"status":0.0,"note":null,"address":"柴田町槻木西３丁目１１－３４","row_num":4177},{"area_id":23,"name":"葛岡公園入口付近","lat":38.0749734,"long":140.8034172,"status":0.0,"note":null,"address":"柴田町槻木西１丁目３０２－１","row_num":4178},{"area_id":23,"name":"個人宅前畑","lat":38.0790136,"long":140.8094461,"status":0.0,"note":null,"address":"柴田町槻木西１丁目３－１","row_num":4179},{"area_id":23,"name":"くりえいと柴田南側町道沿い畑地内","lat":38.0707664,"long":140.7912243,"status":0.0,"note":null,"address":"柴田町大字船迫字土平地内","row_num":4180},{"area_id":23,"name":"個人宅前","lat":38.0713157,"long":140.7875766,"status":0.0,"note":null,"address":"柴田町大字船迫字内余川７６付近","row_num":4181},{"area_id":23,"name":"千代の川ポンプ場前T字路","lat":38.0777118,"long":140.7871809,"status":0.0,"note":null,"address":"柴田町大字船迫字千代川地内","row_num":4182},{"area_id":23,"name":"船迫集会所前","lat":38.0758959,"long":140.7853758,"status":0.0,"note":null,"address":"柴田町大字船迫字千代の川１９９－３","row_num":4183},{"area_id":23,"name":"船迫上在集会所向かい","lat":38.0797949,"long":140.7787734,"status":0.0,"note":null,"address":"柴田町大字船迫字朴木地内","row_num":4184},{"area_id":23,"name":"個人宅前町道沿い","lat":38.0828713,"long":140.7951746,"status":0.0,"note":null,"address":"柴田町大字船迫字荒屋敷４６付近","row_num":4185},{"area_id":23,"name":"船迫公民館前","lat":38.0655865,"long":140.7831583,"status":0.0,"note":null,"address":"柴田町東船迫１丁目８－１","row_num":4186},{"area_id":24,"name":"ひだまり公園北側","lat":38.1742485,"long":140.6420639,"status":0.0,"note":null,"address":"川崎町大字前川字裏尻３３","row_num":4187},{"area_id":24,"name":"桜地蔵尊東側空き地","lat":38.1781904,"long":140.6348781,"status":0.0,"note":null,"address":"川崎町大字前川字堀切１１－３","row_num":4188},{"area_id":24,"name":"個人宅地南側","lat":38.175149,"long":140.6461323,"status":0.0,"note":null,"address":"川崎町大字前川字中町５４-1","row_num":4189},{"area_id":24,"name":"個人所有畜舎前","lat":38.1783905,"long":140.6438403,"status":0.0,"note":null,"address":"川崎町大字前川字裏丁１３３－１","row_num":4190},{"area_id":24,"name":"旧JA-SS川崎支店跡地東側","lat":38.1777829,"long":140.6468163,"status":0.0,"note":null,"address":"川崎町大字前川字裏丁３１－１","row_num":4191},{"area_id":24,"name":"川崎町山村開発センター東側","lat":38.1772411,"long":140.6428597,"status":0.0,"note":null,"address":"川崎町大字前川字裏丁１７５－１","row_num":4192},{"area_id":24,"name":"本荒町コミュニティセンター","lat":38.1761394,"long":140.641064,"status":1.0,"note":null,"address":"川崎町大字前川字本町１７－２","row_num":4193},{"area_id":24,"name":"個人宅地東側","lat":38.1613844,"long":140.6341943,"status":0.0,"note":null,"address":"川崎町大字前川字槻木６０","row_num":4194},{"area_id":24,"name":"前川東部地区集落センター敷地内","lat":38.1666848,"long":140.6278676,"status":0.0,"note":null,"address":"川崎町大字前川字大向２９－２","row_num":4195},{"area_id":24,"name":"前川小学校正門前","lat":38.1653991,"long":140.6198377,"status":0.0,"note":null,"address":"川崎町大字前川字大森１１１－４","row_num":4196},{"area_id":24,"name":"個人宅地南側","lat":38.1682983,"long":140.6105046,"status":0.0,"note":null,"address":"川崎町大字前川字浪形１８６－２","row_num":4197},{"area_id":24,"name":"前川西地区集落センター町道側","lat":38.1712025,"long":140.5956755,"status":0.0,"note":null,"address":"川崎町大字前川字浪形４４－１","row_num":4198},{"area_id":24,"name":"個人宅前","lat":38.1633129,"long":140.5767661,"status":0.0,"note":null,"address":"川崎町大字前川字松葉森山１２－５","row_num":4199},{"area_id":24,"name":"腹帯地区集落センター東側","lat":38.1640576,"long":140.577265,"status":0.0,"note":null,"address":"川崎町大字前川字松葉森山１","row_num":4200},{"area_id":24,"name":"大河原警察署青根駐在所隣駐車場","lat":38.1455561,"long":140.5358839,"status":0.0,"note":null,"address":"川崎町青根温泉２－15","row_num":4201},{"area_id":24,"name":"蔵王・青根グリーン・スパ案内所西側","lat":38.1554847,"long":140.558838,"status":0.0,"note":null,"address":"川崎町大字前川字六方山２－７８","row_num":4202},{"area_id":24,"name":"個人宅前","lat":38.1474159,"long":140.534552,"status":0.0,"note":null,"address":"川崎町青根温泉１５－１","row_num":4203},{"area_id":24,"name":"個人宅隣接畑地","lat":38.1868081,"long":140.6175654,"status":0.0,"note":null,"address":"川崎町大字今宿字川崎原２２４－１","row_num":4204},{"area_id":24,"name":"立野地区集落センター西側","lat":38.1836504,"long":140.6146738,"status":0.0,"note":null,"address":"川崎町大字今宿字立野屋敷１６－１","row_num":4205},{"area_id":24,"name":"熊野神社前","lat":38.176429,"long":140.6181005,"status":1.0,"note":null,"address":"川崎町大字今宿字前田６","row_num":4206},{"area_id":24,"name":"個人宅地東側","lat":38.1954036,"long":140.6062479,"status":0.0,"note":null,"address":"川崎町大字今宿字清水前畑４３","row_num":4207},{"area_id":24,"name":"個人宅地南側ブロック塀","lat":38.1951334,"long":140.5975647,"status":0.0,"note":null,"address":"川崎町大字今宿字野上町３３","row_num":4208},{"area_id":24,"name":"道祖神敷地南側","lat":38.1969104,"long":140.5933602,"status":0.0,"note":null,"address":"川崎町大字今宿字西林山","row_num":4209},{"area_id":24,"name":"第二小学校プール南側フェンス","lat":38.1934746,"long":140.6014147,"status":0.0,"note":null,"address":"川崎町大字今宿字町尻１","row_num":4210},{"area_id":24,"name":"個人宅北側町道交差点","lat":38.1878762,"long":140.5965605,"status":0.0,"note":null,"address":"川崎町大字今宿字ヘタノ前４１","row_num":4211},{"area_id":24,"name":"川崎町公民館野上分館前","lat":38.1954214,"long":140.5975238,"status":0.0,"note":null,"address":"川崎町大字今宿字野上町２３－１","row_num":4212},{"area_id":24,"name":"個人宅前","lat":38.2027166,"long":140.5823818,"status":0.0,"note":null,"address":"川崎町大字今宿字シシナゴ５３－２２","row_num":4213},{"area_id":24,"name":"川崎町公民館古関分館前","lat":38.2062821,"long":140.5816476,"status":0.0,"note":null,"address":"川崎町大字今宿字叺畑８－１","row_num":4214},{"area_id":24,"name":"個人宅地北側","lat":38.2052,"long":140.578244,"status":0.0,"note":null,"address":"川崎町大字今宿字川岸山１－５","row_num":4215},{"area_id":24,"name":"笹谷地区コミュニティ広場","lat":38.2241248,"long":140.5115698,"status":0.0,"note":null,"address":"川崎町大字今宿字笹谷町７７－４","row_num":4216},{"area_id":24,"name":"川崎町公民館笹谷分館入り口","lat":38.222074,"long":140.5150461,"status":0.0,"note":null,"address":"川崎町大字今宿字神林５","row_num":4217},{"area_id":24,"name":"個人宅ブロック塀","lat":38.1831819,"long":140.6680826,"status":0.0,"note":null,"address":"川崎町大字小野字二本松１９","row_num":4218},{"area_id":24,"name":"旧小野班ポンプ場跡地","lat":38.185927,"long":140.6651582,"status":0.0,"note":null,"address":"川崎町大字大久保字４－３","row_num":4219},{"area_id":24,"name":"小野分館前","lat":38.2086556,"long":140.6925273,"status":0.0,"note":null,"address":"川崎町大字小野字町","row_num":4220},{"area_id":24,"name":"小沢地区墓地西側","lat":38.1708959,"long":140.6652513,"status":0.0,"note":null,"address":"川崎町大字支倉字上針","row_num":4221},{"area_id":24,"name":"みちのく公園線、北向・釜房線交差点","lat":38.181496,"long":140.66703,"status":0.0,"note":null,"address":"川崎町大字支倉字西原２６－３","row_num":4222},{"area_id":24,"name":"個人宅地入口","lat":38.1841935,"long":140.6427715,"status":0.0,"note":null,"address":"川崎町大字川内字河原前３５","row_num":4223},{"area_id":24,"name":"海洋センター入口（町有地）","lat":38.1868832,"long":140.6349851,"status":0.0,"note":null,"address":"川崎町大字川内字北川原山","row_num":4224},{"area_id":24,"name":"個人宅地入口東側","lat":38.1933981,"long":140.621804,"status":0.0,"note":null,"address":"川崎町大字川内字内木戸２２","row_num":4225},{"area_id":24,"name":"住吉明神西側","lat":38.1942027,"long":140.6440105,"status":0.0,"note":null,"address":"川崎町大字川内字糀谷山","row_num":4226},{"area_id":24,"name":"個人宅地入口","lat":38.1952122,"long":140.652118,"status":0.0,"note":null,"address":"川崎町大字川内字大原前１１","row_num":4227},{"area_id":24,"name":"町道上石丸・内野線起点北側","lat":38.2055782,"long":140.6594213,"status":0.0,"note":null,"address":"川崎町大字川内字東原８９－２","row_num":4228},{"area_id":24,"name":"天神地区ライスセンター前","lat":38.2062228,"long":140.6351988,"status":0.0,"note":null,"address":"川崎町大字川内字天神前３０６","row_num":4229},{"area_id":24,"name":"旧川内小学校裏・生活ｾﾝﾀｰ前","lat":38.2066276,"long":140.6448716,"status":0.0,"note":null,"address":"川崎町大字川内字天神原山２８－２","row_num":4230},{"area_id":24,"name":"個人宅前","lat":38.2162922,"long":140.6186476,"status":0.0,"note":null,"address":"川崎町大字川内字高欠１５－６","row_num":4231},{"area_id":24,"name":"蔵王ｸﾞﾘｰﾝﾎｰﾑ前","lat":38.2254577,"long":140.5851785,"status":0.0,"note":null,"address":"川崎町大字川内字芋の窪１６－３","row_num":4232},{"area_id":24,"name":"個人所有畑地","lat":38.2421953,"long":140.6321372,"status":0.0,"note":null,"address":"川崎町大字本砂金字山崎１０６－６","row_num":4233},{"area_id":24,"name":"旧本砂金小学校校庭南側","lat":38.241104,"long":140.6394678,"status":0.0,"note":null,"address":"川崎町大字本砂金字道畑９１","row_num":4234},{"area_id":24,"name":"個人宅地南側","lat":38.2401402,"long":140.6477481,"status":0.0,"note":null,"address":"川崎町大字本砂金字宿２６","row_num":4235},{"area_id":24,"name":"個人宅西側防火水槽付近","lat":38.2379173,"long":140.657776,"status":0.0,"note":null,"address":"川崎町大字本砂金字坂下４３－１","row_num":4236},{"area_id":24,"name":"個人宅地東側","lat":38.158588,"long":140.6984498,"status":1.0,"note":null,"address":"川崎町大字支倉字金田４３－１２","row_num":4237},{"area_id":24,"name":"山口屋商店西向い","lat":38.1674752,"long":140.7076915,"status":1.0,"note":null,"address":"川崎町大字支倉字山口前１１－３","row_num":4238},{"area_id":24,"name":"支倉郷土文化伝承館前","lat":38.1721737,"long":140.7172791,"status":1.0,"note":null,"address":"川崎町大字支倉字塩沢１７","row_num":4239},{"area_id":24,"name":"支倉下地区集落センター前","lat":38.1832977,"long":140.7259158,"status":1.0,"note":null,"address":"川崎町大字支倉字宮脇東１５－４","row_num":4240},{"area_id":24,"name":"個人宅地西側車輌待避所","lat":38.1592575,"long":140.6905712,"status":0.0,"note":null,"address":"川崎町大字支倉字中音無","row_num":4241},{"area_id":24,"name":"個人所有畑地","lat":38.1986843,"long":140.7211236,"status":0.0,"note":null,"address":"川崎町大字支倉字堀ノ内38","row_num":4242},{"area_id":24,"name":"碁石集落センター西側","lat":38.196899,"long":140.722714,"status":1.0,"note":null,"address":"川崎町大字支倉字和合４１","row_num":4243},{"area_id":24,"name":"富岡小学校校門前","lat":38.1989357,"long":140.7237431,"status":0.0,"note":null,"address":"川崎町大字支倉字川向４９－５","row_num":4244},{"area_id":24,"name":"支倉台団地内","lat":38.2020951,"long":140.7340907,"status":0.0,"note":null,"address":"川崎町支倉台一丁目１－２９","row_num":4245},{"area_id":24,"name":"支倉台団地内（自遊広場前）","lat":38.2013751,"long":140.736965,"status":0.0,"note":null,"address":"川崎町支倉台一丁目１１－２４","row_num":4246},{"area_id":24,"name":"支倉台団地内(こども公園前)","lat":38.1987318,"long":140.7388068,"status":0.0,"note":null,"address":"川崎町支倉台一丁目２１－８","row_num":4247},{"area_id":25,"name":"個人宅地","lat":37.9188146,"long":140.7635636,"status":1.0,"note":null,"address":"丸森町字田町北24-10","row_num":4248},{"area_id":25,"name":"旧オノワ商店向側","lat":37.8650246,"long":140.8289557,"status":1.0,"note":null,"address":"丸森町字町西41","row_num":4249},{"area_id":25,"name":"個人宅地前","lat":37.9104103,"long":140.7623332,"status":1.0,"note":null,"address":"丸森町字山崎前1-1","row_num":4250},{"area_id":25,"name":"ＪＡみやぎ仙南丸森地区本部入口","lat":37.9140638,"long":140.7657881,"status":1.0,"note":null,"address":"丸森町字除27-1","row_num":4251},{"area_id":25,"name":"旧町営鳥屋住宅西側","lat":37.9157834,"long":140.7655145,"status":1.0,"note":null,"address":"丸森町字田町南10-1","row_num":4252},{"area_id":25,"name":"旧ツルハドラッグ西側（道路敷）","lat":37.9097861,"long":140.7650444,"status":1.0,"note":null,"address":"丸森町字花田地内","row_num":4253},{"area_id":25,"name":"個人宅地前","lat":37.9055171,"long":140.7657181,"status":1.0,"note":null,"address":"丸森町字竹谷64-3","row_num":4254},{"area_id":25,"name":"小野建業社資材置場","lat":37.9098303,"long":140.782348,"status":1.0,"note":null,"address":"丸森町字城東6-1","row_num":4255},{"area_id":25,"name":"丸森町役場西北角","lat":37.9117098,"long":140.7669419,"status":1.0,"note":null,"address":"丸森町字鳥屋120","row_num":4256},{"area_id":25,"name":"船山建設北側","lat":37.8972091,"long":140.7693056,"status":1.0,"note":null,"address":"丸森町字銀杏73-1","row_num":4257},{"area_id":25,"name":"個人宅地南","lat":37.8889624,"long":140.7697143,"status":1.0,"note":null,"address":"丸森町字和田西24","row_num":4258},{"area_id":25,"name":"上滝十文字地区花壇（道路敷）","lat":37.8818123,"long":140.7774158,"status":1.0,"note":null,"address":"丸森町字石倉前地内","row_num":4259},{"area_id":25,"name":"八雲神社下ポンプ置場横（道路敷）","lat":37.8939758,"long":140.7773582,"status":1.0,"note":null,"address":"丸森町字天王2-2","row_num":4260},{"area_id":25,"name":"県道と町道羽出庭線の交差点（道路敷）","lat":37.9083825,"long":140.7228512,"status":1.0,"note":null,"address":"丸森町字川田島地内","row_num":4261},{"area_id":25,"name":"欠入コミュニティセンター前（フェンス）","lat":37.884736,"long":140.7111184,"status":1.0,"note":null,"address":"丸森町字欠入上21","row_num":4262},{"area_id":25,"name":"羽出庭ポンプ置場前（道路敷）","lat":37.8999432,"long":140.6772761,"status":1.0,"note":null,"address":"丸森町字深田4-1","row_num":4263},{"area_id":25,"name":"川前防火水槽（フェンス）","lat":37.9031095114,"long":140.6626983642,"status":1.0,"note":null,"address":"丸森町字大巻北22","row_num":4264},{"area_id":25,"name":"山正タクシー営業所北西側（道路敷）","lat":37.9033548,"long":140.7889054,"status":1.0,"note":null,"address":"丸森町金山字下片山171-3","row_num":4265},{"area_id":25,"name":"旧金山駐在所国道向側","lat":37.9042503,"long":140.7966666,"status":1.0,"note":null,"address":"丸森町金山字西新田63-3","row_num":4266},{"area_id":25,"name":"旧金山小学校町道側（フェンス）","lat":37.900972,"long":140.7984148,"status":1.0,"note":null,"address":"丸森町金山字下前川原1","row_num":4267},{"area_id":25,"name":"旧ＪＡ金山支店前国道沿（花壇）","lat":37.8981766,"long":140.7994751,"status":1.0,"note":null,"address":"丸森町金山字町83","row_num":4268},{"area_id":25,"name":"長根小斎線と雉子尾長根線の交差点(道路敷)","lat":37.8863874,"long":140.7990121,"status":1.0,"note":null,"address":"丸森町金山字南新田272-2","row_num":4269},{"area_id":25,"name":"金山一区ポンプ置場横（道路敷）","lat":37.8863874,"long":140.7990121,"status":1.0,"note":null,"address":"丸森町金山字角の内12","row_num":4270},{"area_id":25,"name":"裏区ポンプ置場隣","lat":37.8373349,"long":140.7308456,"status":1.0,"note":null,"address":"丸森町筆甫字宮脇64","row_num":4271},{"area_id":25,"name":"筆甫まちづくりセンター入口（道路敷）","lat":37.8315303,"long":140.7276193,"status":0.0,"note":null,"address":"丸森町筆甫字平舘地内","row_num":4272},{"area_id":25,"name":"個人宅地前","lat":37.8261011,"long":140.7286044,"status":1.0,"note":null,"address":"丸森町筆甫字中井1-4","row_num":4273},{"area_id":25,"name":"個人宅地（自宅下の物置前）","lat":37.8261379,"long":140.7202507,"status":1.0,"note":null,"address":"丸森町筆甫字肱曲12-3","row_num":4274},{"area_id":25,"name":"鷲の平部落集会所前","lat":37.8412913968,"long":140.7701258069,"status":0.0,"note":null,"address":"丸森町筆甫字鷲の平上5","row_num":4275},{"area_id":25,"name":"北山ポンプ置場向側（道路敷）","lat":37.8529108,"long":140.7230122,"status":0.0,"note":null,"address":"丸森町筆甫字北山南地内","row_num":4276},{"area_id":25,"name":"旧川下集乳所（個人宅の下）","lat":37.851115,"long":140.749924,"status":1.0,"note":null,"address":"丸森町筆甫字川下一27-1","row_num":4277},{"area_id":25,"name":"川平天王寺バス停横（道路敷）","lat":37.8013281,"long":140.7384608,"status":0.0,"note":null,"address":"丸森町筆甫字川平一69-2","row_num":4278},{"area_id":25,"name":"下南山荻平集会所裏","lat":37.7797234,"long":140.8007657,"status":0.0,"note":null,"address":"丸森町筆甫字下南山2-5","row_num":4279},{"area_id":25,"name":"青葉コミュニティセンター前（ブロック塀）","lat":37.8337523,"long":140.8342419,"status":0.0,"note":null,"address":"丸森町大内字青葉南16-2","row_num":4280},{"area_id":25,"name":"佐野ポンプ置場前","lat":37.8483972,"long":140.8260626,"status":0.0,"note":null,"address":"丸森町大内字佐野西上106","row_num":4281},{"area_id":25,"name":"中平橋残地（道路敷）","lat":37.8816939,"long":140.819381,"status":0.0,"note":null,"address":"丸森町大内字神明地内","row_num":4282},{"area_id":25,"name":"西向ホース乾燥塔東（道路敷）","lat":37.8750709,"long":140.8147976,"status":0.0,"note":null,"address":"丸森町大内字沼端上地内","row_num":4283},{"area_id":25,"name":"旧大内診療所跡地","lat":37.8650417,"long":140.8277178,"status":0.0,"note":null,"address":"丸森町大内字西畑81-1","row_num":4284},{"area_id":25,"name":"旧大内農協隣り","lat":37.8684067,"long":140.8252901,"status":0.0,"note":null,"address":"丸森町大内字西畑15-2","row_num":4285},{"area_id":25,"name":"大内活性化センター駐車場脇","lat":37.8669607,"long":140.826177,"status":0.0,"note":null,"address":"丸森町大内字町西7","row_num":4286},{"area_id":25,"name":"旧黒佐野分校前石碑横（道路敷）","lat":37.8373656,"long":140.8111044,"status":0.0,"note":null,"address":"丸森町大内字黒佐野103","row_num":4287},{"area_id":25,"name":"農免道路東福田交差点脇（道路敷）","lat":37.8573814,"long":140.8001093,"status":0.0,"note":null,"address":"丸森町大内字東福田地内","row_num":4288},{"area_id":25,"name":"大内山村広場入口（道路敷）","lat":37.8562241,"long":140.817232,"status":0.0,"note":null,"address":"丸森町大内字南平地内","row_num":4289},{"area_id":25,"name":"伊手コミュニティセンター下貯水槽前","lat":37.8989125,"long":140.8278449,"status":0.0,"note":null,"address":"丸森町大内字下梅ケ作地内","row_num":4290},{"area_id":25,"name":"個人宅地（西側）","lat":37.8936647,"long":140.8296168,"status":0.0,"note":null,"address":"丸森町大内字後藤61-1","row_num":4291},{"area_id":25,"name":"小野ガソリンスタンド向側（駐車場）","lat":37.8902002,"long":140.8118979,"status":0.0,"note":null,"address":"丸森町大内字七夕西25-1","row_num":4292},{"area_id":25,"name":"商店隣（梅畑の側）","lat":37.907118,"long":140.8314075,"status":1.0,"note":null,"address":"丸森町小斎字郷ノ目11-1","row_num":4293},{"area_id":25,"name":"旧小斎小学校体育館前（道路敷）","lat":37.9182968,"long":140.8231899,"status":1.0,"note":null,"address":"丸森町小斎字古舘95","row_num":4294},{"area_id":25,"name":"小斎まちづくりセンター南側","lat":37.9188285,"long":140.8217097,"status":1.0,"note":null,"address":"丸森町小斎字山崎51","row_num":4295},{"area_id":25,"name":"六角バス停前（畑）","lat":37.9221393,"long":140.8235207,"status":1.0,"note":null,"address":"丸森町小斎字北向60-2","row_num":4296},{"area_id":25,"name":"北新集会所横","lat":37.9137636,"long":140.8224074,"status":1.0,"note":null,"address":"丸森町小斎字北新96-1","row_num":4297},{"area_id":25,"name":"丸森橋左岸","lat":37.9224321,"long":140.765473,"status":1.0,"note":null,"address":"丸森町舘矢間舘山字坪石地内","row_num":4298},{"area_id":25,"name":"佐々木ストアー向側","lat":37.9292617,"long":140.7626636,"status":1.0,"note":null,"address":"丸森町字大舘一丁目103","row_num":4299},{"area_id":25,"name":"舘矢間小学校北側","lat":37.9242202,"long":140.7724548,"status":1.0,"note":null,"address":"丸森町舘矢間舘山字玉川29-1","row_num":4300},{"area_id":25,"name":"旧舘矢間土地改良区前","lat":37.9235945,"long":140.767823,"status":1.0,"note":null,"address":"丸森町舘矢間館山字坪石32","row_num":4301},{"area_id":25,"name":"個人宅地前","lat":37.9227684,"long":140.7795864,"status":1.0,"note":null,"address":"丸森町舘矢間舘山字西原18","row_num":4302},{"area_id":25,"name":"北丸森ふれあい広場前","lat":37.9418971,"long":140.7723629,"status":1.0,"note":null,"address":"丸森町木沼字堀内166","row_num":4303},{"area_id":25,"name":"セブンイレブン丸森舘矢間店向側","lat":37.9228783,"long":140.7683683,"status":1.0,"note":null,"address":"丸森町舘矢間館山字塚合61","row_num":4304},{"area_id":25,"name":"個人宅地前","lat":37.9419977,"long":140.7618661,"status":1.0,"note":null,"address":"丸森町舘矢間松掛字新薬師堂195","row_num":4305},{"area_id":25,"name":"個人宅地前","lat":37.9317209,"long":140.7306913,"status":1.0,"note":null,"address":"丸森町舘矢間山田字西畑94","row_num":4306},{"area_id":25,"name":"大張分団第３班ポンプ置場西側（道路敷）","lat":37.9380984,"long":140.7026244,"status":1.0,"note":null,"address":"丸森町大張川張字沢尻地内","row_num":4307},{"area_id":25,"name":"大張分団第２班ポンプ置場隣","lat":37.9569228,"long":140.6903895,"status":0.0,"note":null,"address":"丸森町大張大蔵字明神15-3","row_num":4308},{"area_id":25,"name":"大張まちづくりセンター向側","lat":37.9371426,"long":140.6764607,"status":1.0,"note":null,"address":"丸森町大張大蔵字川前39-3","row_num":4309},{"area_id":25,"name":"大張第６区集会所隣（道路敷）","lat":37.9269225,"long":140.6844821,"status":0.0,"note":null,"address":"丸森町大張川張字久保15-3","row_num":4310},{"area_id":25,"name":"大耕農村広場（旧丸森西中学校入口付近）","lat":37.9346645,"long":140.6661509,"status":0.0,"note":null,"address":"丸森町大張川張字宿13-1","row_num":4311},{"area_id":25,"name":"旧伊藤商店南側","lat":37.9370116,"long":140.6734272,"status":1.0,"note":null,"address":"丸森町大張大蔵字台58-1","row_num":4312},{"area_id":25,"name":"国道349号旧耕野小学校方面入口","lat":37.9103445,"long":140.6618164,"status":0.0,"note":null,"address":"丸森町耕野字登花東5-3","row_num":4313},{"area_id":25,"name":"耕野ふるさと交流センター（道路敷）","lat":37.9144677,"long":140.667232,"status":0.0,"note":null,"address":"丸森町耕野字沼65-2地先","row_num":4314},{"area_id":25,"name":"個人宅地（ブロック塀）","lat":37.9140791,"long":140.6487157,"status":0.0,"note":null,"address":"丸森町耕野字大釜西1","row_num":4315},{"area_id":25,"name":"旧ＪＡ耕野支店前","lat":37.921698,"long":140.6444116,"status":0.0,"note":null,"address":"丸森町耕野字鍋堀1-4","row_num":4316},{"area_id":25,"name":"耕野分団第４班ホース乾燥塔脇（道路敷）","lat":37.9243439,"long":140.6526334,"status":0.0,"note":null,"address":"丸森町耕野字新田23","row_num":4317},{"area_id":25,"name":"大黒堂停留所横","lat":37.938215,"long":140.6553266,"status":0.0,"note":null,"address":"丸森町耕野字宮ノ田5-1","row_num":4318}]