[{"area_id":7,"name":"玉川小学校北門脇","lat":38.3107956,"long":141.0076407,"status":0.0,"note":null,"address":"塩竈市玉川二丁目９番１号","row_num":1705},{"area_id":7,"name":"旧塩竈斎場入口フェンス","lat":38.306284,"long":141.003472,"status":0.0,"note":null,"address":"塩竈市袖野田町２６番３号地先","row_num":1706},{"area_id":7,"name":"旧高橋魚屋駐車場フェンス","lat":38.3087805,"long":141.004774,"status":0.0,"note":null,"address":"塩竈市玉川一丁目５番地内","row_num":1707},{"area_id":7,"name":"緑ヶ丘病院駐車場","lat":38.3087805,"long":141.004774,"status":0.0,"note":null,"address":"塩竈市玉川一丁目１２番１０号","row_num":1708},{"area_id":7,"name":"玉川第四公園フェンス","lat":38.3115209,"long":141.0043794,"status":0.0,"note":null,"address":"塩竈市玉川三丁目５番地内","row_num":1709},{"area_id":7,"name":"県道泉塩釜線（赤坂旧道入口角地）","lat":38.3158741,"long":141.008239,"status":0.0,"note":null,"address":"塩竈市赤坂２番地内","row_num":1710},{"area_id":7,"name":"母子沢バス停前空き地","lat":38.3103808,"long":140.999383,"status":0.0,"note":null,"address":"塩竈市母子沢町１６０番１地先","row_num":1711},{"area_id":7,"name":"市営新玉川住宅（たまがわ棟前）","lat":38.3099687,"long":140.9997435,"status":0.0,"note":null,"address":"塩竈市母子沢町１８番３号","row_num":1712},{"area_id":7,"name":"市営大日向住宅(2号棟西側フェンス)","lat":38.3147495,"long":140.9981104,"status":0.0,"note":null,"address":"塩竈市大日向町８番地内","row_num":1713},{"area_id":7,"name":"母子沢そろばん教室前市道フェンス","lat":38.3112019,"long":141.0031191,"status":0.0,"note":null,"address":"塩竈市西玉川町５番２号","row_num":1714},{"area_id":7,"name":"大日向町バス停前法面","lat":38.3147495,"long":140.9981104,"status":0.0,"note":null,"address":"塩竈市大日向町１番地内","row_num":1715},{"area_id":7,"name":"赤坂第二集会所フェンス","lat":38.3165576,"long":141.008761,"status":0.0,"note":null,"address":"塩竈市赤坂１２番３８号","row_num":1716},{"area_id":7,"name":"東北電力高圧線鉄塔前用地","lat":38.3169126,"long":141.0021469,"status":0.0,"note":null,"address":"塩竈市向ケ丘２４番地内","row_num":1717},{"area_id":7,"name":"個人宅地フェンス","lat":38.3181914,"long":141.0040754,"status":0.0,"note":null,"address":"塩竈市月見ケ丘１番４号","row_num":1718},{"area_id":7,"name":"塩釜公園西町側入り口脇（公園用地）","lat":38.3170416,"long":141.0133864,"status":0.0,"note":null,"address":"塩竈市赤坂１４１番地２","row_num":1719},{"area_id":7,"name":"個人宅地ブロック塀","lat":38.3164874,"long":141.0067785,"status":0.0,"note":null,"address":"塩竈市権現堂６番１２号","row_num":1720},{"area_id":7,"name":"泉沢集会所向いﾌﾞﾛｯｸ塀","lat":38.3243336,"long":141.0077249,"status":0.0,"note":null,"address":"塩竈市泉沢町１２番１５号","row_num":1721},{"area_id":7,"name":"泉沢第一公園南側歩道植栽","lat":38.3227087,"long":141.0065616,"status":0.0,"note":null,"address":"塩竈市泉沢町１６番地先","row_num":1722},{"area_id":7,"name":"泉沢調整池フェンス","lat":38.3238348,"long":141.0080826,"status":0.0,"note":null,"address":"塩竈市泉沢町２１番地内","row_num":1723},{"area_id":7,"name":"後楽地区集会所フェンス","lat":38.3274925,"long":141.0039029,"status":0.0,"note":null,"address":"塩竈市後楽町４番３号","row_num":1724},{"area_id":7,"name":"かなえが丘児童遊園地隣駐車場フェンス","lat":38.3283353,"long":141.0049575,"status":0.0,"note":null,"address":"塩竈市清水沢二丁目２６番地内","row_num":1725},{"area_id":7,"name":"市営清水沢住宅３号棟フェンス","lat":38.329104,"long":141.0064307,"status":0.0,"note":null,"address":"塩竈市清水沢二丁目２３番３号","row_num":1726},{"area_id":7,"name":"旧ﾎﾃﾙ「ふみや」前水路用地フェンス","lat":38.3184672,"long":141.0235571,"status":0.0,"note":null,"address":"塩竈市海岸通７番地先","row_num":1727},{"area_id":7,"name":"㈱佐浦フェンス(割烹中長隣）","lat":38.3165256,"long":141.0192667,"status":0.0,"note":null,"address":"塩竈市本町２番１９号","row_num":1728},{"area_id":7,"name":"公民館本町分室南側フェンス","lat":38.3158253,"long":141.0165989,"status":0.0,"note":null,"address":"塩竈市本町８番１号","row_num":1729},{"area_id":7,"name":"第一小学校プール南側フェンス","lat":38.3155275,"long":141.0131788,"status":0.0,"note":null,"address":"塩竈市泉ケ岡１番地内","row_num":1730},{"area_id":7,"name":"旧北日本銀行裏側防護柵","lat":38.3181569,"long":141.0211193,"status":0.0,"note":null,"address":"塩竈市海岸通６番１７号地先","row_num":1731},{"area_id":7,"name":"ピエスZen（アパート）フェンス","lat":38.3197968,"long":141.0182847,"status":0.0,"note":null,"address":"塩竈市宮町９番２１号","row_num":1732},{"area_id":7,"name":"旧㈱東日本香房前市道フェンス","lat":38.3156253,"long":141.0134257,"status":0.0,"note":null,"address":"塩竈市泉ケ岡９番１５地先","row_num":1733},{"area_id":7,"name":"市立病院駐車場フェンス","lat":38.3120234,"long":141.0151919,"status":0.0,"note":null,"address":"塩竈市香津町７番地内","row_num":1734},{"area_id":7,"name":"(株)美の和み東側向いガードレール","lat":38.3103802,"long":141.0124731,"status":0.0,"note":null,"address":"塩竈市白萩町６７番１地先","row_num":1735},{"area_id":7,"name":"遠藤洋品店隣駐車場フェンス","lat":38.3092362,"long":141.0383259,"status":0.0,"note":null,"address":"塩竈市桜ケ丘１１番地先","row_num":1736},{"area_id":7,"name":"個人宅地ブロック塀","lat":38.3055287,"long":141.0126948,"status":0.0,"note":null,"address":"塩竈市南錦町５番９号","row_num":1737},{"area_id":7,"name":"ＪＲ東日本塩釜駅駐輪場フェンス","lat":38.3095544,"long":141.0098722,"status":0.0,"note":null,"address":"塩竈市東玉川町５番地内","row_num":1738},{"area_id":7,"name":"佐浦配送センタ－フェンス","lat":38.3108939,"long":141.0175296,"status":0.0,"note":null,"address":"塩竈市佐浦町２番１２号","row_num":1739},{"area_id":7,"name":"ふれあいエスプ塩竈南側フェンス","lat":38.3096019,"long":141.0104965,"status":0.0,"note":null,"address":"塩竈市東玉川町９番地内","row_num":1740},{"area_id":7,"name":"旧一森商店東側向いガードレール","lat":38.3208917,"long":141.0151613,"status":0.0,"note":null,"address":"塩竈市みのが丘１番地内","row_num":1741},{"area_id":7,"name":"えむ・ながさわ南側フェンス","lat":38.3261274,"long":141.0146323,"status":0.0,"note":null,"address":"塩竈市長沢町５番地先","row_num":1742},{"area_id":7,"name":"個人宅地駐車場フェンス","lat":38.3208917,"long":141.0151613,"status":0.0,"note":null,"address":"塩竈市みのが丘６４番１地先","row_num":1743},{"area_id":7,"name":"個人宅地前市道ガードレール","lat":38.3279544,"long":141.0137359,"status":0.0,"note":null,"address":"塩竈市今宮町１１番２号","row_num":1744},{"area_id":7,"name":"個人宅地前市道ガードレール","lat":38.3284556,"long":141.0140367,"status":0.0,"note":null,"address":"塩竈市今宮町１１番２４号","row_num":1745},{"area_id":7,"name":"塩釜ガス体育館北入口・駐車場脇植栽","lat":38.3265604,"long":141.0128209,"status":0.0,"note":null,"address":"塩竈市今宮町９番地内","row_num":1746},{"area_id":7,"name":"塩釜ガス体育館南側駐車場空地","lat":38.3265604,"long":141.0128209,"status":0.0,"note":null,"address":"塩竈市今宮町９番地内","row_num":1747},{"area_id":7,"name":"清水沢スポーツ公園南側フェンス","lat":38.3299797,"long":141.0076771,"status":0.0,"note":null,"address":"塩竈市清水沢一丁目３７番地内","row_num":1748},{"area_id":7,"name":"個人宅地ブロック塀","lat":38.3280955,"long":141.0090532,"status":0.0,"note":null,"address":"塩竈市清水沢一丁目２８番１１号","row_num":1749},{"area_id":7,"name":"伊保石清水沢一区集会所前ｺﾞﾙﾌ場側ｶﾞｰﾄﾞﾚｰﾙ","lat":38.3356063,"long":141.0102817,"status":0.0,"note":null,"address":"塩竈市字伊保石１４３番地向い","row_num":1750},{"area_id":7,"name":"梅の宮浄水場前ガードレール","lat":38.3382279,"long":141.0131984,"status":0.0,"note":null,"address":"塩竈市字伊保石１９９番地先","row_num":1751},{"area_id":7,"name":"清水沢第二公園フェンス","lat":38.3299797,"long":141.0076771,"status":0.0,"note":null,"address":"塩竈市清水沢三丁目３２番地内","row_num":1752},{"area_id":7,"name":"個人宅地ブロック塀","lat":38.3322317,"long":141.0104086,"status":0.0,"note":null,"address":"塩竈市清水沢四丁目１番２７号","row_num":1753},{"area_id":7,"name":"個人宅地フェンス","lat":38.3338648,"long":141.0061571,"status":0.0,"note":null,"address":"塩竈市清水沢四丁目２２番９号","row_num":1754},{"area_id":7,"name":"千賀の台集会所フェンス","lat":38.3368692,"long":141.0197352,"status":0.0,"note":null,"address":"塩竈市千賀の台一丁目６番５号","row_num":1755},{"area_id":7,"name":"千賀の台公園フェンス","lat":38.3375957,"long":141.0211949,"status":0.0,"note":null,"address":"塩竈市千賀の台二丁目６番地内","row_num":1756},{"area_id":7,"name":"千賀の台三号公園フェンス","lat":38.3387554,"long":141.0182356,"status":0.0,"note":null,"address":"塩竈市千賀の台二丁目１２番地内","row_num":1757},{"area_id":7,"name":"第二小学校北門フェンス","lat":38.3236602,"long":141.0192821,"status":0.0,"note":null,"address":"塩竈市小松崎１０番地内","row_num":1758},{"area_id":7,"name":"梅の宮町内会広場ガードレール","lat":38.3273273,"long":141.017937,"status":0.0,"note":null,"address":"塩竈市梅の宮８番６号隣","row_num":1759},{"area_id":7,"name":"梅の宮神社境内フェンス","lat":38.3267759,"long":141.0184626,"status":0.0,"note":null,"address":"塩竈市梅の宮１５番３０号","row_num":1760},{"area_id":7,"name":"個人宅地ブロック塀","lat":38.324215,"long":141.015745,"status":0.0,"note":null,"address":"塩竈市長沢町８番２８号","row_num":1761},{"area_id":7,"name":"個人宅地前ガードレール","lat":38.3284309,"long":141.0158806,"status":0.0,"note":null,"address":"塩竈市梅の宮１２番１１号","row_num":1762},{"area_id":7,"name":"青葉ケ丘団地北側入口斜面","lat":38.3357753,"long":141.0296767,"status":0.0,"note":null,"address":"塩竈市青葉ケ丘4番地43","row_num":1763},{"area_id":7,"name":"青葉ケ丘団地入口ガードレール","lat":38.3342604,"long":141.0294685,"status":0.0,"note":null,"address":"塩竈市越の浦二丁目２番地内","row_num":1764},{"area_id":7,"name":"個人宅地前市道ガードレール","lat":38.3335584,"long":141.0255257,"status":0.0,"note":null,"address":"塩竈市字庚塚２１０番地先","row_num":1765},{"area_id":7,"name":"藤倉児童館フェンス","lat":38.3257286,"long":141.0276982,"status":0.0,"note":null,"address":"塩竈市藤倉二丁目２番１２号","row_num":1766},{"area_id":7,"name":"塩釜市社会福祉協議会東側フェンス","lat":38.323564,"long":141.0265501,"status":0.0,"note":null,"address":"塩竈市北浜四丁目６番５２号","row_num":1767},{"area_id":7,"name":"保健センター前花壇","lat":38.3241696,"long":141.0283056,"status":0.0,"note":null,"address":"塩竈市北浜四丁目８番１３号","row_num":1768},{"area_id":7,"name":"個人宅地フェンス","lat":38.3259679,"long":141.0248671,"status":0.0,"note":null,"address":"塩竈市藤倉一丁目１０番２号","row_num":1769},{"area_id":7,"name":"藤倉第二ポンプ場フェンス","lat":38.326426,"long":141.0321329,"status":0.0,"note":null,"address":"塩竈市藤倉三丁目１番地内","row_num":1770},{"area_id":7,"name":"ＪＲ東日本東塩釜駅裏花壇","lat":38.326426,"long":141.0321329,"status":0.0,"note":null,"address":"塩竈市藤倉三丁目７番地内","row_num":1771},{"area_id":7,"name":"杉の入小学校前ガードレール","lat":38.3312983,"long":141.0351134,"status":0.0,"note":null,"address":"塩竈市杉の入一丁目１９番１号","row_num":1772},{"area_id":7,"name":"第二中学校グランドフェンス","lat":38.3314902,"long":141.0297113,"status":0.0,"note":null,"address":"塩竈市楓町二丁目１０番地内","row_num":1773},{"area_id":7,"name":"杉の入公園フェンス","lat":38.332739,"long":141.0335433,"status":0.0,"note":null,"address":"塩竈市杉の入二丁目１４番地内","row_num":1774},{"area_id":7,"name":"新浜町浄水場フェンス","lat":38.3268805,"long":141.0387039,"status":0.0,"note":null,"address":"塩竈市新浜町一丁目１５番１号","row_num":1775},{"area_id":7,"name":"新浜町集会所前フェンス","lat":38.3319381,"long":141.0444763,"status":0.0,"note":null,"address":"塩竈市新浜町二丁目２３番２１号","row_num":1776},{"area_id":7,"name":"永佐化工（株）仙台営業所フェンス","lat":38.3309323,"long":141.0387161,"status":0.0,"note":null,"address":"塩竈市新浜町二丁目２番３２－２号","row_num":1777},{"area_id":7,"name":"宮城県トラック協会南側空地","lat":38.3292049,"long":141.0455476,"status":0.0,"note":null,"address":"塩竈市新浜町三丁目１番２３号隣","row_num":1778},{"area_id":7,"name":"仲卸市場バス停隣(株）マルハニチロ物流フェンス","lat":38.3265096,"long":141.0396271,"status":0.0,"note":null,"address":"塩竈市新浜町一丁目１９番地内","row_num":1779},{"area_id":7,"name":"市営梅の宮住宅前フェンス","lat":38.3297941,"long":141.0114456,"status":0.0,"note":null,"address":"塩竈市字庚塚１番地内","row_num":1780},{"area_id":7,"name":"松陽台公園フェンス","lat":38.3308749,"long":141.0250273,"status":0.0,"note":null,"address":"塩竈市松陽台一丁目１８番地内","row_num":1781},{"area_id":7,"name":"松陽台児童公園フェンス","lat":38.31437,"long":141.0220607,"status":0.0,"note":null,"address":"塩竈市松陽台三丁目１５番地内","row_num":1782},{"area_id":7,"name":"松陽台集会所フェンス","lat":38.31437,"long":141.0220607,"status":0.0,"note":null,"address":"塩竈市松陽台二丁目２番６号","row_num":1783},{"area_id":7,"name":"北浜コミュニティセンターフェンス","lat":38.32089,"long":141.0238898,"status":0.0,"note":null,"address":"塩竈市北浜一丁目２番地内","row_num":1784},{"area_id":7,"name":"髙橋商事有料駐車場フェンス","lat":38.32089,"long":141.0238898,"status":0.0,"note":null,"address":"塩竈市北浜一丁目１番地内","row_num":1785},{"area_id":7,"name":"ダブルストーン南側水路用地フェンス","lat":38.32089,"long":141.0238898,"status":0.0,"note":null,"address":"塩竈市北浜一丁目１２番地内","row_num":1786},{"area_id":7,"name":"宮城中央ヤクルト販売(株）塩釜センターブロック塀","lat":38.31437,"long":141.0220607,"status":0.0,"note":null,"address":"塩竈市北浜三丁目１番地内","row_num":1787},{"area_id":7,"name":"県営塩釜北浜住宅北側向い空地","lat":38.3240055,"long":141.0230707,"status":0.0,"note":null,"address":"塩竈市北浜三丁目９番地内","row_num":1788},{"area_id":7,"name":"市役所本庁正面駐車場前フェンス","lat":38.3144561,"long":141.0228039,"status":0.0,"note":null,"address":"塩竈市旭町１番１号","row_num":1789},{"area_id":7,"name":"舟戸旧踏切公園フェンス","lat":38.3131036,"long":141.0215737,"status":0.0,"note":null,"address":"塩竈市旭町４番地内","row_num":1790},{"area_id":7,"name":"加藤税理士事務所前ガードレール","lat":38.3132772,"long":141.0204639,"status":0.0,"note":null,"address":"塩竈市旭町１４番２号地先","row_num":1791},{"area_id":7,"name":"ベルコシティホール塩釜駐車場フェンス","lat":38.3131036,"long":141.0215737,"status":0.0,"note":null,"address":"塩竈市旭町１８番地内","row_num":1792},{"area_id":7,"name":"個人宅地ブロック塀","lat":38.3147419,"long":141.0246921,"status":0.0,"note":null,"address":"塩竈市尾島町１２番２８号","row_num":1793},{"area_id":7,"name":"鈴平合資会社駐車場フェンス","lat":38.3169858,"long":141.0260339,"status":0.0,"note":null,"address":"塩竈市尾島町２７番２７号","row_num":1794},{"area_id":7,"name":"ホーマック西側フェンス","lat":38.3184371,"long":141.0245135,"status":0.0,"note":null,"address":"塩竈市海岸通１５番地内","row_num":1795},{"area_id":7,"name":"寒風沢桟橋前","lat":38.3374328,"long":141.1184685,"status":0.0,"note":null,"address":"塩竈市浦戸寒風沢字湊地内","row_num":1796},{"area_id":7,"name":"朴島集会所前","lat":38.3511073,"long":141.1241194,"status":0.0,"note":null,"address":"塩竈市浦戸野々島字朴島宅地内","row_num":1797},{"area_id":7,"name":"野々島桟橋前","lat":38.3378256,"long":141.1068214,"status":0.0,"note":null,"address":"塩竈市浦戸野々島字河岸地内","row_num":1798},{"area_id":7,"name":"宮城県漁業協同組合塩釜地区支所浦戸出張所前","lat":38.3352604,"long":141.0904587,"status":0.0,"note":null,"address":"塩竈市浦戸桂島字庵寺地内","row_num":1799},{"area_id":7,"name":"石浜郵便局付近ガードレール","lat":38.3337751,"long":141.1011206,"status":0.0,"note":null,"address":"塩竈市浦戸石浜字河岸地内","row_num":1800},{"area_id":7,"name":"医師会館北側公園フェンス","lat":38.309087,"long":141.0189186,"status":0.0,"note":null,"address":"塩竈市錦町７番１０号","row_num":1801},{"area_id":7,"name":"第三小学校プール側入口付近","lat":38.3078622,"long":141.0203088,"status":0.0,"note":null,"address":"塩竈市花立町２３番２号地先","row_num":1802},{"area_id":7,"name":"遠藤レディスクリニック向いＮＴＴブロック塀","lat":38.3095642,"long":141.0202407,"status":0.0,"note":null,"address":"塩竈市花立町１４番２９号","row_num":1803},{"area_id":7,"name":"旧仙台法務局塩竈支局跡地駐車場","lat":38.3082594,"long":141.0209087,"status":0.0,"note":null,"address":"塩竈市花立町６番地内","row_num":1804},{"area_id":7,"name":"個人宅地宅向いフェンス","lat":38.3082594,"long":141.0209087,"status":0.0,"note":null,"address":"塩竈市花立町３番地内","row_num":1805},{"area_id":7,"name":"中央ポンプ場フェンス","lat":38.3145347,"long":141.028129,"status":0.0,"note":null,"address":"塩竈市新富町１番１５号","row_num":1806},{"area_id":7,"name":"カトリック塩釜教会フェンス","lat":38.3125586,"long":141.0254536,"status":0.0,"note":null,"address":"塩竈市新富町１５番１号","row_num":1807},{"area_id":7,"name":"サトウハイツ付近道路フェンス","lat":38.3122375,"long":141.025195,"status":0.0,"note":null,"address":"塩竈市新富町14番4号地先","row_num":1808},{"area_id":7,"name":"ファミリーマート向い駐車場フェンス","lat":38.3136488,"long":141.0248445,"status":0.0,"note":null,"address":"塩竈市新富町８番２１号隣","row_num":1809},{"area_id":7,"name":"旧市水道部庁舎前花壇","lat":38.3115279,"long":141.0224484,"status":0.0,"note":null,"address":"塩竈市新富町２１番２３号","row_num":1810},{"area_id":7,"name":"港町集会所フェンス","lat":38.3165315,"long":141.028128,"status":0.0,"note":null,"address":"塩竈市港町二丁目９番７号","row_num":1811},{"area_id":7,"name":"プリンス食品北側植込み","lat":38.3168629,"long":141.0317654,"status":0.0,"note":null,"address":"塩竈市港町二丁目１４番１３号","row_num":1812},{"area_id":7,"name":"市営貞山住宅２号棟東側フェンス","lat":38.3149201,"long":141.0379055,"status":0.0,"note":null,"address":"塩竈市貞山通二丁目６番９号","row_num":1813},{"area_id":7,"name":"第二管区保安本部向い市道ガードレール","lat":38.3119737,"long":141.0376258,"status":0.0,"note":null,"address":"塩竈市貞山通三丁目５番地内","row_num":1814},{"area_id":7,"name":"中の島児童公園南側フェンス","lat":38.3148309,"long":141.0317852,"status":0.0,"note":null,"address":"塩竈市中の島１番地内","row_num":1815},{"area_id":7,"name":"天満崎第三公園東側道路法面","lat":38.3115043,"long":141.0315488,"status":0.0,"note":null,"address":"塩竈市舟入一丁目10番地4","row_num":1816},{"area_id":7,"name":"県営塩釜天満崎住宅入口付近ガードレール","lat":38.3099866,"long":141.031119,"status":0.0,"note":null,"address":"塩竈市舟入二丁目２番地内","row_num":1817},{"area_id":7,"name":"牛生町公園法面","lat":38.3066223,"long":141.0323418,"status":0.0,"note":null,"address":"塩竈市18番地49","row_num":1818},{"area_id":7,"name":"若芳荘敷地向いフェンス","lat":38.3068723,"long":141.0319373,"status":0.0,"note":null,"address":"塩竈市牛生町４７番８地先","row_num":1819},{"area_id":7,"name":"個人宅地ブロック塀","lat":38.3066688,"long":141.0306737,"status":0.0,"note":null,"address":"塩竈市牛生町１７番１号","row_num":1820},{"area_id":7,"name":"塩竈消防団東部分団機械器具置場西側ガードレール","lat":38.3049691,"long":141.0329221,"status":0.0,"note":null,"address":"塩竈市芦畔町８番地内","row_num":1821},{"area_id":10,"name":"増田保育所東側塀","lat":38.1671596,"long":140.8877845,"status":0.0,"note":null,"address":"名取市増田一丁目８番３３号","row_num":2154},{"area_id":10,"name":"名取駅東口有料駐車場東側","lat":38.1755987,"long":140.8846444,"status":0.0,"note":null,"address":"名取市増田四丁目１３番街区内","row_num":2155},{"area_id":10,"name":"杜すこやか公園西側","lat":38.1630745,"long":140.9006353,"status":0.0,"note":null,"address":"名取市杜せきのした五丁目街区内","row_num":2156},{"area_id":10,"name":"名取市役所庁舎地内北側","lat":38.1718094,"long":140.8924669,"status":0.0,"note":null,"address":"名取市増田字柳田８０番地","row_num":2157},{"area_id":10,"name":"名取市民体育館南側県道沿","lat":38.170701,"long":140.8939297,"status":0.0,"note":null,"address":"名取市増田字柳田３９０番地","row_num":2158},{"area_id":10,"name":"増田公園西側","lat":38.1712168,"long":140.8864953,"status":0.0,"note":null,"address":"名取市増田三丁目３番街区内","row_num":2159},{"area_id":10,"name":"個人宅側塀","lat":38.1676412,"long":140.8987891,"status":0.0,"note":null,"address":"名取市増田字後島南４８番地","row_num":2160},{"area_id":10,"name":"ホテルルートイン名取交差点南東角","lat":38.1663759,"long":140.8915619,"status":0.0,"note":null,"address":"名取市増田字関下３７番地６","row_num":2161},{"area_id":10,"name":"名取市消防署西側塀","lat":38.1745471,"long":140.8895346,"status":0.0,"note":null,"address":"名取市増田五丁目１８番３２号","row_num":2162},{"area_id":10,"name":"増田体育館正面入口","lat":38.1764901,"long":140.8883727,"status":0.0,"note":null,"address":"名取市増田五丁目１５番８号","row_num":2163},{"area_id":10,"name":"個人宅西側塀","lat":38.1773673,"long":140.8861213,"status":0.0,"note":null,"address":"名取市増田七丁目１番４号","row_num":2164},{"area_id":10,"name":"個人宅東側塀","lat":38.1753186,"long":140.8833628,"status":0.0,"note":null,"address":"名取市増田四丁目１１番１６号","row_num":2165},{"area_id":10,"name":"個人所有アパート東側","lat":38.1743822,"long":140.8852526,"status":0.0,"note":null,"address":"名取市増田四丁目６番２号","row_num":2166},{"area_id":10,"name":"増田六丁目１号公園西側","lat":38.2490552,"long":140.9592527,"status":0.0,"note":null,"address":"名取市増田六丁目１番街区内","row_num":2167},{"area_id":10,"name":"個人宅南側塀","lat":38.1801464,"long":140.8861519,"status":0.0,"note":null,"address":"名取市増田九丁目１番５０号","row_num":2168},{"area_id":10,"name":"スナック浜街道南側市道沿","lat":38.1818519,"long":140.8883197,"status":0.0,"note":null,"address":"名取市上余田字千刈田９７８番地３先","row_num":2169},{"area_id":10,"name":"千刈田四号公園北側塀","lat":38.1875938,"long":140.8861575,"status":0.0,"note":null,"address":"名取市上余田字千刈田５９０番地４","row_num":2170},{"area_id":10,"name":"天神社東側","lat":38.1893213,"long":140.8843459,"status":0.0,"note":null,"address":"名取市上余田字市坪４１番地","row_num":2171},{"area_id":10,"name":"個人宅東側塀","lat":38.1867456,"long":140.8850438,"status":0.0,"note":null,"address":"名取市上余田字市坪１５３番地","row_num":2172},{"area_id":10,"name":"個人宅東側塀","lat":38.184438,"long":140.8852073,"status":0.0,"note":null,"address":"名取市上余田字市坪３４０番地","row_num":2173},{"area_id":10,"name":"個人宅前市道沿","lat":38.1811745,"long":140.8933077,"status":0.0,"note":null,"address":"名取市上余田字大徳３６０番地２先","row_num":2174},{"area_id":10,"name":"個人宅地北側","lat":38.1764123,"long":140.9034939,"status":0.0,"note":null,"address":"名取市下余田字中荷４１３番地２","row_num":2175},{"area_id":10,"name":"㈱バイタルネット北側塀","lat":38.173216,"long":140.8983676,"status":0.0,"note":null,"address":"名取市下余田字鹿島１０番地","row_num":2176},{"area_id":10,"name":"個人宅南側","lat":38.1747302,"long":140.9052364,"status":0.0,"note":null,"address":"名取市下余田字中荷４３６番地","row_num":2177},{"area_id":10,"name":"下余田低温農業倉庫東側フェンス","lat":38.1791058,"long":140.9001234,"status":0.0,"note":null,"address":"名取市下余田字飯塚２６７番地１","row_num":2178},{"area_id":10,"name":"個人宅西側塀","lat":38.1783162,"long":140.908356,"status":0.0,"note":null,"address":"名取市下余田字成田５１２番地","row_num":2179},{"area_id":10,"name":"春ウイメンズクリニック前市道沿","lat":38.1825802,"long":140.8760739,"status":0.0,"note":null,"address":"名取市田高字南２７番地１先","row_num":2180},{"area_id":10,"name":"田高公会堂東側","lat":38.1865195,"long":140.8744934,"status":0.0,"note":null,"address":"名取市田高字神明１８７番地１","row_num":2181},{"area_id":10,"name":"田高水源井西側","lat":38.1859253,"long":140.8760844,"status":0.0,"note":null,"address":"名取市田高字清水２７９番地２","row_num":2182},{"area_id":10,"name":"齋藤自動車交差点東南角","lat":38.1827402,"long":140.8781439,"status":0.0,"note":null,"address":"名取市田高字南４７２番地１","row_num":2183},{"area_id":10,"name":"増田西公民館南側","lat":38.1737238,"long":140.8720502,"status":0.0,"note":null,"address":"名取市手倉田字堰根265番地１","row_num":2184},{"area_id":10,"name":"サッポロビール南側駐車場","lat":38.1741274,"long":140.8794752,"status":0.0,"note":null,"address":"名取市手倉田字八幡６１９番地","row_num":2185},{"area_id":10,"name":"個人宅南側塀","lat":38.1728099,"long":140.8780908,"status":0.0,"note":null,"address":"名取市手倉田字八幡１０７番地５","row_num":2186},{"area_id":10,"name":"なとり第２幼稚園北側塀","lat":38.1698631,"long":140.8741426,"status":0.0,"note":null,"address":"名取市手倉田字諏訪２７６番地","row_num":2187},{"area_id":10,"name":"名取市消防手倉田出張所東側","lat":38.1694668,"long":140.8758947,"status":0.0,"note":null,"address":"名取市手倉田字諏訪５５９番地２","row_num":2188},{"area_id":10,"name":"手倉田公園東側","lat":38.1696027,"long":140.8800428,"status":0.0,"note":null,"address":"名取市大手町五丁目２番地","row_num":2189},{"area_id":10,"name":"手倉田くじら保育園西側塀","lat":38.1679739,"long":140.8811647,"status":0.0,"note":null,"address":"名取市大手町二丁目２番地５","row_num":2190},{"area_id":10,"name":"丹野小児科駐車場南側塀","lat":38.1645077,"long":140.8767426,"status":0.0,"note":null,"address":"名取市大手町三丁目６１７番地","row_num":2191},{"area_id":10,"name":"大手町四丁目公園北側塀","lat":38.1670981,"long":140.8775543,"status":0.0,"note":null,"address":"名取市大手町四丁目１７番地","row_num":2192},{"area_id":10,"name":"大手町六丁目公園東側塀","lat":38.1707062,"long":140.8777393,"status":0.0,"note":null,"address":"名取市大手町六丁目８番地","row_num":2193},{"area_id":10,"name":"平方公園北側㈲高橋園樹東側","lat":38.1630209,"long":140.8817137,"status":0.0,"note":null,"address":"名取市小山一丁目１番街区内","row_num":2194},{"area_id":10,"name":"小山２号公園北側","lat":38.1633327,"long":140.8795438,"status":0.0,"note":null,"address":"名取市小山三丁目１番街区内","row_num":2195},{"area_id":10,"name":"市営箱塚団地１号棟南側西端","lat":38.1584704,"long":140.8708878,"status":0.0,"note":null,"address":"名取市箱塚二丁目5番7号","row_num":2196},{"area_id":10,"name":"箱塚公園東側","lat":38.1618355,"long":140.8756198,"status":0.0,"note":null,"address":"名取市箱塚一丁目７番街区内","row_num":2197},{"area_id":10,"name":"箱塚堤公園東側","lat":38.1599743,"long":140.8722477,"status":0.0,"note":null,"address":"名取市箱塚一丁目１４番街区内","row_num":2198},{"area_id":10,"name":"箱塚調整池東側フェンス","lat":38.1580534,"long":140.8698649,"status":0.0,"note":null,"address":"名取市箱塚二丁目１番街区内","row_num":2199},{"area_id":10,"name":"旧市営住宅名取団地南側敷地","lat":38.1595728,"long":140.8787661,"status":0.0,"note":null,"address":"名取市名取が丘一丁目８番街区南側道路沿い","row_num":2200},{"area_id":10,"name":"名取が丘保育所駐車場西側","lat":38.1570469,"long":140.8804661,"status":0.0,"note":null,"address":"名取市名取が丘二丁目６番１号","row_num":2201},{"area_id":10,"name":"河北新報名取が丘販売店前市道沿","lat":38.1529934,"long":140.8754628,"status":0.0,"note":null,"address":"名取市名取が丘三丁目２２番９号先","row_num":2202},{"area_id":10,"name":"名取が丘四丁目中央公園南側フェンス","lat":38.1580176,"long":140.8748301,"status":0.0,"note":null,"address":"名取市名取が丘四丁目７番街区内","row_num":2203},{"area_id":10,"name":"手倉田山公園南側","lat":38.159267,"long":140.8750943,"status":0.0,"note":null,"address":"名取市名取市名取が丘四丁目２６番街区内","row_num":2204},{"area_id":10,"name":"名取が丘公民館東側塀","lat":38.1557713,"long":140.8750273,"status":0.0,"note":null,"address":"名取市名取が丘三丁目５番３号","row_num":2205},{"area_id":10,"name":"個人宅北側市道沿","lat":38.1559804,"long":140.8671025,"status":0.0,"note":null,"address":"名取市名取が丘五丁目２３番１６号先","row_num":2206},{"area_id":10,"name":"市営住宅小豆島住宅南側公園東側","lat":38.156945,"long":140.8690223,"status":0.0,"note":null,"address":"名取市箱塚二丁目７番街区内","row_num":2207},{"area_id":10,"name":"不二が丘小学校北側塀","lat":38.1548306,"long":140.8710122,"status":0.0,"note":null,"address":"名取市名取が丘六丁目１１番１号","row_num":2208},{"area_id":10,"name":"市営住宅閖上中央第１団地西側","lat":38.178588,"long":140.947197,"status":1.0,"note":null,"address":"名取市閖上中央一丁目２２番地","row_num":2209},{"area_id":10,"name":"個人宅北側塀","lat":38.1787351,"long":140.931301,"status":0.0,"note":null,"address":"名取市小塚原字田中６番地","row_num":2210},{"area_id":10,"name":"市営住宅閖上中央第２団地東側","lat":38.1768642,"long":140.9457202,"status":1.0,"note":null,"address":"名取市閖上中央二丁目６番地","row_num":2211},{"area_id":10,"name":"閖上保育所西側","lat":38.1799758,"long":140.9418134,"status":0.0,"note":null,"address":"名取市閖上西二丁目11番地","row_num":2212},{"area_id":10,"name":"牛野消防ポンプ積載車車庫北西角","lat":38.1668562,"long":140.9232377,"status":0.0,"note":null,"address":"名取市牛野字内海265番地４","row_num":2213},{"area_id":10,"name":"法徳寺境内西側塀","lat":38.1727927,"long":140.9165826,"status":0.0,"note":null,"address":"名取市大曲字中小路地１７番地","row_num":2214},{"area_id":10,"name":"高柳地区集会所西側","lat":38.1727927,"long":140.9165826,"status":0.0,"note":null,"address":"名取市大曲字圭田２５０番地１","row_num":2215},{"area_id":10,"name":"高柳バス停留所沿","lat":38.1778192,"long":140.9259615,"status":0.0,"note":null,"address":"名取市高柳字辻２２４番地４","row_num":2216},{"area_id":10,"name":"市営住宅高柳東団地西側","lat":38.1792342,"long":140.925221,"status":0.0,"note":null,"address":"名取市高柳字辻１５６番地１","row_num":2217},{"area_id":10,"name":"下増田公民館北側","lat":38.1581288,"long":140.9090091,"status":0.0,"note":null,"address":"名取市美田園七丁目２３番地１","row_num":2218},{"area_id":10,"name":"個人宅前畑南側","lat":38.1646721,"long":140.9071842,"status":0.0,"note":null,"address":"名取市下増田字袋９番地１","row_num":2219},{"area_id":10,"name":"個人宅畑南側","lat":38.1624136,"long":140.910301,"status":0.0,"note":null,"address":"名取市下増田字六角前２７番地１","row_num":2220},{"area_id":10,"name":"個人宅前南側","lat":38.1556289,"long":140.9018713,"status":0.0,"note":null,"address":"名取市下増田字土手西１４番地","row_num":2221},{"area_id":10,"name":"個人宅前畑東側","lat":38.1485825,"long":140.9152531,"status":0.0,"note":null,"address":"名取市杉ケ袋字横手２番地６","row_num":2222},{"area_id":10,"name":"杉北橋西側（法雲寺東側交差点角）","lat":38.1529079,"long":140.9225957,"status":1.0,"note":null,"address":"名取市杉ケ袋字杉北89番地3","row_num":2223},{"area_id":10,"name":"美田園中央公園南側道路沿","lat":38.1610062,"long":140.9047447,"status":0.0,"note":null,"address":"名取市美田園八丁目地内","row_num":2224},{"area_id":10,"name":"風の音公園東側","lat":38.1584087,"long":140.9133993,"status":0.0,"note":null,"address":"名取市美田園六丁目地内","row_num":2225},{"area_id":10,"name":"市営住宅美田園北団地南西角","lat":38.1613269,"long":140.9202261,"status":0.0,"note":null,"address":"名取市美田園北１７番地１","row_num":2226},{"area_id":10,"name":"美田園ふれあい公園北側フェンス沿","lat":38.1566327,"long":140.9254656,"status":0.0,"note":null,"address":"名取市美田園三丁目地内（仙台空港鉄道線沿）","row_num":2227},{"area_id":10,"name":"第一貨物㈱仙台南支店西側フェンス","lat":38.1624516,"long":140.8854307,"status":0.0,"note":null,"address":"名取市飯野坂二丁目１番２号","row_num":2228},{"area_id":10,"name":"ファミール５５駐車場東側ガード","lat":38.1624643,"long":140.8835248,"status":0.0,"note":null,"address":"名取市飯野坂四丁目４番３号向","row_num":2229},{"area_id":10,"name":"土府公園西側","lat":38.1610813,"long":140.8879298,"status":0.0,"note":null,"address":"名取市飯野坂二丁目５番","row_num":2230},{"area_id":10,"name":"飯野坂中央公園南側フェンス","lat":38.1580944,"long":140.8857157,"status":0.0,"note":null,"address":"名取市飯野坂六丁目７番街区内","row_num":2231},{"area_id":10,"name":"個人宅東側塀","lat":38.1592866,"long":140.8839071,"status":0.0,"note":null,"address":"名取市飯野坂六丁目１番２号","row_num":2232},{"area_id":10,"name":"マルセコーポ西側フェンス","lat":38.1559239,"long":140.8842254,"status":0.0,"note":null,"address":"名取市飯野坂六丁目５番５号","row_num":2233},{"area_id":10,"name":"個人宅向北側フェンス","lat":38.1550826,"long":140.8802711,"status":0.0,"note":null,"address":"名取市飯野坂七丁目５番７号","row_num":2234},{"area_id":10,"name":"個人宅東側フェンス","lat":38.1539727,"long":140.882859,"status":0.0,"note":null,"address":"名取市植松一丁目１番１４号","row_num":2235},{"area_id":10,"name":"植松東集会所西側塀","lat":38.1538796,"long":140.8892142,"status":0.0,"note":null,"address":"名取市植松字入生３５４番地１１","row_num":2236},{"area_id":10,"name":"個人所有宅地東側塀","lat":38.1506079,"long":140.8824626,"status":0.0,"note":null,"address":"名取市植松三丁目１番２号","row_num":2237},{"area_id":10,"name":"個人宅西側","lat":38.1467498,"long":140.8799957,"status":0.0,"note":null,"address":"名取市植松三丁目３番１２号","row_num":2238},{"area_id":10,"name":"館腰駅西口駐車場正面","lat":38.1438199,"long":140.877896,"status":0.0,"note":null,"address":"名取市植松四丁目１７番街区内","row_num":2239},{"area_id":10,"name":"南前田２号公園北側ガードパイプ","lat":38.1418754,"long":140.8788922,"status":0.0,"note":null,"address":"名取市植松四丁目１９番街区内","row_num":2240},{"area_id":10,"name":"本郷公園南側フェンス","lat":38.1302601,"long":140.8765127,"status":0.0,"note":null,"address":"名取市本郷字大門66番地７","row_num":2241},{"area_id":10,"name":"高橋自動車南側市道沿","lat":38.1367111,"long":140.872674,"status":0.0,"note":null,"address":"名取市本郷字東六軒１７４番地先","row_num":2242},{"area_id":10,"name":"焼野公園西側フェンス","lat":38.1328538,"long":140.877415,"status":0.0,"note":null,"address":"名取市本郷字焼野203番地19","row_num":2243},{"area_id":10,"name":"本郷小規模保育所西側塀","lat":38.1295399,"long":140.8796707,"status":0.0,"note":null,"address":"名取市本郷字矢口８４番地","row_num":2244},{"area_id":10,"name":"個人宅畑西側","lat":38.1210738,"long":140.8791962,"status":0.0,"note":null,"address":"名取市堀内字鶴７３番地１","row_num":2245},{"area_id":10,"name":"個人宅南側畑","lat":38.1217162,"long":140.8811402,"status":0.0,"note":null,"address":"名取市堀内字鶴１６３番地１","row_num":2246},{"area_id":10,"name":"個人宅西側塀","lat":38.1180789,"long":140.8791218,"status":0.0,"note":null,"address":"名取市堀内字梅２６５番地１","row_num":2247},{"area_id":10,"name":"個人宅南側田","lat":38.1169001,"long":140.880494,"status":0.0,"note":null,"address":"名取市堀内字梅７９番地１","row_num":2248},{"area_id":10,"name":"北目原集会所前西側","lat":38.1343821,"long":140.8577134,"status":0.0,"note":null,"address":"名取市愛島北目字上原１番地","row_num":2249},{"area_id":10,"name":"個人宅東側畑","lat":38.1355357,"long":140.8456195,"status":0.0,"note":null,"address":"名取市愛島北目字八幡前２番地１","row_num":2250},{"area_id":10,"name":"個人宅前畑南側","lat":38.1386924,"long":140.8427267,"status":0.0,"note":null,"address":"名取市愛島北目字柳沢４５番地","row_num":2251},{"area_id":10,"name":"ゴミ集積所付近","lat":38.1412497,"long":140.847407,"status":0.0,"note":null,"address":"名取市愛島北目字内堀子１番地１","row_num":2252},{"area_id":10,"name":"個人宅東側","lat":38.1427268,"long":140.8489147,"status":0.0,"note":null,"address":"名取市愛島北目字山崎２０番地","row_num":2253},{"area_id":10,"name":"個人宅北側市道沿","lat":38.1457983,"long":140.8489513,"status":0.0,"note":null,"address":"名取市愛島笠島字西表前１３番地先","row_num":2254},{"area_id":10,"name":"愛島小学校南側駐車場","lat":38.1507326,"long":140.848457,"status":0.0,"note":null,"address":"名取市愛島笠島字東蔵神３４番地","row_num":2255},{"area_id":10,"name":"個人宅南側市道沿","lat":38.15963,"long":140.8409044,"status":0.0,"note":null,"address":"名取市愛島笠島字北南沢４８番地５先","row_num":2256},{"area_id":10,"name":"個人宅東側市道沿","lat":38.1615931,"long":140.8492146,"status":0.0,"note":null,"address":"名取市愛島笠島字北台２番地１","row_num":2257},{"area_id":10,"name":"個人宅前休耕田","lat":38.1559058,"long":140.8509407,"status":0.0,"note":null,"address":"名取市愛島笠島字北鳥井崎２３番地先","row_num":2258},{"area_id":10,"name":"ホームセンタームサシ名取店東側市道沿","lat":38.1481093,"long":140.8685335,"status":0.0,"note":null,"address":"名取市愛島小豆島字後田地内","row_num":2259},{"area_id":10,"name":"愛島の郷公園北東方向フェンス（道路向き）","lat":38.1571408,"long":140.8566698,"status":0.0,"note":null,"address":"名取市愛島郷二丁目１７番地内","row_num":2260},{"area_id":10,"name":"個人宅南側塀","lat":38.1496929,"long":140.8635844,"status":0.0,"note":null,"address":"名取市愛島小豆島字松崎５番地２","row_num":2261},{"area_id":10,"name":"個人宅南側塀","lat":38.1499271,"long":140.8692097,"status":0.0,"note":null,"address":"名取市愛島小豆島字島２８番地","row_num":2262},{"area_id":10,"name":"清水峯神社境内入口南","lat":38.151214,"long":140.8747927,"status":0.0,"note":null,"address":"名取市愛島小豆島字清水坂２７番地","row_num":2263},{"area_id":10,"name":"あいの杜公園東南角","lat":38.1547649,"long":140.8628469,"status":0.0,"note":null,"address":"名取市愛の杜二丁目７１番地","row_num":2264},{"area_id":10,"name":"ヨークベニマル愛島店南西角","lat":38.1577847,"long":140.8659222,"status":0.0,"note":null,"address":"名取市愛の杜一丁目１番地７","row_num":2265},{"area_id":10,"name":"個人宅南側","lat":38.1632174,"long":140.8582852,"status":0.0,"note":null,"address":"名取市愛島塩手字前野田７５番地１","row_num":2266},{"area_id":10,"name":"塩手集会所","lat":38.165625,"long":140.8578303,"status":0.0,"note":null,"address":"名取市愛島塩手字東野田１１番地１","row_num":2267},{"area_id":10,"name":"個人宅向側倉庫西側","lat":38.1667226,"long":140.8487173,"status":0.0,"note":null,"address":"名取市愛島塩手字仮宿９３－１道路向","row_num":2268},{"area_id":10,"name":"個人宅東側塀","lat":38.1701731,"long":140.8521131,"status":0.0,"note":null,"address":"名取市愛島塩手字北野６９番地４","row_num":2269},{"area_id":10,"name":"愛島台南公園南側フェンス東端","lat":38.1432834,"long":140.8186225,"status":0.0,"note":null,"address":"名取市愛島台二丁目１４番地内","row_num":2270},{"area_id":10,"name":"aura愛島台敷地内","lat":38.1457944,"long":140.8182082,"status":0.0,"note":null,"address":"名取市愛島台六丁目１番地１","row_num":2271},{"area_id":10,"name":"元中田集荷所南側（消防ポンプ所）","lat":38.1846807,"long":140.8692546,"status":0.0,"note":null,"address":"名取市高舘吉田字宮神明２１２番地１","row_num":2272},{"area_id":10,"name":"個人所有駐車場西側","lat":38.1926157,"long":140.8621754,"status":0.0,"note":null,"address":"名取市高舘吉田字西窪田６番地１","row_num":2273},{"area_id":10,"name":"個人宅北側塀","lat":38.1863947,"long":140.8569513,"status":0.0,"note":null,"address":"名取市高舘吉田字内舘６番地１","row_num":2274},{"area_id":10,"name":"高舘公民館北側塀","lat":38.1876093,"long":140.8503331,"status":0.0,"note":null,"address":"名取市高舘吉田字東真坂３８番地","row_num":2275},{"area_id":10,"name":"個人宅東側塀","lat":38.1860025,"long":140.8537432,"status":0.0,"note":null,"address":"名取市高舘川上字東北畑７１番地１","row_num":2276},{"area_id":10,"name":"個人宅北側塀","lat":38.1818243,"long":140.850941,"status":0.0,"note":null,"address":"名取市高舘川上字来光１２番地","row_num":2277},{"area_id":10,"name":"個人宅前南側","lat":38.1794407,"long":140.8219325,"status":0.0,"note":null,"address":"名取市高舘川上字西樽水８１番地２","row_num":2278},{"area_id":10,"name":"個人宅北側市道沿","lat":38.1731977,"long":140.859799,"status":0.0,"note":null,"address":"名取市高舘川上字台１番地","row_num":2279},{"area_id":10,"name":"個人宅西側塀","lat":38.2011675,"long":140.8480381,"status":0.0,"note":null,"address":"名取市高舘熊野堂字岩口中１８番地","row_num":2280},{"area_id":10,"name":"個人宅東側塀","lat":38.1955144,"long":140.8512558,"status":0.0,"note":null,"address":"名取市高舘熊野堂字谷地前下３番地１","row_num":2281},{"area_id":10,"name":"個人宅南側市道沿","lat":38.2010843,"long":140.8535406,"status":0.0,"note":null,"address":"名取市高舘熊野堂字八ツ口３番地先","row_num":2282},{"area_id":10,"name":"那智が丘団地入口交差点付近","lat":38.2043939,"long":140.8425527,"status":0.0,"note":null,"address":"名取市高舘熊野堂字岩口上１１番地９","row_num":2283},{"area_id":10,"name":"個人宅北側塀","lat":38.2120445,"long":140.8299796,"status":0.0,"note":null,"address":"名取市高舘熊野堂字余方下東３５番地","row_num":2284},{"area_id":10,"name":"余方公会堂南側道路沿","lat":38.2140627,"long":140.813713,"status":0.0,"note":null,"address":"名取市高舘熊野堂字余方上西１５番地の２","row_num":2285},{"area_id":10,"name":"個人宅南前道路敷","lat":38.2158248,"long":140.8228227,"status":0.0,"note":null,"address":"名取市熊野堂字余方中３４番地の１先市道内","row_num":2286},{"area_id":10,"name":"防火貯水槽用地","lat":38.216793,"long":140.7893957,"status":0.0,"note":null,"address":"名取市高舘熊野堂字今成西５２番地１","row_num":2287},{"area_id":10,"name":"野来１号公園北側塀","lat":38.1790583,"long":140.8727464,"status":0.0,"note":null,"address":"名取市高舘吉田字野来４２番地２","row_num":2288},{"area_id":10,"name":"ＬＰガス貯蔵庫北側フェンス","lat":38.1784032,"long":140.8722406,"status":0.0,"note":null,"address":"名取市高舘吉田字前沖１６３番地１８","row_num":2289},{"area_id":10,"name":"ふれあい広場公園西側","lat":38.2074915,"long":140.8311422,"status":0.0,"note":null,"address":"名取市ゆりが丘一丁目１１番地１５","row_num":2290},{"area_id":10,"name":"ゆりが丘三丁目集会所西側","lat":38.2031595,"long":140.8318608,"status":0.0,"note":null,"address":"名取市ゆりが丘三丁目８番地１０","row_num":2291},{"area_id":10,"name":"ゆりが丘小学校体育館西側市道沿","lat":38.2017101,"long":140.8321815,"status":0.0,"note":null,"address":"名取市ゆりが丘三丁目２１番地","row_num":2292},{"area_id":10,"name":"竹の子公園（つばさの広場）西側","lat":38.20023,"long":140.825435,"status":0.0,"note":null,"address":"名取市ゆりが丘五丁目１２６番地１９","row_num":2293},{"area_id":10,"name":"さくら公園前南側","lat":38.1995781,"long":140.8339459,"status":0.0,"note":null,"address":"名取市みどり台二丁目4番地141","row_num":2294},{"area_id":10,"name":"たんぽぽ公園土留擁壁部北側","lat":38.1991652,"long":140.8356813,"status":0.0,"note":null,"address":"名取市みどり台二丁目8番地142","row_num":2295},{"area_id":10,"name":"個人宅南側畑角地","lat":38.2007538,"long":140.8085801,"status":0.0,"note":null,"address":"名取市高舘熊野堂字大沢１５番地","row_num":2296},{"area_id":10,"name":"個人宅南側角","lat":38.203648,"long":140.801926,"status":0.0,"note":null,"address":"名取市高舘熊野堂字中沢後４６番地１","row_num":2297},{"area_id":10,"name":"相互台公民館西側","lat":38.2064227,"long":140.8088944,"status":0.0,"note":null,"address":"名取市相互台一丁目１０番地３","row_num":2298},{"area_id":10,"name":"なかよし公園前西側","lat":38.2027377,"long":140.8080636,"status":0.0,"note":null,"address":"名取市相互台二丁目16番地内","row_num":2299},{"area_id":10,"name":"相互台東一丁目桜坂公園西側","lat":38.208877,"long":140.8170006,"status":0.0,"note":null,"address":"名取市相互台東一丁目地内","row_num":2300},{"area_id":10,"name":"もみじ公園前北側","lat":38.1999256518,"long":140.8445750084,"status":0.0,"note":null,"address":"名取市那智が丘一丁目地内","row_num":2301},{"area_id":10,"name":"那智が丘中央公園前西側","lat":38.1966916,"long":140.8400971,"status":0.0,"note":null,"address":"名取市那智が丘四丁目２０番地内","row_num":2302},{"area_id":10,"name":"すぎのき公園前東側","lat":38.192238,"long":140.8371391,"status":0.0,"note":null,"address":"名取市那智が丘三丁目７番地内","row_num":2303},{"area_id":10,"name":"那智が丘二丁目バス停","lat":38.1935985,"long":140.8436147,"status":0.0,"note":null,"address":"名取市那智が丘二丁目２１番地８","row_num":2304},{"area_id":12,"name":"市営新田公営住宅東側市道","lat":38.2975549,"long":140.9570712,"status":0.0,"note":null,"address":"多賀城市新田字西後８の２地先","row_num":2461},{"area_id":12,"name":"30キロ表示付近個人宅ブロック塀","lat":38.2974656,"long":140.9600314,"status":0.0,"note":null,"address":"多賀城市新田字六歳５の５","row_num":2462},{"area_id":12,"name":"セジュール北安楽寺西側市道（ガードレール）","lat":38.295365,"long":140.9605472,"status":0.0,"note":null,"address":"多賀城市新田字西後５４の１地先","row_num":2463},{"area_id":12,"name":"消防団第１分団ポンプ置場西側市道（ガードレール)","lat":38.2918984,"long":140.9620056,"status":0.0,"note":null,"address":"多賀城市新田字南安楽寺５７の１地先","row_num":2464},{"area_id":12,"name":"アパートオータムカプリコーン１東側市道（ガードレール）","lat":38.2909804,"long":140.9643296,"status":0.0,"note":null,"address":"多賀城市新田字堀西１３番地先","row_num":2465},{"area_id":12,"name":"関合橋北側市道(ガードレール)","lat":38.2891333,"long":140.9637866,"status":0.0,"note":null,"address":"多賀城市新田字南関合２５番地先","row_num":2466},{"area_id":12,"name":"市道新田線と市道南宮新田４号線交差点付近","lat":38.2876355,"long":140.9669119,"status":0.0,"note":null,"address":"多賀城市新田字北関合７７の２地先","row_num":2467},{"area_id":12,"name":"日本ファイリング㈱仙台配送センター（フェンス）","lat":38.2880137,"long":140.9759902,"status":0.0,"note":null,"address":"多賀城市高橋一丁目５の７","row_num":2468},{"area_id":12,"name":"高橋８号公園（花壇）","lat":38.284911,"long":140.9747369,"status":0.0,"note":null,"address":"多賀城市高橋二丁目１７番地内","row_num":2469},{"area_id":12,"name":"高橋前田公園（フェンス）","lat":38.2861666,"long":140.977172,"status":0.0,"note":null,"address":"多賀城市高橋一丁目２０番地内","row_num":2470},{"area_id":12,"name":"月極キクタパーキング（フェンス）","lat":38.2858204,"long":140.9792032,"status":0.0,"note":null,"address":"多賀城市高橋三丁目１０の２８","row_num":2471},{"area_id":12,"name":"小深町公園（高橋地区センター東側）（フェンス）","lat":38.2861645,"long":140.9810207,"status":0.0,"note":null,"address":"多賀城市高橋五丁目２０番地内","row_num":2472},{"area_id":12,"name":"奈賀済公園（フェンス）","lat":38.2876803,"long":140.9825348,"status":0.0,"note":null,"address":"多賀城市高橋五丁目３番地内","row_num":2473},{"area_id":12,"name":"ファッションセンターしまむら高橋店北側市道（ガードパイプ）","lat":38.2921744,"long":140.9800695,"status":0.0,"note":null,"address":"多賀城市高橋字大日北地先","row_num":2474},{"area_id":12,"name":"北寿福寺中公園（フェンス）","lat":38.2995773,"long":140.9637157,"status":0.0,"note":null,"address":"多賀城市山王字北寿福寺１の４９","row_num":2475},{"area_id":12,"name":"北寿福寺公園（フェンス）","lat":38.3007242,"long":140.9654653,"status":0.0,"note":null,"address":"多賀城市山王字北寿福寺２９の５","row_num":2476},{"area_id":12,"name":"JA仙台南宮支店南側個人宅ブロック塀","lat":38.3009823,"long":140.9733284,"status":0.0,"note":null,"address":"多賀城市南宮字町２７の４","row_num":2477},{"area_id":12,"name":"東町浦２号公園（フェンス）","lat":38.2994887,"long":140.9757961,"status":0.0,"note":null,"address":"多賀城市山王字東町浦６３の３","row_num":2478},{"area_id":12,"name":"陸前山王駅前駐車場（フェンス）","lat":38.3000707,"long":140.9787366,"status":0.0,"note":null,"address":"多賀城市山王字千刈田７地内","row_num":2479},{"area_id":12,"name":"旧山王歯科クリニック（フェンス）","lat":38.2976977,"long":140.9743441,"status":0.0,"note":null,"address":"多賀城市山王字山王二区１３３","row_num":2480},{"area_id":12,"name":"旧高静設備工業西側市道（ガードレール）","lat":38.2969892,"long":140.9769251,"status":0.0,"note":null,"address":"多賀城市山王字山王四区８０地先","row_num":2481},{"area_id":12,"name":"株式会社千葉重機北西側個人宅ブロック塀","lat":38.3063164,"long":140.9860887,"status":0.0,"note":null,"address":"多賀城市市川字金堀１","row_num":2482},{"area_id":12,"name":"中央公園（ＪＲ東北線高平踏切北側）","lat":38.3104234,"long":140.9900386,"status":0.0,"note":null,"address":"多賀城市市川字矢中地内","row_num":2483},{"area_id":12,"name":"多賀城市営浮島住宅南側フェンス","lat":38.3050413,"long":140.9936306,"status":0.0,"note":null,"address":"多賀城市浮島字沢前７の２","row_num":2484},{"area_id":12,"name":"浮島２号公園（フェンス）","lat":38.3060825,"long":140.9980343,"status":0.0,"note":null,"address":"多賀城市浮島二丁目１８番地内","row_num":2485},{"area_id":12,"name":"多賀城市浮島保育所（フェンス）","lat":38.3039636,"long":140.9984921,"status":0.0,"note":null,"address":"多賀城市浮島二丁目１０－１","row_num":2486},{"area_id":12,"name":"浮島１号公園（フェンス）","lat":38.3028897,"long":140.9962382,"status":0.0,"note":null,"address":"多賀城市浮島一丁目１３番地内","row_num":2487},{"area_id":12,"name":"ＪＲ国府多賀城駅浮島口西側市道（フェンス）","lat":38.3033096,"long":140.9934299,"status":0.0,"note":null,"address":"多賀城市浮島字宮前地内","row_num":2488},{"area_id":12,"name":"ヤマザワ多賀城店東側住居表示案内板脇","lat":38.295981,"long":140.9955441,"status":0.0,"note":null,"address":"多賀城市高崎二丁目３５番地内","row_num":2489},{"area_id":12,"name":"水入公園（フェンス）","lat":38.2962373,"long":140.9909863,"status":0.0,"note":null,"address":"多賀城市城南二丁目８番地内","row_num":2490},{"area_id":12,"name":"多賀城市浮島雨水ポンプ場（フェンス）","lat":38.293373,"long":140.9919757,"status":0.0,"note":null,"address":"多賀城市城南二丁目２３－１","row_num":2491},{"area_id":12,"name":"亀喜寿司多賀城店北側畑（単管パイプ)","lat":38.2938504,"long":141.0044375,"status":0.0,"note":null,"address":"多賀城市東田中二丁目２９番地内","row_num":2492},{"area_id":12,"name":"セブンイレブン多賀城高崎３丁目店西側市道","lat":38.2957153,"long":140.9985961,"status":0.0,"note":null,"address":"多賀城市高崎三丁目２４－７地先","row_num":2493},{"area_id":12,"name":"多賀城市文化センター駐車場（フェンス）","lat":38.294079,"long":141.0052539,"status":0.0,"note":null,"address":"多賀城市中央二丁目１７番地内","row_num":2494},{"area_id":12,"name":"多賀城市役所西側駐車場（フェンス）","lat":38.2942835,"long":141.0037209,"status":0.0,"note":null,"address":"多賀城市中央一丁目１２番地内","row_num":2495},{"area_id":12,"name":"多賀城ロジュマン立体駐車場西側市道(ガードパイプ)","lat":38.2907937,"long":140.9998196,"status":0.0,"note":null,"address":"多賀城市東田中二丁目４０番地先(立体駐車場西側)","row_num":2496},{"area_id":12,"name":"多賀城ロジュマン専用駐車場北側市道(ガードパイプ)","lat":38.2907937,"long":140.9998196,"status":0.0,"note":null,"address":"多賀城市東田中二丁目４０番地先専用駐車場北側","row_num":2497},{"area_id":12,"name":"舟橋公園北端（フェンス）","lat":38.295981,"long":140.9955441,"status":0.0,"note":null,"address":"多賀城市東田中二丁目４０番地内Ｇ棟西側","row_num":2498},{"area_id":12,"name":"舟橋公園南端（フェンス）","lat":38.295981,"long":140.9955441,"status":0.0,"note":null,"address":"多賀城市東田中二丁目４０番地内A棟西側","row_num":2499},{"area_id":12,"name":"多賀城ロジュマンバスケット練習場（フェンス）","lat":38.2907937,"long":140.9998196,"status":0.0,"note":null,"address":"多賀城市東田中二丁目40番地内Ｂ棟南側（バスケット練習場）","row_num":2500},{"area_id":12,"name":"ロジュマンコミュニティーセンター駐車場東側（フェンス）","lat":38.3044558,"long":141.0054285,"status":0.0,"note":null,"address":"多賀城市東田中二丁目４０番地内A棟南側","row_num":2501},{"area_id":12,"name":"秀英予備校多賀城校東側市道（ガードレール）","lat":38.2938504,"long":141.0044375,"status":0.0,"note":null,"address":"多賀城市東田中二丁目40番地先","row_num":2502},{"area_id":12,"name":"ヘアーサロン旭ヶ岡西側市道（ガードレール）","lat":38.2994579,"long":141.0022393,"status":0.0,"note":null,"address":"多賀城市留ヶ谷一丁目２６－３地先","row_num":2503},{"area_id":12,"name":"市営留ヶ谷住宅駐車場東側市道（ガードレール）","lat":38.3008236,"long":141.0049311,"status":0.0,"note":null,"address":"多賀城市留ヶ谷一丁目４３番地先","row_num":2504},{"area_id":12,"name":"消防団第四分団ポンプ車置場南東側市道（ガードパイプ）","lat":38.3033603,"long":141.0063468,"status":0.0,"note":null,"address":"多賀城市留ヶ谷二丁目８－２地先","row_num":2505},{"area_id":12,"name":"有限会社三塚畳工業西側個人宅（フェンス)","lat":38.3027916,"long":141.0080717,"status":0.0,"note":null,"address":"多賀城市留ヶ谷三丁目１０－１１","row_num":2506},{"area_id":12,"name":"留ヶ谷２号公園（フェンス）","lat":38.3044558,"long":141.0054285,"status":0.0,"note":null,"address":"多賀城市留ヶ谷三丁目１６番地内","row_num":2507},{"area_id":12,"name":"東北電力青雲寮（西側フェンス）","lat":38.2959391,"long":141.008248,"status":0.0,"note":null,"address":"多賀城市中央三丁目１８番１号","row_num":2508},{"area_id":12,"name":"市営紅葉山住宅１号棟西側市道（フェンス）","lat":38.2963495,"long":141.0088859,"status":0.0,"note":null,"address":"多賀城市中央三丁目２２－１地先","row_num":2509},{"area_id":12,"name":"㈱東広園（フェンス）","lat":38.2982076,"long":141.0091527,"status":0.0,"note":null,"address":"多賀城市留ヶ谷三丁目２３－３０","row_num":2510},{"area_id":12,"name":"多賀城市市民プ－ル（フェンス）","lat":38.2984715,"long":141.0110421,"status":0.0,"note":null,"address":"多賀城市伝上山二丁目６－６","row_num":2511},{"area_id":12,"name":"ラポール・タナカアパート（フェンス）","lat":38.2988799,"long":141.0124936,"status":0.0,"note":null,"address":"多賀城市伝上山三丁目３－１８","row_num":2512},{"area_id":12,"name":"梅月堂北東側個人宅（ブロック塀）","lat":38.3004957,"long":141.0120481,"status":0.0,"note":null,"address":"多賀城市伝上山三丁目１０－１３","row_num":2513},{"area_id":12,"name":"向山２号公園（フェンス）","lat":38.3010718,"long":141.0101066,"status":0.0,"note":null,"address":"多賀城市伝上山二丁目２１番地内","row_num":2514},{"area_id":12,"name":"伝上山公園（簡易柵）","lat":38.3017949,"long":141.0126085,"status":0.0,"note":null,"address":"多賀城市伝上山三丁目１５番地内","row_num":2515},{"area_id":12,"name":"伝上山集会所（花壇）","lat":38.3023469,"long":141.0125654,"status":0.0,"note":null,"address":"多賀城市伝上山三丁目１４－１７","row_num":2516},{"area_id":12,"name":"多賀城公園（多賀城中学校側）駐車場（フェンス）","lat":38.2944827,"long":141.0149769,"status":0.0,"note":null,"address":"多賀城市鶴ヶ谷一丁目地内","row_num":2517},{"area_id":12,"name":"個人宅前（フェンス）","lat":38.2951152,"long":141.016612,"status":0.0,"note":null,"address":"多賀城市鶴ヶ谷二丁目１２－１６","row_num":2518},{"area_id":12,"name":"西ノ神公園（フェンス）","lat":38.2948974,"long":141.0181757,"status":0.0,"note":null,"address":"多賀城市鶴ヶ谷三丁目４番地内","row_num":2519},{"area_id":12,"name":"鶴ヶ谷集会所東側(簡易棚)","lat":38.2951152,"long":141.016612,"status":0.0,"note":null,"address":"多賀城市鶴ヶ谷二丁目７－１","row_num":2520},{"area_id":12,"name":"橋本皮膚科医院（フェンス）","lat":38.2951152,"long":141.016612,"status":0.0,"note":null,"address":"多賀城市鶴ヶ谷二丁目２０－１２","row_num":2521},{"area_id":12,"name":"多賀城市総合体育館第３駐車場（フェンス）","lat":38.2991414,"long":141.0157316,"status":0.0,"note":null,"address":"多賀城市鶴ヶ谷一丁目１１－２","row_num":2522},{"area_id":12,"name":"多賀城市総合体育館第2駐車場（国道側フェンス）","lat":38.2867674,"long":140.9083057,"status":0.0,"note":null,"address":"多賀城市鶴ヶ谷一丁目１０番地内","row_num":2523},{"area_id":12,"name":"丸山公園（フェンス）","lat":38.299784,"long":141.0197453,"status":0.0,"note":null,"address":"多賀城市丸山一丁目２","row_num":2524},{"area_id":12,"name":"多賀城住宅管理人事務所西側（フェンス）","lat":38.2991686,"long":141.0207102,"status":0.0,"note":null,"address":"多賀城市丸山一丁目１７－１","row_num":2525},{"area_id":12,"name":"東北管区警察学校住宅西側（フェンス）","lat":38.3004049,"long":141.0209261,"status":0.0,"note":null,"address":"多賀城市丸山一丁目１９－１","row_num":2526},{"area_id":12,"name":"高橋駐車場（フェンス）（食堂苑東側）","lat":38.299784,"long":141.0197453,"status":0.0,"note":null,"address":"多賀城市丸山一丁目４番地内","row_num":2527},{"area_id":12,"name":"丸山一丁目１２－１５西側市道（ガードレール）","lat":38.3010383,"long":141.0190904,"status":0.0,"note":null,"address":"多賀城市丸山一丁目１２－１５地先","row_num":2528},{"area_id":12,"name":"昭和コーポ東側市道（ガードパイプ）","lat":38.3009164,"long":141.017306,"status":0.0,"note":null,"address":"多賀城市下馬五丁目５－３１地先","row_num":2529},{"area_id":12,"name":"鎌倉公園（フェンス）","lat":38.3047577,"long":141.0141954,"status":0.0,"note":null,"address":"多賀城市下馬一丁目５","row_num":2530},{"area_id":12,"name":"砂利道駐車場（フェンス）","lat":38.3036209,"long":141.0150006,"status":0.0,"note":null,"address":"多賀城市下馬一丁目４－３２","row_num":2531},{"area_id":12,"name":"西の入公園（フェンス）","lat":38.3055358,"long":141.0161719,"status":0.0,"note":null,"address":"多賀城市下馬二丁目４","row_num":2532},{"area_id":12,"name":"JR仙石線下馬駅前（フェンス）","lat":38.3056775,"long":141.0151774,"status":0.0,"note":null,"address":"多賀城市下馬二丁目１３－１","row_num":2533},{"area_id":12,"name":"天理教笠神分教会（ブロック塀）","lat":38.3044718,"long":141.0185274,"status":0.0,"note":null,"address":"多賀城市下馬三丁目１１－２５","row_num":2534},{"area_id":12,"name":"樅の木ゴルフガ－デン駐車場（フェンス）","lat":38.305319,"long":141.0192585,"status":0.0,"note":null,"address":"多賀城市下馬三丁目１５番地内","row_num":2535},{"area_id":12,"name":"旧大澤歯科医院（フェンス）","lat":38.302068,"long":141.0299778,"status":0.0,"note":null,"address":"多賀城市笠神四丁目３－４５","row_num":2536},{"area_id":12,"name":"セブンイレブン多賀城笠神4丁目店東側　個人宅","lat":38.3023891,"long":141.0311695,"status":0.0,"note":null,"address":"多賀城市笠神四丁目４－２０地内","row_num":2537},{"area_id":12,"name":"笠神五丁目３西側市道ガードパイプ（東豊中学校北西部）","lat":38.2994341,"long":141.0334071,"status":0.0,"note":null,"address":"笠神五丁目３西側","row_num":2538},{"area_id":12,"name":"多賀城市笠神保育所（フェンス）","lat":38.299527,"long":141.0310867,"status":0.0,"note":null,"address":"多賀城市笠神五丁目１０－３３","row_num":2539},{"area_id":12,"name":"葦畔公園（フェンス）","lat":38.2978694,"long":141.0329496,"status":0.0,"note":null,"address":"多賀城市笠神五丁目１４番地内","row_num":2540},{"area_id":12,"name":"大代２丁目７－５北側（仙台市ガス局施設前ガードレール）","lat":38.2962903,"long":141.031592,"status":0.0,"note":null,"address":"多賀城市大代２丁目７－５地先","row_num":2541},{"area_id":12,"name":"塩竈市立第三中学校西側（フェンス）","lat":38.3053625,"long":141.0234616,"status":0.0,"note":null,"address":"多賀城市笠神二丁目１－１","row_num":2542},{"area_id":12,"name":"塩竈市立第三中学校駐車場（フェンス）","lat":38.3053625,"long":141.0234616,"status":0.0,"note":null,"address":"多賀城市笠神二丁目１－１","row_num":2543},{"area_id":12,"name":"個人宅前（フェンス）","lat":38.3063991,"long":141.0239297,"status":0.0,"note":null,"address":"多賀城市笠神一丁目４－１０","row_num":2544},{"area_id":12,"name":"新丸山公園（フェンス）","lat":38.3065873,"long":141.0254484,"status":0.0,"note":null,"address":"多賀城市笠神一丁目１１番地内","row_num":2545},{"area_id":12,"name":"個人宅前（フェンス）","lat":38.3082064,"long":141.0250953,"status":0.0,"note":null,"address":"多賀城市笠神一丁目１６－２３","row_num":2546},{"area_id":12,"name":"個人宅前(フェンス)","lat":38.3067881,"long":141.0244464,"status":0.0,"note":null,"address":"多賀城市笠神一丁目１５-３７地先","row_num":2547},{"area_id":12,"name":"個人宅前(ブロック塀)","lat":38.3049269,"long":141.0275457,"status":0.0,"note":null,"address":"多賀城市笠神一丁目９－３５","row_num":2548},{"area_id":12,"name":"石ヶ森１号公園（フェンス）","lat":38.296147,"long":141.0366936,"status":0.0,"note":null,"address":"多賀城市大代四丁目９番地内","row_num":2549},{"area_id":12,"name":"大代３号公園（フェンス）","lat":38.2957576,"long":141.0379427,"status":0.0,"note":null,"address":"多賀城市大代五丁目１９番地内","row_num":2550},{"area_id":12,"name":"中峯北公園（フェンス）","lat":38.2943257,"long":141.0388624,"status":0.0,"note":null,"address":"多賀城市大代五丁目１６番地内","row_num":2551},{"area_id":12,"name":"個人宅（フェンス）","lat":38.2924487,"long":141.0405752,"status":0.0,"note":null,"address":"多賀城市大代五丁目８－１２","row_num":2552},{"area_id":12,"name":"大代地区公民館西側（ガードレール）","lat":38.2929919,"long":141.0368685,"status":0.0,"note":null,"address":"多賀城市大代五丁目１－４６地先","row_num":2553},{"area_id":12,"name":"個人宅（フェンス）","lat":38.2914846,"long":141.0326429,"status":0.0,"note":null,"address":"多賀城市大代一丁目２－３０","row_num":2554},{"area_id":12,"name":"コーポトマト駐車場(フェンス)","lat":38.2948078,"long":141.0340169,"status":0.0,"note":null,"address":"多賀城市大代三丁目７番地内","row_num":2555},{"area_id":12,"name":"個人宅前（ブロック塀）","lat":38.2935901,"long":141.0317853,"status":0.0,"note":null,"address":"多賀城市大代二丁目１－３","row_num":2556},{"area_id":12,"name":"個人宅前（ブロック塀）","lat":38.2945951,"long":141.0322515,"status":0.0,"note":null,"address":"多賀城市大代二丁目４－３５","row_num":2557},{"area_id":12,"name":"大代公園","lat":38.2951003,"long":141.032032,"status":0.0,"note":null,"address":"多賀城市大代二丁目6番地内","row_num":2558},{"area_id":12,"name":"大代北区集会所（フェンス）","lat":38.2954189,"long":141.0317888,"status":0.0,"note":null,"address":"多賀城市大代二丁目７－１５","row_num":2559},{"area_id":12,"name":"個人宅（簡易柵）","lat":38.2960205,"long":141.032253,"status":0.0,"note":null,"address":"多賀城市大代二丁目１０－２２","row_num":2560},{"area_id":12,"name":"中財公園（フェンス）","lat":38.2910813,"long":141.0215361,"status":0.0,"note":null,"address":"多賀城市栄一丁目１","row_num":2561},{"area_id":12,"name":"栄橋南側市道（ガードレール）","lat":38.2805054,"long":140.9809703,"status":0.0,"note":null,"address":"多賀城市栄一丁目６－４５先","row_num":2562},{"area_id":12,"name":"市営桜木住宅１号棟東側","lat":38.2913107,"long":141.0185823,"status":0.0,"note":null,"address":"多賀城市桜木二丁目４","row_num":2563},{"area_id":12,"name":"塩留公園（フェンス）","lat":38.2899039,"long":141.0128007,"status":0.0,"note":null,"address":"多賀城市桜木一丁目２番地内","row_num":2564},{"area_id":12,"name":"桜木公園（フェンス）","lat":38.2878534,"long":141.0156158,"status":0.0,"note":null,"address":"多賀城市桜木三丁目３番地内","row_num":2565},{"area_id":12,"name":"宮城職業能力開発促進センター北側（フェンス）","lat":38.2862295,"long":141.0158498,"status":0.0,"note":null,"address":"多賀城市明月二丁目２－１","row_num":2566},{"area_id":12,"name":"八幡通り公園","lat":38.2832435,"long":141.0162078,"status":0.0,"note":null,"address":"多賀城市明月一丁目７番地先（南側）","row_num":2567},{"area_id":12,"name":"個人宅南側（ガードレール）","lat":38.2863738,"long":141.002699,"status":0.0,"note":null,"address":"多賀城市八幡二丁目１８－１９地先","row_num":2568},{"area_id":12,"name":"個人宅（ブロック塀）","lat":38.2862968,"long":141.0037457,"status":0.0,"note":null,"address":"多賀城市八幡二丁目１９－１６","row_num":2569},{"area_id":12,"name":"個人宅（ブロック塀）","lat":38.2878931,"long":141.0045018,"status":0.0,"note":null,"address":"多賀城市八幡二丁目２２－１","row_num":2570},{"area_id":12,"name":"伏谷建設駐車場（ガードレール西側）","lat":38.2886284,"long":141.0042934,"status":0.0,"note":null,"address":"多賀城市八幡二丁目８－１６（北側）","row_num":2571},{"area_id":12,"name":"多賀城郵便局西側市道（フェンス）","lat":38.2900138,"long":141.0048434,"status":0.0,"note":null,"address":"多賀城市八幡三丁目１－２７地先","row_num":2572},{"area_id":12,"name":"個人宅（ブロック塀）","lat":38.2901573,"long":141.006934,"status":0.0,"note":null,"address":"多賀城市八幡三丁目８－３２","row_num":2573},{"area_id":12,"name":"コジマ×ビックカメラ多賀城店駐車場南側（フェンス）","lat":38.2938504,"long":141.0044375,"status":0.0,"note":null,"address":"多賀城市町前二丁目７番地内","row_num":2574},{"area_id":12,"name":"プルミエールⅡ西側市道（ガードパイプ）","lat":38.2858742,"long":140.9934617,"status":0.0,"note":null,"address":"多賀城市八幡字一本柳７１－１地先","row_num":2575},{"area_id":12,"name":"多賀城八幡小北側市道・六貫田２号線（ガードレール）","lat":38.2883356,"long":140.9940803,"status":0.0,"note":null,"address":"多賀城市八幡字六貫田１５２地先","row_num":2576},{"area_id":12,"name":"多賀城八幡小北側市道・六貫田２号線プランドール－S北側（ガードレール）","lat":38.2878732,"long":140.9950448,"status":0.0,"note":null,"address":"多賀城市八幡字六貫田１６９－５地先","row_num":2577},{"area_id":12,"name":"八幡上二集会所入口(簡易柵)","lat":38.2884512,"long":140.997439,"status":0.0,"note":null,"address":"多賀城市八幡字砂山２４－３","row_num":2578},{"area_id":12,"name":"舟橋付近八幡側市道(ガードパイプ)","lat":38.2884677,"long":140.9986836,"status":0.0,"note":null,"address":"多賀城市八幡二丁目２－４０地先","row_num":2579},{"area_id":12,"name":"宮前東公園（フェンス）","lat":38.2874221,"long":140.9988111,"status":0.0,"note":null,"address":"多賀城市八幡二丁目１４番地内","row_num":2580},{"area_id":12,"name":"築道公園（フェンス）","lat":38.2863722,"long":140.9974491,"status":0.0,"note":null,"address":"多賀城市八幡一丁目４番地内","row_num":2581},{"area_id":12,"name":"八幡２号公園北側（フェンス）","lat":38.2863851,"long":141.0017084,"status":0.0,"note":null,"address":"多賀城市八幡二丁目２４番地内","row_num":2582},{"area_id":12,"name":"八幡１号公園東側（フェンス）（八幡沖公民館南側）","lat":38.2885038,"long":141.0070546,"status":0.0,"note":null,"address":"多賀城市八幡三丁目１５番地内","row_num":2583},{"area_id":12,"name":"ほねくま整骨院・はりきゅう院多賀城駅前店東側個人宅（ブロック塀）","lat":38.2911237,"long":141.0084758,"status":0.0,"note":null,"address":"多賀城市八幡三丁目４－４３","row_num":2584},{"area_id":12,"name":"ホテルルートイン多賀城駅駐車場北側市道（フェンス）","lat":38.2910423,"long":141.0105126,"status":0.0,"note":null,"address":"多賀城市八幡四丁目４－７７地先","row_num":2585},{"area_id":12,"name":"菅野造園（株）事務所（フェンス）","lat":38.2909225,"long":141.0134763,"status":0.0,"note":null,"address":"多賀城市桜木一丁目２-１５","row_num":2586},{"area_id":12,"name":"ビニールハウス等農地（簡易柵）","lat":38.2938504,"long":141.0044375,"status":0.0,"note":null,"address":"多賀城市町前三丁目４番地内","row_num":2587},{"area_id":13,"name":"日本製紙㈱様野球場北側前","lat":38.0904818,"long":140.8583422,"status":0.0,"note":null,"address":"岩沼市大昭和９番","row_num":2588},{"area_id":13,"name":"阿武隈二丁目公園北側","lat":38.0967663,"long":140.8667209,"status":0.0,"note":null,"address":"岩沼市阿武隈二丁目３番地内","row_num":2589},{"area_id":13,"name":"びっくり市岩沼店様　東側フェンス","lat":38.0977725,"long":140.8612332,"status":0.0,"note":null,"address":"岩沼市吹上一丁目１０番１３号","row_num":2590},{"area_id":13,"name":"吹上地区集会所南側","lat":38.0974264,"long":140.8602863,"status":0.0,"note":null,"address":"岩沼市吹上一丁目１０番３７号","row_num":2591},{"area_id":13,"name":"安島建業様向側","lat":38.0962342,"long":140.8607784,"status":0.0,"note":null,"address":"岩沼市吹上一丁目１５番２９号","row_num":2592},{"area_id":13,"name":"Ｋ様宅東側","lat":38.0934867,"long":140.8589184,"status":0.0,"note":null,"address":"岩沼市吹上二丁目４番３８号","row_num":2593},{"area_id":13,"name":"菅野工務店様東側","lat":38.0977895,"long":140.8588308,"status":0.0,"note":null,"address":"岩沼市吹上三丁目２番２２号","row_num":2594},{"area_id":13,"name":"市営阿武隈住宅入口","lat":38.0993508,"long":140.8706952,"status":0.0,"note":null,"address":"岩沼市阿武隈一丁目３番地内","row_num":2595},{"area_id":13,"name":"Ｓ様宅東側","lat":38.1020711,"long":140.8642268,"status":0.0,"note":null,"address":"岩沼市桑原一丁目３番１２号","row_num":2596},{"area_id":13,"name":"Ｓ様宅南側","lat":38.1012499,"long":140.8623016,"status":0.0,"note":null,"address":"岩沼市桑原一丁目９番４号","row_num":2597},{"area_id":13,"name":"市営桑原住宅１号棟北側フェンス","lat":38.102172,"long":140.8609638,"status":0.0,"note":null,"address":"岩沼市桑原一丁目８番７号","row_num":2598},{"area_id":13,"name":"Ｍ様宅東側","lat":38.1008608,"long":140.8582676,"status":0.0,"note":null,"address":"岩沼市桑原二丁目３番５２号","row_num":2599},{"area_id":13,"name":"南児童遊園東側","lat":38.0990298,"long":140.8576236,"status":0.0,"note":null,"address":"岩沼市桑原三丁目３番地内","row_num":2600},{"area_id":13,"name":"岩沼みなみプラザ駐車場出口西側フェンス","lat":38.0991696,"long":140.8644668,"status":0.0,"note":null,"address":"岩沼市桑原四丁目５番地内","row_num":2601},{"area_id":13,"name":"Ｆ様宅前","lat":38.102809,"long":140.869046,"status":0.0,"note":null,"address":"岩沼市藤浪一丁目３番６１号","row_num":2602},{"area_id":13,"name":"Ｋ様宅東側","lat":38.1028747,"long":140.8670552,"status":0.0,"note":null,"address":"岩沼市藤浪一丁目２番１５号","row_num":2603},{"area_id":13,"name":"竹駒神社様第２駐車場西側","lat":38.1048604,"long":140.8618544,"status":0.0,"note":null,"address":"岩沼市稲荷町１番１号","row_num":2604},{"area_id":13,"name":"Ｓ様宅前","lat":38.1035571,"long":140.8624932,"status":0.0,"note":null,"address":"岩沼市本町４番６号","row_num":2605},{"area_id":13,"name":"Ｅ様宅南向歩道フェンス","lat":38.1042603,"long":140.866271,"status":0.0,"note":null,"address":"岩沼市中央一丁目３番１０号南側","row_num":2606},{"area_id":13,"name":"岩沼市役所前駐車場北側","lat":38.1042692,"long":140.8707266,"status":0.0,"note":null,"address":"岩沼市桜一丁目６番２０号","row_num":2607},{"area_id":13,"name":"MAISON・MAST桜E東側","lat":38.1078596,"long":140.8692764,"status":0.0,"note":null,"address":"岩沼市桜三丁目８番１号","row_num":2608},{"area_id":13,"name":"Ｓ様宅南側","lat":38.1104093,"long":140.868358,"status":0.0,"note":null,"address":"岩沼市中央三丁目２番１１号","row_num":2609},{"area_id":13,"name":"ワタヒョウ㈱様工場旧敷地東端","lat":38.1089788,"long":140.8719849,"status":0.0,"note":null,"address":"岩沼市桜三丁目１番地内","row_num":2610},{"area_id":13,"name":"㈱安田商会様南側","lat":38.1093974,"long":140.8741127,"status":0.0,"note":null,"address":"岩沼市桜三丁目１４－３９","row_num":2611},{"area_id":13,"name":"Ｏ様宅西側","lat":38.1103964,"long":140.8700823,"status":0.0,"note":null,"address":"岩沼市桜四丁目２番３１号","row_num":2612},{"area_id":13,"name":"Ｉ様宅南側歩道","lat":38.1102645,"long":140.8714344,"status":0.0,"note":null,"address":"岩沼市桜四丁目３番１７号南側","row_num":2613},{"area_id":13,"name":"Ｋ様宅西側（板橋眼科向）","lat":38.1119926,"long":140.8704044,"status":0.0,"note":null,"address":"岩沼市桜四丁目５番１３号","row_num":2614},{"area_id":13,"name":"メゾンアオバ北側フェンス","lat":38.1105761,"long":140.8738113,"status":0.0,"note":null,"address":"岩沼市桜五丁目４番４６号","row_num":2615},{"area_id":13,"name":"竹駒神社参集殿様西側フェンス","lat":38.1048604,"long":140.8618544,"status":0.0,"note":null,"address":"岩沼市稲荷町１番１号","row_num":2616},{"area_id":13,"name":"Ｓ様所有畑（セブンイレブン二木二丁目店斜向側）","lat":38.1038015,"long":140.8588818,"status":0.0,"note":null,"address":"岩沼市二木一丁目１４番地内","row_num":2617},{"area_id":13,"name":"Ｋ様宅東側","lat":38.108397,"long":140.8639435,"status":0.0,"note":null,"address":"岩沼市二木二丁目７番２４号","row_num":2618},{"area_id":13,"name":"Ｉ様宅西側","lat":38.1098906,"long":140.8648033,"status":0.0,"note":null,"address":"岩沼市二木二丁目１１番１６号","row_num":2619},{"area_id":13,"name":"岩沼小学校北側","lat":38.1086116,"long":140.8662539,"status":0.0,"note":null,"address":"岩沼市中央二丁目１番１号","row_num":2620},{"area_id":13,"name":"岩沼小学校プール南側","lat":38.1086116,"long":140.8662539,"status":0.0,"note":null,"address":"岩沼市中央二丁目１番１号","row_num":2621},{"area_id":13,"name":"Ｗ様宅西側","lat":38.1089082,"long":140.8679264,"status":0.0,"note":null,"address":"岩沼市中央二丁目５番１８号","row_num":2622},{"area_id":13,"name":"Ｄ様宅北側","lat":38.1109894,"long":140.8713722,"status":0.0,"note":null,"address":"岩沼市桜四丁目４番５号","row_num":2623},{"area_id":13,"name":"Ｉ様宅北側フェンス","lat":38.1119264,"long":140.8740074,"status":0.0,"note":null,"address":"岩沼市桜五丁目４番１６号","row_num":2624},{"area_id":13,"name":"Ｍ様宅南側","lat":38.1142505,"long":140.8730786,"status":0.0,"note":null,"address":"岩沼市相の原一丁目３番３７号","row_num":2625},{"area_id":13,"name":"北児童センター西側","lat":38.1144384,"long":140.8726735,"status":0.0,"note":null,"address":"岩沼市相の原一丁目３番４９号","row_num":2626},{"area_id":13,"name":"Ｓ様宅西側","lat":38.1129132,"long":140.8691204,"status":0.0,"note":null,"address":"岩沼市中央三丁目３番２３号","row_num":2627},{"area_id":13,"name":"Ｈ様宅東側","lat":38.1150207,"long":140.8694449,"status":0.0,"note":null,"address":"岩沼市中央四丁目１番１１号","row_num":2628},{"area_id":13,"name":"末広公園東側","lat":38.1122531,"long":140.8773883,"status":0.0,"note":null,"address":"岩沼市末広二丁目３番地内","row_num":2629},{"area_id":13,"name":"岩沼北中学校南側","lat":38.1170199,"long":140.8741688,"status":0.0,"note":null,"address":"岩沼市相の原二丁目３番１号","row_num":2630},{"area_id":13,"name":"Ｓ様宅北側（公有地）","lat":38.1179947,"long":140.8715001,"status":0.0,"note":null,"address":"岩沼市相の原二丁目５番３６号","row_num":2631},{"area_id":13,"name":"相の原保育所東側","lat":38.1191068,"long":140.8719359,"status":0.0,"note":null,"address":"岩沼市相の原二丁目６番４１号","row_num":2632},{"area_id":13,"name":"Ｓ様宅前","lat":38.1185213,"long":140.8698496,"status":0.0,"note":null,"address":"岩沼市中央四丁目８番５２号","row_num":2633},{"area_id":13,"name":"Ｆ様宅南側","lat":38.1161561,"long":140.8692255,"status":0.0,"note":null,"address":"岩沼市中央四丁目８番７７号","row_num":2634},{"area_id":13,"name":"ひら乃屋旅館様東向側","lat":38.1188048921,"long":140.8699738133,"status":0.0,"note":null,"address":"岩沼市中央四丁目８番８－３１","row_num":2635},{"area_id":13,"name":"大久金物店様向市道東側","lat":38.1211191,"long":140.8710495,"status":0.0,"note":null,"address":"岩沼市中央四丁目１３－１３東側","row_num":2636},{"area_id":13,"name":"市営亀塚第３住宅Ｃ－１西側","lat":38.1043106,"long":140.8701987,"status":0.0,"note":null,"address":"岩沼市中央四丁目７番地内","row_num":2637},{"area_id":13,"name":"天理教岩沼分教会様北側","lat":38.1116995,"long":140.8665862,"status":0.0,"note":null,"address":"岩沼市館下二丁目４番２３号","row_num":2638},{"area_id":13,"name":"Ｍ様宅西側","lat":38.1127485,"long":140.86698,"status":0.0,"note":null,"address":"岩沼市館下三丁目１番１５号","row_num":2639},{"area_id":13,"name":"エアロシティーキューブ向側駐車場","lat":38.1130527,"long":140.865704,"status":0.0,"note":null,"address":"岩沼市館下三丁目２番地内","row_num":2640},{"area_id":13,"name":"Ｋ様宅南向側","lat":38.1221228,"long":140.8708318,"status":0.0,"note":null,"address":"岩沼市字梶橋１番５２号","row_num":2641},{"area_id":13,"name":"丸沼堀水路用地（Ｏ様宅南側）","lat":38.1152297,"long":140.8658003,"status":0.0,"note":null,"address":"岩沼市栄町二丁目２番３５号南側","row_num":2642},{"area_id":13,"name":"Ｔ様宅西側","lat":38.1157478,"long":140.8637073,"status":0.0,"note":null,"address":"岩沼市栄町一丁目８番２４号","row_num":2643},{"area_id":13,"name":"亀塚西集会所前","lat":38.116071,"long":140.8666368,"status":0.0,"note":null,"address":"岩沼市栄町二丁目１番１５号","row_num":2644},{"area_id":13,"name":"亀塚公園南側","lat":38.1183863,"long":140.8676591,"status":0.0,"note":null,"address":"岩沼市栄町三丁目４番地内","row_num":2645},{"area_id":13,"name":"Ｏ様宅西側","lat":38.1159008,"long":140.8611176,"status":0.0,"note":null,"address":"岩沼市土ケ崎一丁目７番２号","row_num":2646},{"area_id":13,"name":"上中デンタルクリニック様北側","lat":38.1126049,"long":140.8611955,"status":0.0,"note":null,"address":"岩沼市土ケ崎二丁目８番２２号","row_num":2647},{"area_id":13,"name":"土ケ崎二丁目公園北側","lat":38.1120003,"long":140.8608434,"status":0.0,"note":null,"address":"岩沼市土ケ崎二丁目５番地内","row_num":2648},{"area_id":13,"name":"Ｋ様宅西側","lat":38.0919657,"long":140.9025637,"status":0.0,"note":null,"address":"岩沼市早股字板橋１９４番地","row_num":2649},{"area_id":13,"name":"Ｓ様宅南側","lat":38.1027924,"long":140.911454,"status":0.0,"note":null,"address":"岩沼市早股字松原２５２番地の３","row_num":2650},{"area_id":13,"name":"玉浦小学校東側正門北側","lat":38.1046247,"long":140.9102118,"status":0.0,"note":null,"address":"岩沼市早股字小林３９６番地の１","row_num":2651},{"area_id":13,"name":"Ｏ様宅西側","lat":38.1094648,"long":140.9107602,"status":0.0,"note":null,"address":"岩沼市押分字北土手１２７番地の１","row_num":2652},{"area_id":13,"name":"玉浦コミュニティセンター前","lat":38.1078612,"long":140.9059639,"status":0.0,"note":null,"address":"岩沼市恵み野二丁目３","row_num":2653},{"area_id":13,"name":"中川ヒューム管工業㈱様前北側","lat":38.1113501,"long":140.9070745,"status":0.0,"note":null,"address":"岩沼市押分字南谷地９０番地","row_num":2654},{"area_id":13,"name":"Ｔ様所有畑（㈱村上自動車商会様北西）","lat":38.1145239,"long":140.9062411,"status":1.0,"note":null,"address":"岩沼市押分字西土手","row_num":2655},{"area_id":13,"name":"楽々公園西側","lat":38.1080037,"long":140.9002832,"status":0.0,"note":null,"address":"岩沼市玉浦西四丁目２番","row_num":2656},{"area_id":13,"name":"寺島公会堂北側","lat":38.0811121,"long":140.9110663,"status":0.0,"note":null,"address":"岩沼市寺島字押切７５－１","row_num":2657},{"area_id":13,"name":"Ｓ様宅西側","lat":38.0992873,"long":140.8907629,"status":0.0,"note":null,"address":"岩沼市早股字猫原９番地の１","row_num":2658},{"area_id":13,"name":"Ｋ様宅北側","lat":38.1021139,"long":140.8791378,"status":0.0,"note":null,"address":"岩沼市押分字与奈５番地","row_num":2659},{"area_id":13,"name":"Ｓ様宅南側","lat":38.1042378,"long":140.880421,"status":0.0,"note":null,"address":"岩沼市押分字与奈１３番地","row_num":2660},{"area_id":13,"name":"陸上競技場南東角","lat":38.1059842,"long":140.8767438,"status":0.0,"note":null,"address":"岩沼市里の杜一丁目１番１号","row_num":2661},{"area_id":13,"name":"市民会館臨時駐車場西側","lat":38.1072698,"long":140.8792022,"status":0.0,"note":null,"address":"岩沼市里の杜三丁目４番地内","row_num":2662},{"area_id":13,"name":"Ｓ様宅南側角","lat":38.1096529,"long":140.8845033,"status":0.0,"note":null,"address":"岩沼市下野郷字上中筋５番地の３","row_num":2663},{"area_id":13,"name":"Ｉ様宅南側","lat":38.1127562,"long":140.8881912,"status":0.0,"note":null,"address":"岩沼市下野郷字糀内６０番地の１","row_num":2664},{"area_id":13,"name":"Ｋ様宅北側","lat":38.1114093,"long":140.89163,"status":0.0,"note":null,"address":"岩沼市下野郷字前條１６０番地の６","row_num":2665},{"area_id":13,"name":"下野郷下公会堂南側フェンス","lat":38.1156335,"long":140.8989431,"status":0.0,"note":null,"address":"岩沼市下野郷字前條４６１番地の１","row_num":2666},{"area_id":13,"name":"Ｋ様宅北側","lat":38.1238296,"long":140.9048959,"status":0.0,"note":null,"address":"岩沼市下野郷字舘外１４８番地","row_num":2667},{"area_id":13,"name":"Ｉ様宅北側","lat":38.1252491,"long":140.9043512,"status":0.0,"note":null,"address":"岩沼市下野郷字舘外２３７番地","row_num":2668},{"area_id":13,"name":"Ｈ様宅北側","lat":38.1245566,"long":140.9077781,"status":0.0,"note":null,"address":"岩沼市下野郷字舘外３４２番地","row_num":2669},{"area_id":13,"name":"Ｓ様宅東側","lat":38.1277625,"long":140.9039626,"status":0.0,"note":null,"address":"岩沼市下野郷字西北谷地２３番地の５","row_num":2670},{"area_id":13,"name":"宮城近交運輸㈱仙台物流センター様西側","lat":38.1298101,"long":140.9058255,"status":0.0,"note":null,"address":"岩沼市下野郷字北谷地１５番地２","row_num":2671},{"area_id":13,"name":"Ｙ様宅北側","lat":38.1271123,"long":140.9091553,"status":0.0,"note":null,"address":"岩沼市下野郷字北谷地２４２番地","row_num":2672},{"area_id":13,"name":"㈲渡信鉄工様敷地南西角","lat":38.1296462,"long":140.9116973,"status":0.0,"note":null,"address":"岩沼市下野郷字新関迎３１番地","row_num":2673},{"area_id":13,"name":"空港南公園東側","lat":38.1245079,"long":140.9208887,"status":0.0,"note":null,"address":"岩沼市空港南四丁目２番２","row_num":2674},{"area_id":13,"name":"原公園北側","lat":38.0816284,"long":140.8546783,"status":0.0,"note":null,"address":"岩沼市南長谷字原２３０－２１北側","row_num":2675},{"area_id":13,"name":"Ｓ様宅北側","lat":38.085567,"long":140.8439839,"status":0.0,"note":null,"address":"岩沼市南長谷字海道南３９番地","row_num":2676},{"area_id":13,"name":"千貫神社様東側","lat":38.0923002,"long":140.842806,"status":0.0,"note":null,"address":"岩沼市南長谷字諏訪１２４番地","row_num":2677},{"area_id":13,"name":"観音堂バス停南側","lat":38.0917542,"long":140.8485873,"status":0.0,"note":null,"address":"岩沼市南長谷字錦地内","row_num":2678},{"area_id":13,"name":"根方公会堂西側","lat":38.0930164,"long":140.845654,"status":0.0,"note":null,"address":"岩沼市南長谷字蛭９９番地","row_num":2679},{"area_id":13,"name":"Ａ様宅東側","lat":38.0970694,"long":140.8418519,"status":0.0,"note":null,"address":"岩沼市南長谷字台６５番地","row_num":2680},{"area_id":13,"name":"Ｍ様宅東側","lat":38.0999505,"long":140.8413311,"status":1.0,"note":null,"address":"岩沼市南長谷字泉１２番地","row_num":2681},{"area_id":13,"name":"朝日一丁目公園西側","lat":38.1148406,"long":140.8589898,"status":0.0,"note":null,"address":"岩沼市朝日一丁目２番地内","row_num":2682},{"area_id":13,"name":"Ｏ様宅南側","lat":38.1128374,"long":140.8556633,"status":0.0,"note":null,"address":"岩沼市土ケ崎四丁目１２番２０号","row_num":2683},{"area_id":13,"name":"西児童センター東側","lat":38.1043106,"long":140.8701987,"status":0.0,"note":null,"address":"岩沼市松ヶ丘一丁目１０番１号","row_num":2684},{"area_id":13,"name":"岩沼西小学校西側","lat":38.1043106,"long":140.8701987,"status":0.0,"note":null,"address":"岩沼市松ヶ丘一丁目１７番地","row_num":2685},{"area_id":13,"name":"たけくま二丁目公園北側","lat":38.1094518,"long":140.8543819,"status":0.0,"note":null,"address":"岩沼市たけくま二丁目１０番地内","row_num":2686},{"area_id":13,"name":"たけくま一丁目公園北側","lat":38.1094445,"long":140.8592466,"status":0.0,"note":null,"address":"岩沼市たけくま一丁目１６番地内","row_num":2687},{"area_id":13,"name":"デイサービスセンターたけくま様南側","lat":38.1084741,"long":140.8520305,"status":0.0,"note":null,"address":"岩沼市たけくま三丁目６番８号","row_num":2688},{"area_id":13,"name":"大日堂様駐車場入口","lat":38.1015322,"long":140.8387239,"status":0.0,"note":null,"address":"岩沼市北長谷字畑堤上１３番地１","row_num":2689},{"area_id":13,"name":"北長谷公会堂東側","lat":38.1064798,"long":140.8418651,"status":0.0,"note":null,"address":"岩沼市北長谷字畑中道６４番地","row_num":2690},{"area_id":13,"name":"県立支援学校岩沼高等学園北側","lat":38.1091044,"long":140.8434561,"status":0.0,"note":null,"address":"岩沼市北長谷字豊田５１番地の４","row_num":2691},{"area_id":13,"name":"松ヶ丘第２公園北側","lat":38.1043106,"long":140.8701987,"status":0.0,"note":null,"address":"岩沼市松ヶ丘二丁目地内","row_num":2692},{"area_id":13,"name":"千貫住宅集会所西向側","lat":38.1043106,"long":140.8701987,"status":0.0,"note":null,"address":"岩沼市松ヶ丘三丁目８番地の１","row_num":2693},{"area_id":13,"name":"朝日二丁目公園北西側","lat":38.1156326,"long":140.8569067,"status":0.0,"note":null,"address":"岩沼市朝日二丁目１番地内","row_num":2694},{"area_id":13,"name":"アルルⅠ南側フェンス","lat":38.1177374,"long":140.8591178,"status":0.0,"note":null,"address":"岩沼市字大和１７４番地の１","row_num":2695},{"area_id":13,"name":"平等ポンプ場東側フェンス","lat":38.1130123,"long":140.8452959,"status":0.0,"note":null,"address":"岩沼市平等一丁目５番地の５","row_num":2696},{"area_id":13,"name":"平等第１公園東側","lat":38.11374,"long":140.8432884,"status":0.0,"note":null,"address":"岩沼市平等三丁目１番地の５","row_num":2697},{"area_id":13,"name":"岩沼西中学校東側","lat":38.1181481,"long":140.8452825,"status":0.0,"note":null,"address":"岩沼市三色吉字竹１１番地","row_num":2698},{"area_id":13,"name":"勤労者活動センター西側","lat":38.1218512,"long":140.8469403,"status":0.0,"note":null,"address":"岩沼市三色吉字松１５０番地の１","row_num":2699},{"area_id":13,"name":"梅一号公園北側","lat":38.1191208,"long":140.8475411,"status":0.0,"note":null,"address":"岩沼市三色吉字梅１６９番地内","row_num":2700},{"area_id":13,"name":"鶴二号公園北側","lat":38.1180087,"long":140.8490886,"status":0.0,"note":null,"address":"岩沼市竹の里一丁目地内","row_num":2701},{"area_id":13,"name":"竹の里一丁目公園西側","lat":38.1171184,"long":140.8470707,"status":0.0,"note":null,"address":"岩沼市竹の里一丁目地内","row_num":2702},{"area_id":13,"name":"Ｔ様宅東向側","lat":38.1168613,"long":140.851628,"status":0.0,"note":null,"address":"岩沼市字荒井１番２号東向","row_num":2703},{"area_id":13,"name":"Ｔ様宅南側","lat":38.1243136,"long":140.852041,"status":0.0,"note":null,"address":"岩沼市長岡字台３４番地","row_num":2704},{"area_id":13,"name":"Ｉ様宅南側畑","lat":38.127511,"long":140.8530498,"status":0.0,"note":null,"address":"岩沼市長岡字六反田３３番地","row_num":2705},{"area_id":13,"name":"Ｋ様宅入口東側畑","lat":38.1244452,"long":140.8567919,"status":0.0,"note":null,"address":"岩沼市長岡字上根崎９７番地","row_num":2706},{"area_id":13,"name":"Ｏ様宅南側","lat":38.129334,"long":140.8496635,"status":0.0,"note":null,"address":"岩沼市小川字冠木３５番地の２","row_num":2707},{"area_id":13,"name":"Ｏ様宅南側","lat":38.1307508,"long":140.8503781,"status":0.0,"note":null,"address":"岩沼市小川字鐘撞堂３２番地","row_num":2708},{"area_id":13,"name":"志賀字鳥井原県道沿（花畑）","lat":38.1314292,"long":140.7964509,"status":0.0,"note":null,"address":"岩沼市志賀字鳥居原２５－１地内","row_num":2709},{"area_id":13,"name":"Ｉ様宅南側","lat":38.132428,"long":140.8079294,"status":0.0,"note":null,"address":"岩沼市志賀字窪沢６番地","row_num":2710},{"area_id":13,"name":"Ｏ様宅南側","lat":38.1323039,"long":140.8215683,"status":0.0,"note":null,"address":"岩沼市志賀字古沢元７番地","row_num":2711},{"area_id":13,"name":"Ｍ宅南側（広報板東側）","lat":38.1325133,"long":140.8322592,"status":0.0,"note":null,"address":"岩沼市志賀字下塩ノ入８７番地の２","row_num":2712},{"area_id":13,"name":"Ｍ様宅西隣田","lat":38.1332601,"long":140.8277393,"status":0.0,"note":null,"address":"岩沼市志賀字四十刈２５番地内","row_num":2713},{"area_id":18,"name":"熊野神社北側旧国道ガードパイプ","lat":38.3992126,"long":140.8852305,"status":0.0,"note":null,"address":"富谷市富谷新町１６－１先","row_num":3772},{"area_id":18,"name":"佐忠西側歩道","lat":38.3989619,"long":140.8872076,"status":0.0,"note":null,"address":"富谷市富谷新町１０６","row_num":3773},{"area_id":18,"name":"富谷中央公民館南側フェンス","lat":38.4014029,"long":140.8905202,"status":0.0,"note":null,"address":"富谷市富谷西沢１３","row_num":3774},{"area_id":18,"name":"個人宅東側緑地帯","lat":38.3972365,"long":140.8944718,"status":0.0,"note":null,"address":"富谷市富谷清水仲１３５－３","row_num":3775},{"area_id":18,"name":"個人宅入口南側道","lat":38.3912978,"long":140.8961721,"status":0.0,"note":null,"address":"富谷市穀田立石４３－１　隣","row_num":3776},{"area_id":18,"name":"富谷市役所前","lat":38.3999043,"long":140.8953202,"status":0.0,"note":null,"address":"富谷市富谷坂松田３０","row_num":3777},{"area_id":18,"name":"ひより台一丁目南公園北側フェンス","lat":38.403618,"long":140.8830483,"status":0.0,"note":null,"address":"富谷市ひより台一丁目１２３","row_num":3778},{"area_id":18,"name":"ひより台ニ丁目会館北側フェンス","lat":38.4044279,"long":140.8879412,"status":0.0,"note":null,"address":"富谷市ひより台ニ丁目４２ー１","row_num":3779},{"area_id":18,"name":"ひより台一丁目調整池西側緑地","lat":38.4009628,"long":140.8830855,"status":0.0,"note":null,"address":"富谷市ひより台一丁目１１９","row_num":3780},{"area_id":18,"name":"太子堂ゲートボール場北西側","lat":38.4109396,"long":140.8913146,"status":0.0,"note":null,"address":"富谷市太子堂一丁目１９","row_num":3781},{"area_id":18,"name":"宮交バス停『三ノ関（上り）』北側緑地帯","lat":38.4109396,"long":140.8913146,"status":0.0,"note":null,"address":"富谷市太子堂一丁目１番先","row_num":3782},{"area_id":18,"name":"太子堂一丁目公園北西側フェンス","lat":38.4109396,"long":140.8913146,"status":0.0,"note":null,"address":"富谷市太子堂一丁目１７番内","row_num":3783},{"area_id":18,"name":"個人宅前旧市道","lat":38.4154888,"long":140.8956555,"status":0.0,"note":null,"address":"富谷市三ノ関膳部沢下１１　先","row_num":3784},{"area_id":18,"name":"個人宅前ガードパイプ","lat":38.4106465,"long":140.8839937,"status":0.0,"note":null,"address":"富谷市一ノ関コウスノ２ー５","row_num":3785},{"area_id":18,"name":"二ノ関会館前フェンス","lat":38.4177985,"long":140.8813035,"status":0.0,"note":null,"address":"富谷市二ノ関相良３０番２","row_num":3786},{"area_id":18,"name":"（有）ショーカイ自動車販売北側","lat":38.4218051,"long":140.8889335,"status":0.0,"note":null,"address":"富谷市三ノ関西沖２６ー１０","row_num":3787},{"area_id":18,"name":"志戸田会館前","lat":38.4256843,"long":140.8885426,"status":0.0,"note":null,"address":"富谷市志戸田切添３","row_num":3788},{"area_id":18,"name":"個人宅前","lat":38.3939431,"long":140.9166734,"status":0.0,"note":null,"address":"富谷市大童上八幡１０６ー５","row_num":3789},{"area_id":18,"name":"個人宅東側","lat":38.4002367,"long":140.9210862,"status":0.0,"note":null,"address":"富谷市今泉鶴巻５１　先","row_num":3790},{"area_id":18,"name":"今泉交差点個人宅前緑地帯","lat":38.3936691,"long":140.9239727,"status":0.0,"note":null,"address":"富谷市今泉新上中田５２","row_num":3791},{"area_id":18,"name":"今泉会館東側ポンプ車小屋地内","lat":38.3950586,"long":140.9260341,"status":0.0,"note":null,"address":"富谷市今泉八幡下５７－１","row_num":3792},{"area_id":18,"name":"市民バス停『間渡橋』南側ガードパイプ","lat":38.3810108,"long":140.9253854,"status":0.0,"note":null,"address":"富谷市大亀新袋４１","row_num":3793},{"area_id":18,"name":"石積会館南西側","lat":38.3681315,"long":140.9167795,"status":0.0,"note":null,"address":"富谷市石積十文字３－７","row_num":3794},{"area_id":18,"name":"個人宅前","lat":38.3520111,"long":140.9108615,"status":0.0,"note":null,"address":"富谷市明石祭田４－１","row_num":3795},{"area_id":18,"name":"旧明石消防ポンプ置場東側","lat":38.358937,"long":140.9034867,"status":0.0,"note":null,"address":"富谷市明石下寺前２－２　先","row_num":3796},{"area_id":18,"name":"西成田コミュニティセンター前","lat":38.3857507,"long":140.9063744,"status":0.0,"note":null,"address":"富谷市西成田郷田一番９４","row_num":3797},{"area_id":18,"name":"個人宅前","lat":38.3769158,"long":140.9048533,"status":0.0,"note":null,"address":"富谷市西成田榎町８２","row_num":3798},{"area_id":18,"name":"東向陽台第一会館東側柵","lat":38.3388642,"long":140.9041889,"status":0.0,"note":null,"address":"富谷市東向陽台二丁目１０番１０号","row_num":3799},{"area_id":18,"name":"宮交バス停『東向陽台一丁目』南側緑地帯","lat":38.3409183,"long":140.9036122,"status":0.0,"note":null,"address":"富谷市東向陽台一丁目１６番５号先","row_num":3800},{"area_id":18,"name":"東向陽台第二会館南側","lat":38.3429396,"long":140.8954481,"status":0.0,"note":null,"address":"富谷市東向陽台三丁目１３番１５号","row_num":3801},{"area_id":18,"name":"東向陽台公民館西側フェンス","lat":38.3414283,"long":140.9010399,"status":0.0,"note":null,"address":"富谷市明石台一丁目１","row_num":3802},{"area_id":18,"name":"個人宅前道路南側道","lat":38.3423006,"long":140.9008191,"status":0.0,"note":null,"address":"富谷市明石台一丁目３０－２","row_num":3803},{"area_id":18,"name":"東向陽台小学校西側角フェンス","lat":38.3470566,"long":140.8963116,"status":0.0,"note":null,"address":"富谷市明石台一丁目３７－１３","row_num":3804},{"area_id":18,"name":"東向陽台サニーハイツ会館北側","lat":38.3491291,"long":140.8905066,"status":0.0,"note":null,"address":"富谷市明石台ニ丁目９－２","row_num":3805},{"area_id":18,"name":"とみや子育て支援センター北東角法面","lat":38.3468722,"long":140.8999244,"status":0.0,"note":null,"address":"富谷市明石台七丁目２－１","row_num":3806},{"area_id":18,"name":"明石台八丁目第二公園東側","lat":38.3427349,"long":140.9027536,"status":0.0,"note":null,"address":"富谷市明石台八丁目２９－２","row_num":3807},{"area_id":18,"name":"明石台１０丁目第２公園東側","lat":38.3501016,"long":140.9027337,"status":0.0,"note":null,"address":"富谷市明石台十丁目１２","row_num":3808},{"area_id":18,"name":"明石台第十会館西側","lat":38.3476718,"long":140.9027896,"status":0.0,"note":null,"address":"富谷市明石台十丁目２２－１","row_num":3809},{"area_id":18,"name":"富ケ丘一丁目第２公園東側柵","lat":38.3623124,"long":140.870696,"status":0.0,"note":null,"address":"富谷市富ケ丘一丁目７番","row_num":3810},{"area_id":18,"name":"富谷消防署入口付近","lat":38.3614887,"long":140.8709458,"status":0.0,"note":null,"address":"富谷市富ケ丘一丁目２０番","row_num":3811},{"area_id":18,"name":"富ケ丘二丁目第３公園東側柵","lat":38.3633863,"long":140.864944,"status":0.0,"note":null,"address":"富谷市富ケ丘二丁目３２番","row_num":3812},{"area_id":18,"name":"富ケ丘公民館前","lat":38.3660703,"long":140.8645935,"status":0.0,"note":null,"address":"富谷市富ケ丘三丁目１番２８号","row_num":3813},{"area_id":18,"name":"富ケ丘三丁目第２公園東側フェンス","lat":38.3699318,"long":140.8627396,"status":0.0,"note":null,"address":"富谷市富ケ丘三丁目２１番","row_num":3814},{"area_id":18,"name":"富ケ丘四丁目第１公園北側フェンス","lat":38.366836,"long":140.8671317,"status":0.0,"note":null,"address":"富谷市富ケ丘四丁目６番","row_num":3815},{"area_id":18,"name":"上桜木一丁目第３公園北東柵","lat":38.3586297,"long":140.8794427,"status":0.0,"note":null,"address":"富谷市上桜木一丁目３２","row_num":3816},{"area_id":18,"name":"鷹乃杜団地南入口東側歩道ガードパイプ","lat":38.3663419,"long":140.8715954,"status":0.0,"note":null,"address":"富谷市鷹乃杜二丁目１番","row_num":3817},{"area_id":18,"name":"鷹乃杜一丁目公園西側入口","lat":38.3632977,"long":140.8715041,"status":0.0,"note":null,"address":"富谷市鷹乃杜一丁目４番先","row_num":3818},{"area_id":18,"name":"鷹乃杜第二会館向法面","lat":38.3663419,"long":140.8715954,"status":0.0,"note":null,"address":"富谷市鷹乃杜二丁目２２番","row_num":3819},{"area_id":18,"name":"鷹乃杜二丁目公園南側法面","lat":38.3669945,"long":140.8695608,"status":0.0,"note":null,"address":"富谷市鷹乃杜二丁目２１番","row_num":3820},{"area_id":18,"name":"鷹乃杜三丁目公園東側柵","lat":38.3698215,"long":140.8696433,"status":0.0,"note":null,"address":"富谷市鷹乃杜三丁目２８番","row_num":3821},{"area_id":18,"name":"鷹乃杜四丁目個人宅東側向歩道ガードパイプ","lat":38.3699822,"long":140.8720827,"status":0.0,"note":null,"address":"富谷市鷹乃杜四丁目３番","row_num":3822},{"area_id":18,"name":"あけの平団地北入口北側","lat":38.3826633,"long":140.8745511,"status":0.0,"note":null,"address":"富谷市あけの平一丁目１－４","row_num":3823},{"area_id":18,"name":"あけの平二丁目公園南側柵","lat":38.377839,"long":140.875548,"status":0.0,"note":null,"address":"富谷市あけの平二丁目５－９","row_num":3824},{"area_id":18,"name":"あけの平公民館北側フェンス","lat":38.378359,"long":140.878551,"status":0.0,"note":null,"address":"富谷市あけの平二丁目２２－１４","row_num":3825},{"area_id":18,"name":"あけの平三丁目公園南側柵","lat":38.3751744,"long":140.8772448,"status":0.0,"note":null,"address":"富谷市あけの平三丁目６－９","row_num":3826},{"area_id":18,"name":"あけの平団地南入口南側歩道ガードパイプ","lat":38.3776164,"long":140.876851,"status":0.0,"note":null,"address":"富谷市あけの平二丁目３７－４","row_num":3827},{"area_id":18,"name":"とちの木一丁目調整池東側","lat":38.3894167,"long":140.8834285,"status":0.0,"note":null,"address":"富谷市とちの木一丁目２番","row_num":3828},{"area_id":18,"name":"オートヒルズ入口南側交差点緑地","lat":38.3677445,"long":140.8775086,"status":0.0,"note":null,"address":"富谷市大清水二丁目５３","row_num":3829},{"area_id":18,"name":"大清水一丁目第１公園西側柵","lat":38.3731127,"long":140.8783112,"status":0.0,"note":null,"address":"富谷市大清水一丁目３ー３","row_num":3830},{"area_id":18,"name":"個人宅向南側歩道法面","lat":38.3729178,"long":140.8649839,"status":0.0,"note":null,"address":"富谷市日吉台一丁目３９","row_num":3831},{"area_id":18,"name":"日吉台公園東側柵","lat":38.3720639,"long":140.8636212,"status":1.0,"note":null,"address":"富谷市日吉台一丁目２４－１","row_num":3832},{"area_id":18,"name":"日吉台二丁目公園西側柵","lat":38.3767042,"long":140.8651181,"status":1.0,"note":null,"address":"富谷市日吉台二丁目２２－１６","row_num":3833},{"area_id":18,"name":"日吉台三丁目公園北側柵","lat":38.3802771,"long":140.86684,"status":1.0,"note":null,"address":"富谷市日吉台三丁目７－９","row_num":3834},{"area_id":18,"name":"市民バス停『日吉台銀行前』、南側フェンス","lat":38.3795088,"long":140.8671141,"status":0.0,"note":null,"address":"富谷市日吉台三丁目９－３","row_num":3835},{"area_id":18,"name":"日吉台中学校北西側フェンス","lat":38.3817039,"long":140.8668045,"status":1.0,"note":null,"address":"富谷市日吉台三丁目１９－２","row_num":3836},{"area_id":18,"name":"杜乃橋一丁目公園東側柵","lat":38.3840712,"long":140.8715611,"status":0.0,"note":null,"address":"富谷市杜乃橋一丁目１１－６","row_num":3837},{"area_id":18,"name":"杜乃橋公園南西角緑地","lat":38.38666,"long":140.8704823,"status":0.0,"note":null,"address":"富谷市杜乃橋二丁目３１","row_num":3838},{"area_id":18,"name":"成田公民館入口北側","lat":38.364367,"long":140.890373,"status":0.0,"note":null,"address":"富谷市成田一丁目１－１","row_num":3839},{"area_id":18,"name":"成田四丁目第１公園","lat":38.3629618,"long":140.89635,"status":0.0,"note":null,"address":"富谷市成田四丁目１５－１","row_num":3840},{"area_id":18,"name":"成田七丁目会館前","lat":38.3590638,"long":140.8972175,"status":0.0,"note":null,"address":"富谷市成田七丁目７－５","row_num":3841},{"area_id":18,"name":"成田小学校南角法面","lat":38.3672753,"long":140.8933815,"status":0.0,"note":null,"address":"富谷市成田三丁目１－１","row_num":3842},{"area_id":18,"name":"宮交バス停『成田東公園前（上り）』北側ガードパイプ","lat":38.3675541,"long":140.897776,"status":0.0,"note":null,"address":"富谷市成田三丁目３７","row_num":3843},{"area_id":18,"name":"市民バス停『成田中学校』北側","lat":38.3662609,"long":140.9014994,"status":0.0,"note":null,"address":"富谷市成田三丁目３４－１","row_num":3844},{"area_id":18,"name":"成田六丁目第２公園南側空地","lat":38.363259,"long":140.9027726,"status":0.0,"note":null,"address":"富谷市成田六丁目２７－２","row_num":3845},{"area_id":18,"name":"成田西公園バスケットボール場前","lat":38.3607592,"long":140.8886969,"status":0.0,"note":null,"address":"富谷市成田九丁目４","row_num":3846},{"area_id":18,"name":"明石台三丁目公園北側","lat":38.3479547,"long":140.8884556,"status":0.0,"note":null,"address":"富谷市明石台三丁目１４－２","row_num":3847},{"area_id":18,"name":"明石台五丁目公園西側","lat":38.3505323,"long":140.8908699,"status":0.0,"note":null,"address":"富谷市明石台五丁目１０","row_num":3848},{"area_id":18,"name":"明石台小学校南側法面","lat":38.3554209,"long":140.8909768,"status":0.0,"note":null,"address":"富谷市明石台五丁目４５","row_num":3849},{"area_id":18,"name":"明石台四丁目第１公園","lat":38.3492218,"long":140.8846238,"status":0.0,"note":null,"address":"富谷市明石台四丁目５－２","row_num":3850},{"area_id":18,"name":"明石台四丁目第２公園","lat":38.3523855,"long":140.8868477,"status":0.0,"note":null,"address":"富谷市明石台四丁目８－２","row_num":3851},{"area_id":18,"name":"明石台六丁目広場","lat":38.348874,"long":140.894216,"status":0.0,"note":null,"address":"富谷市明石台六丁目２７","row_num":3852},{"area_id":18,"name":"明石台九丁目会館南側","lat":38.3520317,"long":140.8983111,"status":0.0,"note":null,"address":"富谷市明石台九丁目２０－２","row_num":3853},{"area_id":18,"name":"明石台九丁目交差点北東歩道脇","lat":38.3516312,"long":140.9004304,"status":0.0,"note":null,"address":"富谷市明石台九丁目４２","row_num":3854},{"area_id":26,"name":"ショッピングパーク亘理西側塀","lat":38.0340746,"long":140.8495681,"status":0.0,"note":null,"address":"亘理町字旧舘８番","row_num":4319},{"area_id":26,"name":"旧亘理町南集会所西側フェンス","lat":38.0353189,"long":140.8553318,"status":0.0,"note":null,"address":"亘理町字中町１番9","row_num":4320},{"area_id":26,"name":"上舘生活センター北側フェンス","lat":38.0315363,"long":140.8528547,"status":0.0,"note":null,"address":"亘理町字舘南４４番３","row_num":4321},{"area_id":26,"name":"民家前フェンス","lat":38.0293674,"long":140.8542053,"status":0.0,"note":null,"address":"亘理町字南町１９番","row_num":4322},{"area_id":26,"name":"民家前ブロック塀","lat":38.0258934,"long":140.8540505,"status":0.0,"note":null,"address":"亘理町字台田２９番１","row_num":4323},{"area_id":26,"name":"せとや南側道路向フェンス","lat":38.0343821,"long":140.8539456,"status":0.0,"note":null,"address":"亘理町字中町９番１","row_num":4324},{"area_id":26,"name":"民家前ブロック塀","lat":38.0343163,"long":140.8579636,"status":0.0,"note":null,"address":"亘理町字中町東１７９番２","row_num":4325},{"area_id":26,"name":"いちょうの実幼稚園南側フェンス","lat":38.0376345,"long":140.8463112,"status":0.0,"note":null,"address":"亘理町字祝田９８番","row_num":4326},{"area_id":26,"name":"旧亘理町保健センター北道路向フェンス","lat":38.0384093,"long":140.8539892,"status":0.0,"note":null,"address":"亘理町字桜小路１番","row_num":4327},{"area_id":26,"name":"亘理小学校西側フェンス","lat":38.0364608,"long":140.8536107,"status":0.0,"note":null,"address":"亘理町字下小路22番２","row_num":4328},{"area_id":26,"name":"民家前ブロック塀","lat":38.03653,"long":140.8546585,"status":0.0,"note":null,"address":"亘理町字五日町８番１","row_num":4329},{"area_id":26,"name":"瓦置場前石塀","lat":38.0398432,"long":140.8532811,"status":0.0,"note":null,"address":"亘理町字桜小路４４番２","row_num":4330},{"area_id":26,"name":"民家前ブロック塀","lat":38.0423355,"long":140.8545047,"status":0.0,"note":null,"address":"亘理町字新井町２５番５","row_num":4331},{"area_id":26,"name":"旧舘運動場北側フェンス","lat":38.0347826,"long":140.8491204,"status":0.0,"note":null,"address":"亘理町字旧舘６１番５５","row_num":4332},{"area_id":26,"name":"亘理保育所西側フェンス","lat":38.0334233,"long":140.8590024,"status":0.0,"note":null,"address":"亘理町字中町東１９０番１","row_num":4333},{"area_id":26,"name":"駅前西区ごみ集積所南側敷地","lat":38.0388973,"long":140.8594844,"status":0.0,"note":null,"address":"亘理町字道田西７番２","row_num":4334},{"area_id":26,"name":"亘理駅西口前花壇","lat":38.0404328,"long":140.8606991,"status":0.0,"note":null,"address":"亘理町字道田西６９番１４","row_num":4335},{"area_id":26,"name":"日幸電機（株）分工場前フェンス","lat":38.0324883,"long":140.8615962,"status":0.0,"note":null,"address":"亘理町字上浜街道２３番１","row_num":4336},{"area_id":26,"name":"（株）竹内農機商会倉庫前ブロック塀","lat":38.0340818,"long":140.8613033,"status":0.0,"note":null,"address":"亘理町字上茨田４３番１","row_num":4337},{"area_id":26,"name":"わたり眼科向花壇","lat":38.0366722,"long":140.8598299,"status":0.0,"note":null,"address":"亘理町字上茨田３番４地先","row_num":4338},{"area_id":26,"name":"南城東区町内会防災庫南側敷地","lat":38.0279679,"long":140.8605844,"status":0.0,"note":null,"address":"亘理町字油田４５番２","row_num":4339},{"area_id":26,"name":"下茨田住宅東側入口","lat":38.0386104,"long":140.8664383,"status":0.0,"note":null,"address":"亘理町字下茨田２００番","row_num":4340},{"area_id":26,"name":"亘理町役場西側敷地","lat":38.0442056,"long":140.8679241,"status":0.0,"note":null,"address":"亘理町字悠里１番","row_num":4341},{"area_id":26,"name":"亘理駅東口送迎用駐車場東側花壇","lat":38.0402891,"long":140.8615144,"status":0.0,"note":null,"address":"亘理町字西郷１４０番","row_num":4342},{"area_id":26,"name":"下茨田北区ごみ集積所南側フェンス","lat":38.0371886,"long":140.8660917,"status":0.0,"note":null,"address":"亘理町字下茨田１番１","row_num":4343},{"area_id":26,"name":"下茨田南住宅調整池南側フェンス","lat":38.0364431,"long":140.8660545,"status":0.0,"note":null,"address":"亘理町字下茨田５２番１","row_num":4344},{"area_id":26,"name":"江下団地公園南側フェンス","lat":38.0373694,"long":140.8723112,"status":0.0,"note":null,"address":"亘理町字江下７番２７","row_num":4345},{"area_id":26,"name":"学校給食センター向堤塘敷地","lat":38.0373694,"long":140.8723112,"status":0.0,"note":null,"address":"亘理町字江下１６４番２","row_num":4346},{"area_id":26,"name":"民家北側ガードレール","lat":38.0189955,"long":140.8575743,"status":0.0,"note":null,"address":"亘理町長瀞字堂前１５５番３地先","row_num":4347},{"area_id":26,"name":"長瀞ガーデン入口東道路向","lat":38.0140999,"long":140.8521212,"status":0.0,"note":null,"address":"亘理町長瀞字河原３９番７地先","row_num":4348},{"area_id":26,"name":"民家前ブロック塀","lat":38.0167243,"long":140.8592874,"status":0.0,"note":null,"address":"亘理町長瀞字長井戸３８番","row_num":4349},{"area_id":26,"name":"民家前フェンス","lat":38.0132799,"long":140.8605504,"status":0.0,"note":null,"address":"亘理町吉田字大畑１４番","row_num":4350},{"area_id":26,"name":"民家西側ブロック塀","lat":38.0113994,"long":140.8616343,"status":0.0,"note":null,"address":"亘理町吉田字大坂1番","row_num":4351},{"area_id":26,"name":"仙台農業協同組合吉田支店北側フェンス","lat":38.0082144,"long":140.8623727,"status":0.0,"note":null,"address":"亘理町吉田字中原５５番４９","row_num":4352},{"area_id":26,"name":"民家南側向畑","lat":38.0088389,"long":140.8554875,"status":0.0,"note":null,"address":"亘理町吉田字畑中１７番２","row_num":4353},{"area_id":26,"name":"旧ドライブインサザエ駐車場西側","lat":38.0051903,"long":140.8645957,"status":0.0,"note":null,"address":"亘理町吉田字南堰上１番４","row_num":4354},{"area_id":26,"name":"民家前南側敷地","lat":38.0211252,"long":140.8495816,"status":0.0,"note":null,"address":"亘理町長瀞字坂下１５８番","row_num":4355},{"area_id":26,"name":"民家前ブロック塀","lat":38.0254671,"long":140.8805161,"status":0.0,"note":null,"address":"亘理町長瀞字西谷地１１２番５","row_num":4356},{"area_id":26,"name":"民家前ブロック塀","lat":38.0234669,"long":140.8809575,"status":0.0,"note":null,"address":"亘理町長瀞字西谷地１３９番","row_num":4357},{"area_id":26,"name":"民家前ブロック塀","lat":38.0197743,"long":140.8807138,"status":0.0,"note":null,"address":"亘理町吉田字松元１８１番","row_num":4358},{"area_id":26,"name":"吉田中学校南側フェンス","lat":38.0145951,"long":140.882239,"status":0.0,"note":null,"address":"亘理町吉田字松元２３８番１４","row_num":4359},{"area_id":26,"name":"民家西側空地道路沿","lat":38.0187941,"long":140.8958315,"status":0.0,"note":null,"address":"亘理町長瀞字南原１０番地先","row_num":4360},{"area_id":26,"name":"民家前ブロック塀跡","lat":38.0190326,"long":140.895941,"status":0.0,"note":null,"address":"亘理町長瀞字南原１９３番５８","row_num":4361},{"area_id":26,"name":"民家前ブロック塀跡","lat":38.0246031,"long":140.8939462,"status":0.0,"note":null,"address":"亘理町長瀞字南原５７番１","row_num":4362},{"area_id":26,"name":"旧鞠子ガソリンスタンド南側向ブロック塀跡","lat":38.0279665,"long":140.8944829,"status":0.0,"note":null,"address":"亘理町長瀞字大橋２２６番","row_num":4363},{"area_id":26,"name":"長瀞小学校南側フェンス","lat":38.0193646,"long":140.8957921,"status":0.0,"note":null,"address":"亘理町長瀞字南原１９３番１７９","row_num":4364},{"area_id":26,"name":"民家前東側畑","lat":38.0182037,"long":140.9044214,"status":0.0,"note":null,"address":"亘理町吉田字道上４７番１","row_num":4365},{"area_id":26,"name":"民家前西側畑","lat":38.0265592,"long":140.9018312,"status":0.0,"note":null,"address":"亘理町吉田字村２３２番","row_num":4366},{"area_id":26,"name":"民家前ブロック塀","lat":38.0026891,"long":140.8966889,"status":0.0,"note":null,"address":"亘理町吉田字小橋１３０番","row_num":4367},{"area_id":26,"name":"仙台農業協同組合中部営農センター南側フェンス","lat":38.0024977,"long":140.8840969,"status":0.0,"note":null,"address":"亘理町吉田字大谷地７２番７","row_num":4368},{"area_id":26,"name":"民家前ブロック塀","lat":38.0032535,"long":140.8891597,"status":0.0,"note":null,"address":"亘理町吉田字流１４６番９１０","row_num":4369},{"area_id":26,"name":"民家前ブロック塀","lat":38.0006393,"long":140.8901783,"status":0.0,"note":null,"address":"亘理町吉田字流１４６番３９５","row_num":4370},{"area_id":26,"name":"民家前ブロック塀","lat":38.003443,"long":140.8919471,"status":0.0,"note":null,"address":"亘理町吉田字流１４６番１３４","row_num":4371},{"area_id":26,"name":"民家北側畑","lat":38.0049417,"long":140.8859202,"status":0.0,"note":null,"address":"亘理町吉田字板橋１１３番２０","row_num":4372},{"area_id":26,"name":"民家前西側空地道路沿","lat":38.0067735,"long":140.8891543,"status":0.0,"note":null,"address":"亘理町吉田字大塚１７５番２","row_num":4373},{"area_id":26,"name":"大谷地住宅公園北側フェンス","lat":38.0039488,"long":140.8861515,"status":0.0,"note":null,"address":"亘理町吉田字大谷地７８番","row_num":4374},{"area_id":26,"name":"民家前空地","lat":38.0501094,"long":140.9052747,"status":0.0,"note":null,"address":"亘理町荒浜字水神６９番","row_num":4375},{"area_id":26,"name":"荒浜小学校南側フェンス","lat":38.0487143,"long":140.9090139,"status":0.0,"note":null,"address":"亘理町荒浜字隈潟６７番","row_num":4376},{"area_id":26,"name":"荒浜中学校南側フェンス","lat":38.0433159,"long":140.9088653,"status":0.0,"note":null,"address":"亘理町荒浜字東木倉７０番１","row_num":4377},{"area_id":26,"name":"民家北側畑フェンス","lat":38.0471843,"long":140.9041995,"status":0.0,"note":null,"address":"亘理町荒浜字西木倉１１４番２","row_num":4378},{"area_id":26,"name":"民家前南側ブロック塀跡","lat":38.0419294,"long":140.9010494,"status":0.0,"note":null,"address":"亘理町逢隈高屋字中原２６番２","row_num":4379},{"area_id":26,"name":"（株）太田工務店資材置場北側敷地","lat":38.0390096,"long":140.8970031,"status":0.0,"note":null,"address":"亘理町逢隈高屋字鳥東４番","row_num":4380},{"area_id":26,"name":"（株）阿部工務店八幡資材置場北側敷地","lat":38.0450574,"long":140.8972127,"status":0.0,"note":null,"address":"亘理町荒浜字八幡４番１１","row_num":4381},{"area_id":26,"name":"荒浜中野団地公園東側フェンス","lat":38.0461202,"long":140.9081839,"status":0.0,"note":null,"address":"亘理町荒浜字中野１４５番３６","row_num":4382},{"area_id":26,"name":"（有）齋藤建材資材置場前フェンス","lat":38.0765946,"long":140.9013854,"status":0.0,"note":null,"address":"亘理町荒浜字上新田９６番４","row_num":4383},{"area_id":26,"name":"旧（株）関東土木事務所北側フェンス","lat":38.0712837,"long":140.900501,"status":0.0,"note":null,"address":"亘理町荒浜字下新田１４２番２","row_num":4384},{"area_id":26,"name":"民家前ブロック塀","lat":38.0691423,"long":140.9007992,"status":0.0,"note":null,"address":"亘理町荒浜字西原９９番１４","row_num":4385},{"area_id":26,"name":"逢隈駅前広場フェンス","lat":38.0671996,"long":140.8527512,"status":0.0,"note":null,"address":"亘理町逢隈下郡字椿山地内","row_num":4386},{"area_id":26,"name":"仙台農業協同組合逢隈倉庫西側フェンス","lat":38.0687301,"long":140.8627155,"status":0.0,"note":null,"address":"亘理町逢隈田沢字遠原３６番","row_num":4387},{"area_id":26,"name":"逢隈小学校西側フェンス","lat":38.0731912,"long":140.8657049,"status":0.0,"note":null,"address":"亘理町逢隈田沢字鈴木堀９３番１","row_num":4388},{"area_id":26,"name":"逢隈保育園西側フェンス","lat":38.0752464,"long":140.8626074,"status":0.0,"note":null,"address":"亘理町逢隈田沢字鈴木堀６番１","row_num":4389},{"area_id":26,"name":"民家前道路西側空地","lat":38.0778666,"long":140.8653379,"status":0.0,"note":null,"address":"亘理町逢隈田沢字土手下７１番","row_num":4390},{"area_id":26,"name":"民家前ブロック塀","lat":38.080023,"long":140.8668222,"status":0.0,"note":null,"address":"亘理町逢隈中泉字町裏３３番","row_num":4391},{"area_id":26,"name":"民家前フェンス","lat":38.0820512,"long":140.8677247,"status":0.0,"note":null,"address":"亘理町逢隈中泉字町裏５２番","row_num":4392},{"area_id":26,"name":"民家前ブロック塀","lat":38.0704755,"long":140.8709107,"status":0.0,"note":null,"address":"亘理町逢隈十文字字牛頭２０３番","row_num":4393},{"area_id":26,"name":"榎袋公会堂北側畑沿","lat":38.0637174,"long":140.8770825,"status":0.0,"note":null,"address":"亘理町逢隈榎袋字砂金１６１番１","row_num":4394},{"area_id":26,"name":"民家前敷地","lat":38.065223,"long":140.8635608,"status":0.0,"note":null,"address":"亘理町逢隈下郡字原５番３地先","row_num":4395},{"area_id":26,"name":"民家前フェンス","lat":38.0518332,"long":140.8497095,"status":0.0,"note":null,"address":"亘理町逢隈神宮寺字袖ヶ沢３７番","row_num":4396},{"area_id":26,"name":"民家前東道路向フェンス","lat":38.0407171,"long":140.8582384,"status":0.0,"note":null,"address":"亘理町逢隈鹿島字町東南３３番地先","row_num":4397},{"area_id":26,"name":"民家前ブロック塀","lat":38.0513969,"long":140.8548213,"status":0.0,"note":null,"address":"亘理町逢隈神宮寺字中谷地２０５番２","row_num":4398},{"area_id":26,"name":"民家前ブロック塀","lat":38.0573807,"long":140.8535159,"status":0.0,"note":null,"address":"亘理町逢隈上郡字花立２６番","row_num":4399},{"area_id":26,"name":"鹿島保育所道路沿敷地","lat":38.0466371,"long":140.8537007,"status":0.0,"note":null,"address":"亘理町逢隈鹿島字吹田３４番２","row_num":4400},{"area_id":26,"name":"袖ヶ沢住宅東側敷地","lat":38.0521562,"long":140.849385,"status":0.0,"note":null,"address":"亘理町逢隈神宮寺字袖ヶ沢６７番１地先","row_num":4401},{"area_id":26,"name":"宮城シナネン販売（株）亘理営業所東側ガードパイプ","lat":38.0452644,"long":140.849048,"status":0.0,"note":null,"address":"亘理町逢隈鹿島字寺前南２３番７地先","row_num":4402},{"area_id":26,"name":"椿山台入口ガードレール","lat":38.0624884,"long":140.8478215,"status":0.0,"note":null,"address":"亘理町逢隈上郡字椿山２７番１地先","row_num":4403},{"area_id":26,"name":"民家南側畑","lat":38.0329194,"long":140.8821297,"status":0.0,"note":null,"address":"亘理町逢隈高屋字柴８０番１","row_num":4404},{"area_id":26,"name":"大泉院東道路向ブロック塀","lat":38.0348585,"long":140.8818292,"status":0.0,"note":null,"address":"亘理町逢隈高屋字柴９９番","row_num":4405},{"area_id":26,"name":"民家前ブロック塀","lat":38.0430111,"long":140.8867181,"status":0.0,"note":null,"address":"亘理町逢隈高屋字倉東１０４番１","row_num":4406},{"area_id":26,"name":"民家前ブロック塀","lat":38.0426384,"long":140.8855255,"status":0.0,"note":null,"address":"亘理町逢隈高屋字倉東１１０番２","row_num":4407},{"area_id":26,"name":"高屋小学校東側フェンス","lat":38.0466007,"long":140.8835403,"status":0.0,"note":null,"address":"亘理町逢隈高屋字保戸原５４番２","row_num":4408},{"area_id":26,"name":"旧遊佐商店北側敷地","lat":38.0552185,"long":140.8874682,"status":0.0,"note":null,"address":"亘理町逢隈蕨字酉５１番１地先","row_num":4409},{"area_id":26,"name":"民家南側畑道路沿","lat":38.0547955,"long":140.8832322,"status":0.0,"note":null,"address":"亘理町逢隈鷺屋字狭間６０番４","row_num":4410},{"area_id":26,"name":"共栄プラスチック（株）向敷地","lat":38.0740326,"long":140.8614209,"status":0.0,"note":null,"address":"亘理町逢隈田沢字壇の越１番１４地先","row_num":4411},{"area_id":26,"name":"田沢活性化センター前ガードレール","lat":38.0758977,"long":140.8433486,"status":0.0,"note":null,"address":"亘理町逢隈田沢字堰下２０３番１地先","row_num":4412},{"area_id":26,"name":"民家前ブロック塀","lat":38.074786,"long":140.837582,"status":0.0,"note":null,"address":"亘理町逢隈小山字内堀小８７番","row_num":4413},{"area_id":26,"name":"小山交差点南側畑","lat":38.0764913,"long":140.8295456,"status":0.0,"note":null,"address":"亘理町逢隈小山字西山３０番","row_num":4414},{"area_id":26,"name":"東北センコー運輸㈱車庫東側","lat":38.0847462,"long":140.8712202,"status":0.0,"note":null,"address":"亘理町逢隈中泉字大原５６番地","row_num":4415},{"area_id":26,"name":"宮城県亘理農業普及センター東側フェンス","lat":38.0883742,"long":140.87394,"status":0.0,"note":null,"address":"亘理町逢隈中泉字本木９番","row_num":4416},{"area_id":26,"name":"民家前ブロック塀","lat":38.0793016,"long":140.877752,"status":1.0,"note":null,"address":"亘理町逢隈中泉字的場１１３番３","row_num":4417},{"area_id":26,"name":"おおくま公園南側フェンス","lat":38.0797927,"long":140.8718587,"status":0.0,"note":null,"address":"亘理町逢隈中泉字中１０９番４","row_num":4418},{"area_id":26,"name":"今泉バス停前花壇","lat":38.0906042,"long":140.8831701,"status":0.0,"note":null,"address":"亘理町逢隈中泉字堂の前８番３","row_num":4419},{"area_id":26,"name":"民家前ブロック塀","lat":38.0759642,"long":140.8735636,"status":0.0,"note":null,"address":"亘理町逢隈牛袋字谷地添１６１番","row_num":4420},{"area_id":26,"name":"民家前ブロック塀","lat":38.0787836,"long":140.8813636,"status":0.0,"note":null,"address":"亘理町逢隈牛袋字境３６番","row_num":4421},{"area_id":26,"name":"防火水槽前敷地","lat":38.0718796,"long":140.8818972,"status":0.0,"note":null,"address":"亘理町逢隈十文字字佐渡１６０番２","row_num":4422},{"area_id":27,"name":"八手庭農村集落多目的センター","lat":37.9967326,"long":140.8615876,"status":0.0,"note":null,"address":"山元町八手庭字北向４０番","row_num":4423},{"area_id":27,"name":"八手庭信号機西","lat":37.9974137,"long":140.8632455,"status":0.0,"note":null,"address":"山元町八手庭字前田２２番１地先","row_num":4424},{"area_id":27,"name":"個人宅東ブロック塀","lat":37.9919929,"long":140.8678008,"status":0.0,"note":null,"address":"山元町大平字小屋前２８番","row_num":4425},{"area_id":27,"name":"大平ポンプ置場北","lat":37.9870038,"long":140.860615,"status":0.0,"note":null,"address":"山元町大平字樋下２番２","row_num":4426},{"area_id":27,"name":"個人宅南畑","lat":37.9869686,"long":140.8655609,"status":0.0,"note":null,"address":"山元町大平字清水１番１","row_num":4427},{"area_id":27,"name":"小平老人憩の家北東","lat":37.9836395,"long":140.8645188,"status":0.0,"note":null,"address":"山元町小平字北８４番３","row_num":4428},{"area_id":27,"name":"松並住宅入口北","lat":37.9940802,"long":140.890953,"status":0.0,"note":null,"address":"山元町山寺字西牛橋３５番５５","row_num":4429},{"area_id":27,"name":"牛橋区民会館","lat":37.9907428,"long":140.891786,"status":0.0,"note":null,"address":"山元町山寺字西牛橋４０番８５","row_num":4430},{"area_id":27,"name":"個人宅西ブロック塀","lat":37.9738028,"long":140.8639279,"status":0.0,"note":null,"address":"山元町鷲足字中島３４番","row_num":4431},{"area_id":27,"name":"山元中学校敷地南西角","lat":37.9689311,"long":140.8717352,"status":0.0,"note":null,"address":"山元町山寺字畑中２８番１","row_num":4432},{"area_id":27,"name":"個人宅東","lat":37.9625408,"long":140.8767513,"status":0.0,"note":null,"address":"山元町浅生原字作田山２番１４１","row_num":4433},{"area_id":27,"name":"個人宅東ブロック塀","lat":37.9706997,"long":140.8762811,"status":0.0,"note":null,"address":"山元町山寺字石田４４番１１","row_num":4434},{"area_id":27,"name":"個人宅西畑","lat":37.9662724,"long":140.8788242,"status":0.0,"note":null,"address":"山元町浅生原字南山下４９番１","row_num":4435},{"area_id":27,"name":"正雲寺北Ｙ字路","lat":37.9543836,"long":140.8822243,"status":0.0,"note":null,"address":"山元町浅生原字下宮前","row_num":4436},{"area_id":27,"name":"寺嶋葬祭南空地","lat":37.9587021,"long":140.8809489,"status":0.0,"note":null,"address":"山元町浅生原字田中２８番１","row_num":4437},